     3.01           OBSERVATION DATA    M: Mixed            RINEX VERSION / TYPE
RTKCONV 2.4.3 b33                       20200607 015419 UTC PGM / RUN BY / DATE 
log: C:\Users\LW\Desktop\test\1.ubx                         COMMENT             
format: u-blox                                              COMMENT             
                                                            MARKER NAME         
                                                            MARKER NUMBER       
                                                            MARKER TYPE         
                                                            OBSERVER / AGENCY   
                                                            REC # / TYPE / VERS 
                                                            ANT # / TYPE        
 -2005042.8407  5411172.8105  2707861.2111                  APPROX POSITION XYZ 
        0.0000        0.0000        0.0000                  ANTENNA: DELTA H/E/N
G    4 C1C L1C D1C S1C                                      SYS / # / OBS TYPES 
S    4 C1C L1C D1C S1C                                      SYS / # / OBS TYPES 
  2019     3    22     6    36    6.4900000     GPS         TIME OF FIRST OBS   
  2019     3    22     7    13   48.4910000     GPS         TIME OF LAST OBS    
G                                                           SYS / PHASE SHIFT   
S                                                           SYS / PHASE SHIFT   
                                                            END OF HEADER       
> 2019  3 22  6 36  6.4900000  0 12                     
G27  17330129.250    91070447.863       -1273.462          50.000  
G 8  17505561.576    91992336.434         960.177          50.000  
G23  18041242.480    94807354.954        -804.519          46.000  
G16  18916001.496    99404251.358       -2186.963          45.000  
G 9  19030624.193   100006612.376         976.952          46.000  
G26  20636366.077   108444795.625       -2433.877          40.000  
G 7  21192012.089   111364744.557        2639.458          36.000  
G11  21504773.563   113008344.294        3097.059          38.000  
G18  21502814.497   112998022.376        2785.607          37.000  
G31  21759994.253   114349533.313       -2755.303          40.000  
G 3  22622912.127   118884203.257       -1941.761          31.000  
G 4  20167447.962   105980646.037        1936.853          39.000  
> 2019  3 22  6 36  6.9900000  0 12                     
G27  17330250.477    91071084.621       -1273.830          49.000  
G 8  17505470.050    91991856.353         959.850          50.000  
G23  18041318.790    94807757.184        -804.756          46.000  
G16  18916209.642    99405344.799       -2187.134          45.000  
G 9  19030531.254   100006124.009         976.516          46.000  
G26  20636597.746   108446012.521       -2433.830          40.000  
G 7  21191760.998   111363424.527        2640.322          36.000  
G11  21504478.759   113006795.606        3097.069          38.000  
G18  21502549.515   112996629.660        2785.240          37.000  
G31  21760256.425   114350911.076       -2755.717          40.000  
G 3  22623096.593   118885173.738       -1941.437          31.000  
G 4  20167263.792   105979677.623        1936.758          39.000  
> 2019  3 22  6 36  7.4900000  0 12                     
G27  17330371.721    91071721.770       -1274.590          50.000  
G 8  17505378.785    91991376.652         959.227          51.000  
G23  18041395.274    94808159.819        -805.495          47.000  
G16  18916417.788    99406438.480       -2187.513          46.000  
G 9  19030438.540   100005636.018         975.670          47.000  
G26  20636829.223   108447229.620       -2434.241          41.000  
G 7  21191510.081   111362104.794        2639.238          37.000  
G11  21504184.130   113005247.158        3096.720          38.000  
G18  21502284.534   112995237.107        2785.277          38.000  
G31  21760518.684   114352289.094       -2756.236          40.000  
G 3  22623281.199   118886144.436       -1941.729          31.000  
G 4  20167079.797   105978709.586        1936.129          39.000  
> 2019  3 22  6 36  7.9900000  0 12                     
G27  17330492.878    91072359.050       -1274.583          50.000  
G 8  17505287.329    91990897.081         959.144          51.000  
G23  18041471.880    94808562.579        -805.528          47.000  
G16  18916625.812    99407532.148       -2187.246          46.000  
G 9  19030345.723   100005148.147         975.546          47.000  
G26  20637060.701   108448446.686       -2434.119          41.000  
G 7  21191258.938   111360784.961        2639.906          37.000  
G11  21503889.448   113003698.669        3097.122          38.000  
G18  21502019.517   112993844.506        2785.450          38.000  
G31  21760780.856   114353667.141       -2755.892          40.000  
G 3  22623465.752   118887114.978       -1941.042          32.000  
G 4  20166895.436   105977741.641        1935.495          39.000  
> 2019  3 22  6 36  8.4900000  0 12                     
G27  17330614.087    91072996.536       -1275.148          49.000  
G 8  17505196.151    91990417.706         958.599          49.000  
G23  18041548.487    94808965.541        -806.053          46.000  
G16  18916833.749    99408625.882       -2187.625          45.000  
G 9  19030252.783   100004660.468         975.137          46.000  
G26  20637292.160   108449663.795       -2434.458          40.000  
G 7  21191007.759   111359465.137        2640.201          37.000  
G11  21503594.731   113002150.192        3097.160          38.000  
G18  21501754.483   112992451.895        2785.613          37.000  
G31  21761042.836   114355045.299       -2756.237          40.000  
G 3  22623650.620   118888085.516       -1940.480          32.000  
G 4  20166711.371   105976773.856        1935.003          39.000  
> 2019  3 22  6 36  8.9900000  0 12                     
G27  17330735.418    91073634.143       -1275.372          51.000  
G 8  17505104.485    91989938.459         958.362          51.000  
G23  18041625.163    94809368.646        -806.407          48.000  
G16  18917041.738    99409719.585       -2187.375          46.000  
G 9  19030160.035   100004172.920         974.881          48.000  
G26  20637523.515   108450880.853       -2434.125          41.000  
G 7  21190756.528   111358145.352        2639.291          38.000  
G11  21503299.997   113000601.695        3097.183          39.000  
G18  21501489.676   112991059.267        2784.879          38.000  
G31  21761305.375   114356423.474       -2756.046          41.000  
G 3  22623835.418   118889055.960       -1940.733          32.000  
G 4  20166527.149   105975806.127        1935.290          41.000  
> 2019  3 22  6 36  9.4900000  0 12                     
G27  17330856.907    91074271.999       -1276.256          51.000  
G 8  17505013.186    91989459.438         957.554          51.000  
G23  18041701.944    94809771.970        -807.080          47.000  
G16  18917249.727    99410813.383       -2187.966          46.000  
G 9  19030067.217   100003685.585         974.195          48.000  
G26  20637754.870   108452097.988       -2434.534          42.000  
G 7  21190505.385   111356825.524        2639.525          38.000  
G11  21503005.245   112999053.270        3096.483          39.000  
G18  21501224.485   112989666.625        2785.254          38.000  
G31  21761567.285   114357801.809       -2757.402          41.000  
G 3  22624020.181   118890026.451       -1941.527          33.000  
G 4  20166342.892   105974838.617        1934.677          40.000  
> 2019  3 22  6 36  9.9900000  0 12                     
G27  17330978.570    91074910.324       -1277.198          51.000  
G 8  17504922.026    91988980.886         956.762          51.000  
G23  18041778.987    94810175.789        -808.215          47.000  
G16  18917457.943    99411907.511       -2188.475          46.000  
G 9  19029974.644   100003198.737         973.138          47.000  
G26  20637986.714   108453315.422       -2435.176          41.000  
G 7  21190254.433   111355506.072        2638.738          37.000  
G11  21502710.651   112997505.112        3096.383          39.000  
G18  21500959.626   112988274.320        2784.000          38.000  
G31  21761829.492   114359180.466       -2757.599          41.000  
G 3  22624204.909   118890997.132       -1941.821          32.000  
G 4  20166158.914   105973871.565        1933.749          40.000  
> 2019  3 22  6 36 10.4900000  0 12                     
G27  17331099.884    91075548.983       -1277.305          51.000  
G 8  17504831.110    91988502.668         956.453          51.000  
G23  18041856.117    94810579.937        -808.329          48.000  
G16  18917665.967    99413001.842       -2188.635          46.000  
G 9  19029881.966   100002712.206         973.127          47.000  
G26  20638218.296   108454533.029       -2435.081          41.000  
G 7  21190003.464   111354186.721        2639.388          38.000  
G11  21502416.073   112995957.179        3096.155          39.000  
G18  21500694.540   112986882.115        2784.452          38.000  
G31  21762091.996   114360559.367       -2757.516          40.000  
G 3  22624389.637   118891967.939       -1940.961          33.000  
G 4  20165974.832   105972904.805        1933.100          40.000  
> 2019  3 22  6 36 10.9900000  0 12                     
G27  17331221.302    91076187.712       -1277.369          51.000  
G 8  17504739.898    91988024.512         956.298          51.000  
G23  18041933.020    94810984.148        -808.384          47.000  
G16  18917874.026    99414096.085       -2188.263          46.000  
G 9  19029789.323   100002225.729         973.209          47.000  
G26  20638449.947   108455750.540       -2434.838          41.000  
G 7  21189752.513   111352867.306        2639.762          38.000  
G11  21502121.479   112994409.101        3096.443          39.000  
G18  21500429.471   112985489.790        2784.528          38.000  
G31  21762354.622   114361938.248       -2757.537          40.000  
G 3  22624574.312   118892938.636       -1941.424          33.000  
G 4  20165790.593   105971938.071        1933.405          39.000  
> 2019  3 22  6 36 11.4900000  0 12                     
G27  17331342.773    91076826.529       -1277.807          51.000  
G 8  17504648.459    91987546.426         955.985          50.000  
G23  18042009.993    94811388.448        -808.811          47.000  
G16  18918082.242    99415190.260       -2188.293          46.000  
G 9  19029696.854   100001739.332         972.620          47.000  
G26  20638681.599   108456967.951       -2434.927          41.000  
G 7  21189501.404   111351547.809        2638.873          37.000  
G11  21501826.797   112992860.956        3096.224          39.000  
G18  21500164.629   112984097.340        2784.634          38.000  
G31  21762616.724   114363317.109       -2757.970          40.000  
G 3  22624759.163   118893909.134       -1941.419          33.000  
G 4  20165606.405   105970971.342        1933.432          39.000  
> 2019  3 22  6 36 11.9900000  0 12                     
G27  17331464.209    91077465.390       -1277.953          51.000  
G 8  17504557.386    91987068.377         955.949          51.000  
G23  18042086.844    94811792.794        -808.970          47.000  
G16  18918290.354    99416284.343       -2188.317          46.000  
G 9  19029604.333   100001252.967         972.534          47.000  
G26  20638913.128   108458185.241       -2434.366          41.000  
G 7  21189250.295   111350228.178        2638.541          37.000  
G11  21501532.185   112991312.657        3096.754          39.000  
G18  21499899.717   112982704.787        2784.778          38.000  
G31  21762878.844   114364695.901       -2757.861          40.000  
G 3  22624943.891   118894879.434       -1940.488          34.000  
G 4  20165422.585   105970004.685        1932.769          39.000  
> 2019  3 22  6 36 12.4900000  0 12                     
G27  17331586.169    91078104.446       -1278.484          50.000  
G 8  17504466.593    91986590.529         955.406          50.000  
G23  18042163.816    94812197.329        -809.367          47.000  
G16  18918498.482    99417378.476       -2188.455          45.000  
G 9  19029511.882   100000766.802         972.026          47.000  
G26  20639144.710   108459402.583       -2435.038          40.000  
G 7  21188999.379   111348908.519        2639.248          37.000  
G11  21501237.625   112989764.422        3096.400          38.000  
G18  21499634.666   112981312.224        2784.775          37.000  
G31  21763141.225   114366074.771       -2758.062          40.000  
G 3  22625128.496   118895849.720       -1940.865          33.000  
G 4  20165238.729   105969038.167        1932.500          39.000  
> 2019  3 22  6 36 12.9900000  0 12                     
G27  17331707.901    91078743.714       -1278.796          50.000  
G 8  17504375.782    91986112.883         955.150          50.000  
G23  18042240.842    94812602.089        -809.847          47.000  
G16  18918706.855    99418472.675       -2188.600          45.000  
G 9  19029419.186   100000280.830         971.723          47.000  
G26  20639376.187   108460619.930       -2434.569          40.000  
G 7  21188748.375   111347588.921        2639.036          37.000  
G11  21500942.961   112988216.194        3096.499          38.000  
G18  21499369.440   112979919.657        2785.178          37.000  
G31  21763403.607   114367453.764       -2758.303          40.000  
G 3  22625313.102   118896819.983       -1939.893          34.000  
G 4  20165054.699   105968071.799        1932.327          39.000  
> 2019  3 22  6 36 13.4900000  0 12                     
G27  17331829.320    91079382.917       -1278.248          50.000  
G 8  17504284.849    91985635.173         955.596          50.000  
G23  18042317.832    94813006.769        -809.204          47.000  
G16  18918914.845    99419566.646       -2187.643          46.000  
G 9  19029326.997    99999794.781         972.193          47.000  
G26  20639607.839   108461837.061       -2433.998          40.000  
G 7  21188497.144   111346269.074        2640.245          37.000  
G11  21500648.401   112986667.740        3097.332          38.000  
G18  21499104.389   112978526.860        2785.807          37.000  
G31  21763665.953   114368832.569       -2757.280          40.000  
G 3  22625497.516   118897789.975       -1939.650          34.000  
G 4  20164870.739   105967105.318        1933.316          39.000  
> 2019  3 22  6 36 13.9900000  0 12                     
G27  17331950.966    91080022.028       -1278.241          50.000  
G 8  17504194.090    91985157.365         955.560          50.000  
G23  18042394.857    94813411.368        -809.195          47.000  
G16  18919123.078    99420660.398       -2187.430          46.000  
G 9  19029234.475    99999308.642         972.283          48.000  
G26  20639839.351   108463053.942       -2433.704          40.000  
G 7  21188245.774   111344948.973        2640.244          37.000  
G11  21500353.685   112985119.040        3097.446          38.000  
G18  21498839.215   112977133.769        2786.252          38.000  
G31  21763928.230   114370211.201       -2757.245          40.000  
G 3  22625681.913   118898759.621       -1938.635          34.000  
G 4  20164686.639   105966138.732        1933.456          39.000  
> 2019  3 22  6 36 14.4900000  0 12                     
G27  17332072.785    91080661.221       -1278.597          51.000  
G 8  17504103.174    91984679.633         955.045          50.000  
G23  18042472.005    94813816.046        -809.662          47.000  
G16  18919331.381    99421754.088       -2187.622          46.000  
G 9  19029142.077    99998822.560         972.040          48.000  
G26  20640070.933   108464270.723       -2433.785          40.000  
G 7  21187994.787   111343628.783        2640.275          37.000  
G11  21500059.003   112983570.226        3097.628          38.000  
G18  21498574.094   112975740.557        2786.800          38.000  
G31  21764190.576   114371589.795       -2757.522          40.000  
G 3  22625866.361   118899729.168       -1939.000          35.000  
G 4  20164502.487   105965172.199        1932.995          39.000  
> 2019  3 22  6 36 14.9900000  0 12                     
G27  17332194.640    91081300.524       -1278.489          50.000  
G 8  17504012.451    91984202.001         955.156          50.000  
G23  18042549.222    94814220.846        -809.646          47.000  
G16  18919539.650    99422847.733       -2187.057          46.000  
G 9  19029049.939    99998336.604         971.814          48.000  
G26  20640302.480   108465487.459       -2433.331          40.000  
G 7  21187743.574   111342308.516        2640.497          37.000  
G11  21499764.338   112982021.377        3097.815          38.000  
G18  21498309.147   112974347.281        2786.783          38.000  
G31  21764452.783   114372968.384       -2756.831          40.000  
G 3  22626050.671   118900698.608       -1939.284          35.000  
G 4  20164318.562   105964205.730        1933.301          39.000  
> 2019  3 22  6 36 15.4900000  0 12                     
G27  17332316.286    91081939.859       -1278.756          51.000  
G 8  17503921.605    91983724.379         955.243          50.000  
G23  18042626.143    94814625.645        -809.423          48.000  
G16  18919747.778    99423941.255       -2186.849          46.000  
G 9  19028957.418    99997850.640         971.865          47.000  
G26  20640534.114   108466704.045       -2433.321          41.000  
G 7  21187492.465   111340988.062        2641.441          37.000  
G11  21499469.465   112980472.354        3098.153          39.000  
G18  21498043.974   112972953.830        2786.891          38.000  
G31  21764715.252   114374346.920       -2756.971          40.000  
G 3  22626235.172   118901667.760       -1937.998          35.000  
G 4  20164134.654   105963239.253        1933.090          39.000  
> 2019  3 22  6 36 15.9900000  0 12                     
G27  17332438.176    91082579.405       -1279.615          51.000  
G 8  17503830.881    91983246.965         954.398          51.000  
G23  18042703.307    94815030.689        -810.691          47.000  
G16  18919955.593    99425034.860       -2187.588          46.000  
G 9  19028864.897    99997364.893         971.020          48.000  
G26  20640765.626   108467920.660       -2433.573          41.000  
G 7  21187241.409   111339667.688        2640.510          37.000  
G11  21499174.765   112978923.408        3097.252          39.000  
G18  21497778.992   112971560.391        2786.459          38.000  
G31  21764977.529   114375725.549       -2757.553          40.000  
G 3  22626419.394   118902636.945       -1938.721          35.000  
G 4  20163950.537   105962272.972        1931.973          39.000  
> 2019  3 22  6 36 16.4900000  0 12                     
G27  17332560.030    91083219.511       -1280.800          51.000  
G 8  17503740.070    91982770.110         953.306          51.000  
G23  18042780.472    94815436.279        -811.701          47.000  
G16  18920163.512    99426128.866       -2188.339          46.000  
G 9  19028772.760    99996879.698         969.939          47.000  
G26  20640997.173   108469137.675       -2434.315          41.000  
G 7  21186990.213   111338347.710        2639.660          37.000  
G11  21498879.839   112977374.827        3096.803          39.000  
G18  21497514.150   112970167.314        2785.740          38.000  
G31  21765239.858   114377104.625       -2758.555          40.000  
G 3  22626603.773   118903606.444       -1939.124          36.000  
G 4  20163766.664   105961307.175        1931.067          39.000  
> 2019  3 22  6 36 16.9900000  0 12                     
G27  17332681.903    91083859.943       -1280.967          51.000  
G 8  17503649.556    91982293.585         953.070          51.000  
G23  18042857.672    94815842.199        -811.941          47.000  
G16  18920371.868    99427223.055       -2188.322          46.000  
G 9  19028680.483    99996394.812         969.819          48.000  
G26  20641228.982   108470354.855       -2434.278          41.000  
G 7  21186739.314   111337027.847        2640.077          37.000  
G11  21498585.367   112975826.421        3096.730          39.000  
G18  21497249.204   112968774.378        2785.822          38.000  
G31  21765502.414   114378483.939       -2758.619          40.000  
G 3  22626788.396   118904576.065       -1938.739          36.000  
G 4  20163582.861   105960341.692        1930.399          39.000  
> 2019  3 22  6 36 17.4900000  0 12                     
G27  17332803.670    91084500.430       -1280.796          50.000  
G 8  17503558.797    91981817.119         953.199          50.000  
G23  18042934.662    94816248.173        -811.643          47.000  
G16  18920579.892    99428317.163       -2187.973          45.000  
G 9  19028588.119    99995909.985         969.834          47.000  
G26  20641460.790   108471571.916       -2433.683          40.000  
G 7  21186487.961   111335707.893        2640.341          37.000  
G11  21498290.842   112974277.874        3097.400          38.000  
G18  21496984.100   112967381.299        2786.659          37.000  
G31  21765765.127   114379863.203       -2758.269          39.000  
G 3  22626972.740   118905545.525       -1938.403          36.000  
G 4  20163399.023   105959376.164        1931.745          39.000  
> 2019  3 22  6 36 17.9900000  0 12                     
G27  17332925.490    91085140.947       -1281.114          50.000  
G 8  17503468.318    91981340.692         952.777          50.000  
G23  18043011.897    94816654.197        -812.214          47.000  
G16  18920787.968    99429411.147       -2187.746          45.000  
G 9  19028495.912    99995425.175         969.630          47.000  
G26  20641692.233   108472788.855       -2433.880          40.000  
G 7  21186236.695   111334387.760        2640.767          37.000  
G11  21497996.230   112972729.193        3097.823          38.000  
G18  21496718.944   112965988.053        2786.520          37.000  
G31  21766027.456   114381242.378       -2758.346          39.000  
G 3  22627157.294   118906514.770       -1938.114          36.000  
G 4  20163215.202   105958410.711        1931.051          39.000  
> 2019  3 22  6 36 18.4900000  0 12                     
G27  17333047.485    91085781.541       -1281.317          50.000  
G 8  17503377.786    91980864.313         952.714          50.000  
G23  18043089.219    94817060.277        -812.210          47.000  
G16  18920996.307    99430505.061       -2187.944          45.000  
G 9  19028403.653    99994940.435         969.323          47.000  
G26  20641923.640   108474005.684       -2433.849          40.000  
G 7  21185985.360   111333067.564        2639.926          37.000  
G11  21497701.531   112971180.453        3097.384          38.000  
G18  21496453.735   112964594.692        2786.771          38.000  
G31  21766290.082   114382621.538       -2758.473          40.000  
G 3  22627341.708   118907483.839       -1937.748          36.000  
G 4  20163031.399   105957445.268        1930.615          39.000  
> 2019  3 22  6 36 18.9900000  0 12                     
G27  17333169.444    91086422.114       -1281.128          49.000  
G 8  17503287.167    91980387.914         952.857          49.000  
G23  18043166.541    94817466.347        -812.067          46.000  
G16  18921204.383    99431598.818       -2187.469          45.000  
G 9  19028311.254    99994455.661         969.681          46.000  
G26  20642155.100   108475222.319       -2432.944          40.000  
G 7  21185734.059   111331747.138        2640.809          37.000  
G11  21497406.849   112969631.501        3097.672          38.000  
G18  21496188.597   112963201.119        2787.609          37.000  
G31  21766552.603   114384000.557       -2758.179          39.000  
G 3  22627526.174   118908452.688       -1937.159          36.000  
G 4  20162847.788   105956479.761        1930.798          37.000  
> 2019  3 22  6 36 19.4900000  0 12                     
G27  17333291.387    91087062.648       -1280.722          49.000  
G 8  17503196.566    91979911.470         953.255          49.000  
G23  18043243.863    94817872.378        -811.641          46.000  
G16  18921412.616    99432692.375       -2186.657          44.000  
G 9  19028219.065    99993970.845         969.886          46.000  
G26  20642386.507   108476438.774       -2432.593          39.000  
G 7  21185482.671   111330426.513        2641.413          36.000  
G11  21497111.958   112968082.311        3099.140          37.000  
G18  21495923.353   112961807.316        2788.160          37.000  
G31  21766815.124   114385379.429       -2757.490          39.000  
G 3  22627710.396   118909421.273       -1936.668          35.000  
G 4  20162664.037   105955514.184        1931.472          38.000  
> 2019  3 22  6 36 19.9900000  0 12                     
G27  17333413.590    91087703.074       -1281.046          49.000  
G 8  17503105.860    91979434.903         952.953          49.000  
G23  18043321.464    94818278.304        -812.074          46.000  
G16  18921620.832    99433785.686       -2186.677          44.000  
G 9  19028126.736    99993485.892         969.725          46.000  
G26  20642617.862   108477654.927       -2432.257          39.000  
G 7  21185231.475   111329105.599        2641.547          36.000  
G11  21496817.258   112966532.883        3098.746          37.000  
G18  21495658.232   112960413.221        2788.284          37.000  
G31  21767077.750   114386758.091       -2757.495          39.000  
G 3  22627894.757   118910389.508       -1936.562          35.000  
G 4  20162480.426   105954548.452        1931.443          38.000  
> 2019  3 22  6 36 20.4900000  0 12                     
G27  17333535.428    91088343.529       -1281.098          49.000  
G 8  17503015.223    91978958.356         952.960          48.000  
G23  18043398.873    94818684.253        -812.044          45.000  
G16  18921828.874    99434878.878       -2186.422          44.000  
G 9  19028034.476    99993000.976         969.776          46.000  
G26  20642849.147   108478870.939       -2432.000          39.000  
G 7  21184980.105   111327784.495        2642.261          36.000  
G11  21496522.507   112964983.287        3099.170          37.000  
G18  21495393.094   112959018.941        2789.038          36.000  
G31  21767340.341   114388136.669       -2757.049          39.000  
G 3  22628078.979   118911357.543       -1936.158          35.000  
G 4  20162296.570   105953582.700        1931.879          38.000  
> 2019  3 22  6 36 20.9900000  0 12                     
G27  17333657.318    91088984.017       -1281.126          50.000  
G 8  17502924.744    91978481.846         952.928          49.000  
G23  18043476.125    94819090.251        -812.113          46.000  
G16  18922036.776    99435971.965       -2186.114          44.000  
G 9  19027942.217    99992516.095         969.710          46.000  
G26  20643080.520   108480086.834       -2431.752          39.000  
G 7  21184728.682   111326463.316        2642.038          36.000  
G11  21496227.703   112963433.567        3099.686          37.000  
G18  21495127.711   112957624.544        2788.812          37.000  
G31  21767602.809   114389515.186       -2756.929          39.000  
G 3  22628262.992   118912325.400       -1935.790          35.000  
G 4  20162112.732   105952616.986        1931.557          38.000  
> 2019  3 22  6 36 21.4900000  0 12                     
G27  17333779.120    91089624.586       -1281.333          50.000  
G 8  17502834.003    91978005.406         952.727          49.000  
G23  18043553.517    94819496.313        -812.294          46.000  
G16  18922244.852    99437064.982       -2186.191          44.000  
G 9  19027850.028    99992031.266         969.460          47.000  
G26  20643312.102   108481302.639       -2431.580          39.000  
G 7  21184477.242   111325142.016        2642.626          36.000  
G11  21495932.620   112961883.746        3099.467          37.000  
G18  21494862.241   112956229.986        2789.409          37.000  
G31  21767865.488   114390893.683       -2757.290          39.000  
G 3  22628447.092   118913293.079       -1935.354          35.000  
G 4  20161928.981   105951651.291        1931.200          38.000  
> 2019  3 22  6 36 21.9900000  0 12                     
G27  17333901.010    91090265.323       -1281.871          49.000  
G 8  17502743.453    91977529.118         952.201          49.000  
G23  18043630.856    94819902.552        -812.975          46.000  
G16  18922452.754    99438158.019       -2186.462          44.000  
G 9  19027757.908    99991546.600         968.821          46.000  
G26  20643543.369   108482518.431       -2432.035          39.000  
G 7  21184225.767   111323820.680        2642.370          36.000  
G11  21495637.885   112960333.932        3099.249          37.000  
G18  21494596.823   112954835.425        2788.619          36.000  
G31  21768128.078   114392272.220       -2757.449          39.000  
G 3  22628631.226   118914260.704       -1935.342          35.000  
G 4  20161745.231   105950685.711        1930.968          38.000  
> 2019  3 22  6 36 22.4900000  0 12                     
G27  17334022.830    91090906.124       -1281.620          49.000  
G 8  17502652.363    91977052.912         952.400          50.000  
G23  18043708.126    94820308.864        -812.856          46.000  
G16  18922660.586    99439250.983       -2185.901          45.000  
G 9  19027665.526    99991061.991         969.119          47.000  
G26  20643774.689   108483734.112       -2431.248          39.000  
G 7  21183974.449   111322499.277        2643.048          36.000  
G11  21495342.924   112958784.024        3099.528          37.000  
G18  21494331.475   112953440.709        2789.629          36.000  
G31  21768390.460   114393650.724       -2757.025          39.000  
G 3  22628815.221   118915228.186       -1934.791          35.000  
G 4  20161561.323   105949720.187        1931.151          38.000  
> 2019  3 22  6 36 22.9900000  0 12                     
G27  17334145.034    91091547.071       -1282.005          50.000  
G 8  17502561.936    91976576.828         952.073          50.000  
G23  18043785.483    94820715.307        -813.041          47.000  
G16  18922868.645    99440343.934       -2185.774          45.000  
G 9  19027573.442    99990577.528         968.815          47.000  
G26  20644006.027   108484949.776       -2431.097          39.000  
G 7  21183722.974   111321177.827        2643.130          36.000  
G11  21495047.946   112957234.049        3100.285          38.000  
G18  21494065.935   112952045.979        2789.636          37.000  
G31  21768652.876   114395029.268       -2757.143          40.000  
G 3  22628999.304   118916195.569       -1934.802          35.000  
G 4  20161377.624   105948754.763        1930.800          38.000  
> 2019  3 22  6 36 23.4900000  0 12                     
G27  17334267.063    91092188.307       -1282.937          50.000  
G 8  17502471.352    91976101.035         951.161          50.000  
G23  18043862.909    94821122.044        -813.873          47.000  
G16  18923076.599    99441437.037       -2186.459          45.000  
G 9  19027481.060    99990093.329         968.001          47.000  
G26  20644237.347   108486165.569       -2431.876          40.000  
G 7  21183471.324   111319856.468        2642.374          37.000  
G11  21494753.037   112955684.234        3099.319          38.000  
G18  21493800.412   112950651.342        2788.728          37.000  
G31  21768915.432   114396408.001       -2757.835          40.000  
G 3  22629183.177   118917163.013       -1935.317          35.000  
G 4  20161193.961   105947789.587        1929.696          38.000  
> 2019  3 22  6 36 23.9900000  0 12                     
G27  17334389.005    91092829.965       -1283.541          50.000  
G 8  17502380.890    91975625.658         950.635          50.000  
G23  18043940.475    94821529.211        -814.500          47.000  
G16  18923284.641    99442530.413       -2186.810          45.000  
G 9  19027388.923    99989609.541         967.558          47.000  
G26  20644468.650   108487381.613       -2432.272          40.000  
G 7  21183219.762   111318535.372        2642.190          37.000  
G11  21494458.163   112954134.634        3099.496          38.000  
G18  21493535.064   112949256.891        2788.857          37.000  
G31  21769178.058   114397787.035       -2758.099          40.000  
G 3  22629367.346   118918130.665       -1935.480          35.000  
G 4  20161010.088   105946824.764        1929.416          38.000  
> 2019  3 22  6 36 24.4900000  0 12                     
G27  17334511.104    91093471.924       -1284.204          50.000  
G 8  17502290.376    91975150.585         949.844          50.000  
G23  18044017.902    94821936.682        -815.310          47.000  
G16  18923492.665    99443623.947       -2187.178          45.000  
G 9  19027296.995    99989126.076         966.469          47.000  
G26  20644700.144   108488597.789       -2432.529          40.000  
G 7  21182968.339   111317214.417        2641.473          36.000  
G11  21494163.098   112952585.219        3098.781          38.000  
G18  21493269.629   112947862.584        2788.536          37.000  
G31  21769440.649   114399166.283       -2758.802          40.000  
G 3  22629551.341   118919098.361       -1935.400          35.000  
G 4  20160826.459   105945860.256        1928.617          38.000  
> 2019  3 22  6 36 24.9900000  0 12                     
G27  17334632.977    91094114.080       -1284.734          50.000  
G 8  17502199.809    91974675.693         949.498          50.000  
G23  18044095.468    94822344.338        -815.510          47.000  
G16  18923700.654    99444717.533       -2187.378          45.000  
G 9  19027204.893    99988642.766         966.437          47.000  
G26  20644931.569   108489813.982       -2432.446          40.000  
G 7  21182717.091   111315893.426        2642.370          37.000  
G11  21493868.259   112951035.771        3098.568          38.000  
G18  21493004.246   112946468.287        2788.195          37.000  
G31  21769703.118   114400545.590       -2758.527          40.000  
G 3  22629735.354   118920066.055       -1935.637          35.000  
G 4  20160642.866   105944895.873        1928.295          38.000  
> 2019  3 22  6 36 25.4900000  0 12                     
G27  17334754.989    91094756.546       -1284.986          50.000  
G 8  17502109.278    91974201.125         948.980          50.000  
G23  18044172.912    94822752.322        -816.019          47.000  
G16  18923908.591    99445811.284       -2187.472          45.000  
G 9  19027112.738    99988159.786         965.784          47.000  
G26  20645162.872   108491030.330       -2432.580          40.000  
G 7  21182465.668   111314572.631        2641.913          37.000  
G11  21493573.437   112949486.506        3098.462          38.000  
G18  21492738.828   112945074.090        2788.318          37.000  
G31  21769965.656   114401925.152       -2759.002          40.000  
G 3  22629919.454   118921033.813       -1935.325          35.000  
G 4  20160459.167   105943931.763        1928.182          38.000  
> 2019  3 22  6 36 25.9900000  0 12                     
G27  17334877.193    91095399.211       -1285.383          50.000  
G 8  17502018.746    91973726.736         948.644          50.000  
G23  18044250.356    94823160.500        -816.470          47.000  
G16  18924116.702    99446905.087       -2187.630          45.000  
G 9  19027020.654    99987676.980         965.440          47.000  
G26  20645394.331   108492246.704       -2432.789          40.000  
G 7  21182214.176   111313251.834        2641.570          37.000  
G11  21493278.651   112947937.241        3098.564          38.000  
G18  21492473.480   112943679.910        2788.220          37.000  
G31  21770228.230   114403304.770       -2759.237          40.000  
G 3  22630103.536   118922001.548       -1935.302          35.000  
G 4  20160275.591   105942967.833        1927.825          38.000  
> 2019  3 22  6 36 26.4900000  0 12                     
G27  17334999.414    91096042.021       -1285.941          50.000  
G 8  17501928.563    91973252.479         948.371          50.000  
G23  18044327.992    94823568.807        -816.856          46.000  
G16  18924324.709    99447998.871       -2187.631          45.000  
G 9  19026928.831    99987194.303         965.140          47.000  
G26  20645625.739   108493463.057       -2432.886          39.000  
G 7  21181962.858   111311930.997        2641.743          37.000  
G11  21492983.725   112946387.944        3098.722          38.000  
G18  21492208.167   112942285.650        2788.392          37.000  
G31  21770490.733   114404684.433       -2759.374          40.000  
G 3  22630287.427   118922969.191       -1935.300          35.000  
G 4  20160092.137   105942004.005        1927.203          38.000  
> 2019  3 22  6 36 26.9900000  0 12                     
G27  17335121.653    91096684.969       -1286.266          50.000  
G 8  17501838.154    91972778.370         948.009          50.000  
G23  18044405.594    94823977.275        -817.307          47.000  
G16  18924532.715    99449092.676       -2187.826          45.000  
G 9  19026836.973    99986711.769         964.694          47.000  
G26  20645857.059   108494679.375       -2432.777          40.000  
G 7  21181711.435   111310610.164        2641.574          37.000  
G11  21492688.921   112944838.640        3098.613          38.000  
G18  21491942.697   112940891.373        2788.212          37.000  
G31  21770753.202   114406064.135       -2759.567          40.000  
G 3  22630471.422   118923936.736       -1935.104          35.000  
G 4  20159908.630   105941040.267        1927.188          38.000  
> 2019  3 22  6 36 27.4900000  0 12                     
G27  17335243.891    91097327.993       -1285.794          50.000  
G 8  17501747.971    91972304.329         948.248          50.000  
G23  18044483.264    94824385.806        -816.891          47.000  
G16  18924740.827    99450186.394       -2187.154          44.000  
G 9  19026745.150    99986229.289         965.176          47.000  
G26  20646088.606   108495895.594       -2432.122          40.000  
G 7  21181460.047   111309289.177        2642.163          37.000  
G11  21492393.925   112943289.238        3099.098          38.000  
G18  21491677.244   112939496.943        2789.354          37.000  
G31  21771015.723   114407443.814       -2759.058          40.000  
G 3  22630655.434   118924904.168       -1934.485          35.000  
G 4  20159725.124   105940076.583        1927.280          38.000  
> 2019  3 22  6 36 27.9900000  0 12                     
G27  17335366.357    91097970.962       -1286.283          50.000  
G 8  17501657.753    91971830.218         947.954          50.000  
G23  18044561.005    94824794.274        -817.167          46.000  
G16  18924948.990    99451279.903       -2187.174          44.000  
G 9  19026653.344    99985746.754         964.710          47.000  
G26  20646319.978   108497111.589       -2432.075          39.000  
G 7  21181208.764   111307967.957        2642.409          37.000  
G11  21492099.191   112941739.618        3098.922          38.000  
G18  21491411.914   112938102.301        2789.132          37.000  
G31  21771278.366   114408823.314       -2759.277          40.000  
G 3  22630839.359   118925871.262       -1934.025          34.000  
G 4  20159541.739   105939112.768        1927.634          38.000  
> 2019  3 22  6 36 28.4900000  0 12                     
G27  17335488.561    91098614.230       -1286.891          49.000  
G 8  17501567.675    91971356.410         947.283          49.000  
G23  18044638.659    94825203.074        -817.992          46.000  
G16  18925157.119    99452373.584       -2187.483          44.000  
G 9  19026561.434    99985264.521         963.986          46.000  
G26  20646551.228   108498327.736       -2432.409          39.000  
G 7  21180957.306   111306646.887        2641.934          37.000  
G11  21491804.334   112940190.118        3098.718          38.000  
G18  21491146.636   112936707.747        2788.875          37.000  
G31  21771540.975   114410203.026       -2759.482          40.000  
G 3  22631023.442   118926838.478       -1934.326          34.000  
G 4  20159358.372   105938149.264        1926.752          38.000  
> 2019  3 22  6 36 28.9900000  0 12                     
G27  17335611.288    91099257.876       -1287.625          50.000  
G 8  17501477.493    91970882.966         946.619          50.000  
G23  18044716.242    94825612.219        -818.567          46.000  
G16  18925365.300    99453467.492       -2188.041          44.000  
G 9  19026469.750    99984782.626         963.573          47.000  
G26  20646782.706   108499544.077       -2432.942          39.000  
G 7  21180705.866   111305326.016        2641.695          37.000  
G11  21491509.495   112938640.810        3098.769          38.000  
G18  21490881.357   112935313.389        2788.445          37.000  
G31  21771803.548   114411582.995       -2760.072          40.000  
G 3  22631207.227   118927805.815       -1934.764          34.000  
G 4  20159175.093   105937186.086        1925.831          38.000  
> 2019  3 22  6 36 29.4900000  0 12                     
G27  17335733.859    91099901.751       -1287.957          50.000  
G 8  17501387.380    91970409.751         946.395          50.000  
G23  18044794.210    94826021.604        -818.928          47.000  
G16  18925573.324    99454561.485       -2188.051          45.000  
G 9  19026378.102    99984300.967         963.276          47.000  
G26  20647014.218   108500760.477       -2432.893          40.000  
G 7  21180454.583   111304005.197        2641.439          37.000  
G11  21491214.534   112937091.594        3098.331          38.000  
G18  21490615.957   112933919.039        2788.564          37.000  
G31  21772066.261   114412963.104       -2760.390          40.000  
G 3  22631391.310   118928773.178       -1934.736          34.000  
G 4  20158991.743   105936223.096        1925.464          38.000  
> 2019  3 22  6 36 29.9900000  0 12                     
G27  17335856.254    91100545.820       -1288.289          50.000  
G 8  17501297.267    91969936.736         945.885          49.000  
G23  18044872.265    94826431.194        -819.393          46.000  
G16  18925781.383    99455655.532       -2188.194          45.000  
G 9  19026286.593    99983819.507         962.739          47.000  
G26  20647245.538   108501976.903       -2432.701          40.000  
G 7  21180203.178   111302684.410        2641.401          37.000  
G11  21490919.765   112935542.375        3098.572          38.000  
G18  21490350.609   112932524.697        2788.904          37.000  
G31  21772328.939   114414343.285       -2760.372          40.000  
G 3  22631575.497   118929740.505       -1934.965          34.000  
G 4  20158808.551   105935260.255        1925.479          38.000  
> 2019  3 22  6 36 30.4900000  0 12                     
G27  17335978.738    91101190.024       -1288.378          50.000  
G 8  17501207.363    91969463.834         945.844          50.000  
G23  18044950.232    94826840.909        -819.511          47.000  
G16  18925989.774    99456749.555       -2188.048          45.000  
G 9  19026195.101    99983338.160         962.573          47.000  
G26  20647477.311   108503193.299       -2432.715          40.000  
G 7  21179951.929   111301363.540        2641.662          37.000  
G11  21490625.049   112933993.128        3098.917          38.000  
G18  21490085.453   112931130.311        2789.000          37.000  
G31  21772591.513   114415723.497       -2760.289          40.000  
G 3  22631759.684   118930707.712       -1934.604          34.000  
G 4  20158625.306   105934297.517        1925.377          38.000  
> 2019  3 22  6 36 30.9900000  0 12                     
G27  17336101.674    91101834.323       -1288.901          50.000  
G 8  17501117.460    91968991.029         945.323          50.000  
G23  18045028.427    94827250.726        -820.085          47.000  
G16  18926198.007    99457843.528       -2188.226          45.000  
G 9  19026103.540    99982856.897         962.043          47.000  
G26  20647708.858   108504409.615       -2432.963          40.000  
G 7  21179700.699   111300042.611        2641.742          37.000  
G11  21490329.965   112932443.813        3098.518          38.000  
G18  21489820.087   112929735.847        2788.676          37.000  
G31  21772854.365   114417103.700       -2760.455          40.000  
G 3  22631943.505   118931674.774       -1933.842          34.000  
G 4  20158442.114   105933334.824        1925.168          38.000  
> 2019  3 22  6 36 31.4900000  0 12                     
G27  17336224.367    91102478.884       -1289.405          50.000  
G 8  17501027.207    91968518.473         944.884          49.000  
G23  18045106.325    94827660.795        -820.509          47.000  
G16  18926406.188    99458937.619       -2188.396          45.000  
G 9  19026011.944    99982375.886         961.714          47.000  
G26  20647940.580   108505626.034       -2433.077          40.000  
G 7  21179449.363   111298721.765        2641.283          37.000  
G11  21490035.214   112930894.561        3098.451          38.000  
G18  21489554.617   112928341.437        2788.611          37.000  
G31  21773117.113   114418484.061       -2760.857          40.000  
G 3  22632127.482   118932641.916       -1934.307          33.000  
G 4  20158259.009   105932372.377        1924.643          38.000  
> 2019  3 22  6 36 31.9900000  0 12                     
G27  17336347.042    91103123.754       -1290.335          50.000  
G 8  17500937.548    91968046.218         944.095          50.000  
G23  18045184.449    94828071.181        -821.341          47.000  
G16  18926614.439    99460031.876       -2188.865          45.000  
G 9  19025920.417    99981895.184         960.681          47.000  
G26  20648172.197   108506842.592       -2433.636          40.000  
G 7  21179198.062   111297401.062        2640.883          37.000  
G11  21489740.532   112929345.469        3097.969          38.000  
G18  21489289.304   112926947.125        2788.304          37.000  
G31  21773379.809   114419864.628       -2761.633          40.000  
G 3  22632311.547   118933609.136       -1934.929          33.000  
G 4  20158075.781   105931410.221        1923.267          38.000  
> 2019  3 22  6 36 32.4900000  0 12                     
G27  17336469.822    91103768.874       -1290.746          50.000  
G 8  17500847.906    91967574.214         943.620          50.000  
G23  18045262.626    94828481.811        -821.722          47.000  
G16  18926822.742    99461126.238       -2189.010          45.000  
G 9  19025828.908    99981414.711         960.373          47.000  
G26  20648403.761   108508059.215       -2433.448          40.000  
G 7  21178946.762   111296080.406        2641.077          37.000  
G11  21489445.362   112927796.467        3097.798          38.000  
G18  21489023.974   112925552.882        2788.346          37.000  
G31  21773642.679   114421245.330       -2761.671          40.000  
G 3  22632495.612   118934576.316       -1934.440          33.000  
G 4  20157892.641   105930448.207        1924.074          39.000  
> 2019  3 22  6 36 32.9900000  0 12                     
G27  17336592.549    91104414.385       -1291.311          50.000  
G 8  17500758.125    91967102.607         942.789          49.000  
G23  18045340.821    94828892.844        -822.383          47.000  
G16  18927031.063    99462220.844       -2189.457          45.000  
G 9  19025737.382    99980934.629         959.843          47.000  
G26  20648635.203   108509276.078       -2433.931          40.000  
G 7  21178695.304   111294759.984        2640.816          37.000  
G11  21489150.610   112926247.692        3097.183          38.000  
G18  21488758.695   112924158.859        2787.617          37.000  
G31  21773905.444   114422626.324       -2762.315          40.000  
G 3  22632679.677   118935543.734       -1935.330          33.000  
G 4  20157709.589   105929486.607        1922.979          38.000  
> 2019  3 22  6 36 33.4900000  0 12                     
G27  17336715.259    91105059.956       -1290.780          50.000  
G 8  17500668.308    91966631.036         943.465          50.000  
G23  18045418.823    94829303.932        -821.853          47.000  
G16  18927239.279    99463315.362       -2188.578          45.000  
G 9  19025646.065    99980454.604         960.473          47.000  
G26  20648866.506   108510492.815       -2432.951          40.000  
G 7  21178443.812   111293439.437        2641.947          37.000  
G11  21488855.980   112924698.779        3098.128          38.000  
G18  21488493.347   112922764.655        2789.336          37.000  
G31  21774167.913   114424007.267       -2761.480          40.000  
G 3  22632863.794   118936510.926       -1934.119          32.000  
G 4  20157526.798   105928525.006        1923.436          39.000  
> 2019  3 22  6 36 33.9900000  0 12                     
G27  17336838.108    91105705.343       -1290.623          50.000  
G 8  17500578.667    91966159.279         943.548          50.000  
G23  18045497.035    94829714.830        -821.726          47.000  
G16  18927447.443    99464409.547       -2188.091          45.000  
G 9  19025554.696    99979974.381         960.476          47.000  
G26  20649097.791   108511709.220       -2432.512          40.000  
G 7  21178192.337   111292118.539        2642.186          37.000  
G11  21488560.984   112923149.504        3099.015          38.000  
G18  21488227.965   112921370.107        2789.508          37.000  
G31  21774430.504   114425387.930       -2761.257          40.000  
G 3  22633047.702   118937477.714       -1933.403          32.000  
G 4  20157343.762   105927563.177        1923.873          39.000  
> 2019  3 22  6 36 34.4900000  0 12                     
G27  17336960.801    91106350.756       -1291.161          50.000  
G 8  17500488.816    91965687.536         943.205          49.000  
G23  18045575.037    94830125.752        -822.101          47.000  
G16  18927655.589    99465503.606       -2188.163          45.000  
G 9  19025463.326    99979494.169         960.287          47.000  
G26  20649329.059   108512925.447       -2432.263          40.000  
G 7  21177940.931   111290797.481        2642.232          37.000  
G11  21488266.128   112921600.125        3098.478          38.000  
G18  21487962.459   112919975.386        2789.441          37.000  
G31  21774693.042   114426768.488       -2761.037          40.000  
G 3  22633231.592   118938444.322       -1934.034          32.000  
G 4  20157160.692   105926601.348        1923.419          39.000  
> 2019  3 22  6 36 34.9900000  0 12                     
G27  17337083.685    91106996.298       -1291.107          50.000  
G 8  17500398.807    91965215.933         943.041          50.000  
G23  18045653.319    94830536.823        -822.389          47.000  
G16  18927863.840    99466597.668       -2188.022          45.000  
G 9  19025372.114    99979014.096         959.875          47.000  
G26  20649560.449   108514141.688       -2432.423          40.000  
G 7  21177689.369   111289476.378        2642.022          37.000  
G11  21487971.237   112920050.679        3098.934          38.000  
G18  21487697.111   112918580.597        2789.476          37.000  
G31  21774955.738   114428149.097       -2761.126          40.000  
G 3  22633415.657   118939410.809       -1933.167          32.000  
G 4  20156977.622   105925639.605        1923.623          39.000  
> 2019  3 22  6 36 35.4900000  0 12                     
G27  17337206.552    91107642.068       -1292.154          50.000  
G 8  17500309.131    91964744.544         942.208          50.000  
G23  18045731.601    94830948.111        -823.034          47.000  
G16  18928072.108    99467691.809       -2188.718          45.000  
G 9  19025280.640    99978534.227         959.249          47.000  
G26  20649792.048   108515357.973       -2433.068          40.000  
G 7  21177437.719   111288155.329        2641.354          37.000  
G11  21487676.258   112918501.290        3098.472          38.000  
G18  21487431.659   112917185.830        2789.358          37.000  
G31  21775218.503   114429529.837       -2762.244          40.000  
G 3  22633599.495   118940377.329       -1933.656          32.000  
G 4  20156794.569   105924678.098        1922.513          39.000  
> 2019  3 22  6 36 35.9900000  0 12                     
G27  17337329.541    91108288.098       -1292.304          50.000  
G 8  17500219.419    91964273.422         941.933          49.000  
G23  18045809.935    94831359.675        -823.451          47.000  
G16  18928280.289    99468786.061       -2188.605          45.000  
G 9  19025189.323    99978054.621         958.956          46.000  
G26  20650023.525   108516574.342       -2433.044          40.000  
G 7  21177186.558   111286834.379        2641.740          37.000  
G11  21487381.297   112916952.007        3098.463          38.000  
G18  21487166.206   112915791.169        2788.989          37.000  
G31  21775481.251   114430910.699       -2761.802          40.000  
G 3  22633783.455   118941343.818       -1932.900          32.000  
G 4  20156611.726   105923716.764        1922.661          39.000  
> 2019  3 22  6 36 36.4900000  0 12                     
G27  17337452.688    91108934.337       -1292.601          50.000  
G 8  17500130.074    91963802.497         941.712          50.000  
G23  18045888.408    94831771.429        -823.735          47.000  
G16  18928488.715    99469880.368       -2188.591          45.000  
G 9  19025098.163    99977575.206         958.779          47.000  
G26  20650255.107   108517790.735       -2432.781          40.000  
G 7  21176935.223   111285513.463        2641.832          37.000  
G11  21487086.459   112915402.754        3098.725          37.000  
G18  21486900.718   112914396.490        2789.109          37.000  
G31  21775744.017   114432291.682       -2762.005          40.000  
G 3  22633967.468   118942310.343       -1932.928          32.000  
G 4  20156428.917   105922755.603        1922.306          39.000  
> 2019  3 22  6 36 36.9900000  0 12                     
G27  17337576.008    91109580.568       -1292.331          50.000  
G 8  17500040.502    91963331.565         941.876          49.000  
G23  18045966.969    94832183.178        -823.409          47.000  
G16  18928697.140    99470974.528       -2188.006          45.000  
G 9  19025007.108    99977095.778         959.016          47.000  
G26  20650486.619   108519006.967       -2432.337          40.000  
G 7  21176683.905   111284192.355        2641.831          37.000  
G11  21486791.480   112913853.322        3098.865          37.000  
G18  21486635.318   112913001.600        2789.905          37.000  
G31  21776006.869   114433672.539       -2761.354          40.000  
G 3  22634151.306   118943276.588       -1931.742          32.000  
G 4  20156245.917   105921794.393        1922.842          39.000  
> 2019  3 22  6 36 37.4900000  0 12                     
G27  17337698.945    91110226.859       -1292.870          50.000  
G 8  17499951.017    91962860.680         941.576          49.000  
G23  18046045.251    94832595.000        -823.955          46.000  
G16  18928905.321    99472068.611       -2188.343          44.000  
G 9  19024915.896    99976616.407         958.476          46.000  
G26  20650718.026   108520223.090       -2432.312          40.000  
G 7  21176432.674   111282871.099        2642.448          37.000  
G11  21486496.816   112912303.780        3099.005          37.000  
G18  21486369.813   112911606.604        2789.975          37.000  
G31  21776269.600   114435053.371       -2761.928          40.000  
G 3  22634335.179   118944242.731       -1932.645          32.000  
G 4  20156062.951   105920833.240        1922.033          39.000  
> 2019  3 22  6 36 37.9900000  0 12                     
G27  17337821.690    91110873.473       -1293.739          50.000  
G 8  17499861.550    91962390.123         940.616          49.000  
G23  18046123.585    94833007.136        -824.797          47.000  
G16  18929113.555    99473162.862       -2188.965          44.000  
G 9  19024824.526    99976137.343         957.735          46.000  
G26  20650949.538   108521439.372       -2432.937          40.000  
G 7  21176181.443   111281550.028        2641.640          37.000  
G11  21486202.081   112910754.399        3098.397          37.000  
G18  21486104.360   112910211.717        2789.458          37.000  
G31  21776532.400   114436434.409       -2762.452          40.000  
G 3  22634518.912   118945208.932       -1932.883          32.000  
G 4  20155880.195   105919872.349        1921.356          39.000  
> 2019  3 22  6 36 38.4900000  0 12                     
G27  17337944.766    91111520.528       -1294.484          50.000  
G 8  17499771.943    91961919.996         939.861          49.000  
G23  18046202.041    94833419.726        -825.686          47.000  
G16  18929321.753    99474257.401       -2189.278          45.000  
G 9  19024733.349    99975658.718         956.735          46.000  
G26  20651181.242   108522655.907       -2433.258          40.000  
G 7  21175930.143   111280229.187        2641.961          37.000  
G11  21485907.173   112909205.271        3098.054          38.000  
G18  21485838.995   112908817.100        2789.094          37.000  
G31  21776795.288   114437815.771       -2763.138          40.000  
G 3  22634702.750   118946175.315       -1932.852          32.000  
G 4  20155697.509   105918911.875        1920.495          39.000  
> 2019  3 22  6 36 38.9900000  0 12                     
G27  17338068.174    91112167.649       -1294.345          50.000  
G 8  17499682.546    91961449.931         939.969          49.000  
G23  18046280.619    94833832.368        -825.421          46.000  
G16  18929530.213    99475351.863       -2188.809          44.000  
G 9  19024642.206    99975180.137         957.137          46.000  
G26  20651412.824   108523872.359       -2433.091          39.000  
G 7  21175678.615   111278908.253        2642.041          37.000  
G11  21485612.456   112907656.060        3098.350          37.000  
G18  21485573.612   112907422.354        2789.590          37.000  
G31  21777058.070   114439197.099       -2762.696          40.000  
G 3  22634886.728   118947141.577       -1932.064          32.000  
G 4  20155514.648   105917951.421        1920.629          38.000  
> 2019  3 22  6 36 39.4900000  0 12                     
G27  17338191.233    91112814.901       -1294.609          50.000  
G 8  17499593.148    91960979.980         939.795          49.000  
G23  18046359.180    94834245.144        -825.722          46.000  
G16  18929738.517    99476446.312       -2188.922          45.000  
G 9  19024551.430    99974701.688         956.696          46.000  
G26  20651644.319   108525088.751       -2432.942          39.000  
G 7  21175427.036   111277587.292        2642.238          37.000  
G11  21485317.600   112906106.803        3098.537          37.000  
G18  21485308.334   112906027.520        2790.176          37.000  
G31  21777320.940   114440578.452       -2762.820          40.000  
G 3  22635070.706   118948107.703       -1932.020          32.000  
G 4  20155331.717   105916991.033        1920.899          38.000  
> 2019  3 22  6 36 39.9900000  0 12                     
G27  17338314.589    91113462.222       -1294.790          50.000  
G 8  17499504.135    91960510.110         939.525          49.000  
G23  18046437.724    94834657.999        -825.878          46.000  
G16  18929946.698    99477540.694       -2188.979          45.000  
G 9  19024460.445    99974223.314         956.454          46.000  
G26  20651875.866   108526305.065       -2432.772          39.000  
G 7  21175175.683   111276266.215        2642.323          37.000  
G11  21485022.796   112904557.448        3098.571          37.000  
G18  21485043.021   112904632.626        2789.583          37.000  
G31  21777583.968   114441959.783       -2762.784          40.000  
G 3  22635254.701   118949073.721       -1932.146          32.000  
G 4  20155149.171   105916030.727        1920.426          39.000  
> 2019  3 22  6 36 40.4900000  0 12                     
G27  17338437.875    91114109.744       -1295.157          50.000  
G 8  17499414.824    91960040.418         939.293          49.000  
G23  18046516.529    94835071.053        -826.235          46.000  
G16  18930155.036    99478635.116       -2188.813          44.000  
G 9  19024369.425    99973745.115         956.129          46.000  
G26  20652107.151   108527521.414       -2432.963          39.000  
G 7  21174924.155   111274945.162        2642.214          37.000  
G11  21484727.905   112903008.122        3098.561          37.000  
G18  21484777.585   112903237.694        2789.579          37.000  
G31  21777846.716   114443341.207       -2762.965          40.000  
G 3  22635438.591   118950039.683       -1932.070          32.000  
G 4  20154966.414   105915070.547        1920.386          39.000  
> 2019  3 22  6 36 40.9900000  0 12                     
G27  17338561.056    91114757.424       -1295.629          50.000  
G 8  17499325.759    91959570.892         938.829          50.000  
G23  18046595.160    94835484.269        -826.700          46.000  
G16  18930363.252    99479729.555       -2188.951          45.000  
G 9  19024278.387    99973267.069         955.642          46.000  
G26  20652338.768   108528737.735       -2432.797          39.000  
G 7  21174672.785   111273624.094        2642.020          38.000  
G11  21484433.031   112901458.777        3098.521          37.000  
G18  21484512.202   112901842.731        2789.963          37.000  
G31  21778109.638   114444722.668       -2763.006          40.000  
G 3  22635622.429   118951005.573       -1931.837          32.000  
G 4  20154783.903   105914110.521        1919.670          39.000  
> 2019  3 22  6 36 41.4900000  0 12                     
G27  17338684.272    91115405.165       -1295.890          50.000  
G 8  17499236.396    91959101.404         938.680          49.000  
G23  18046673.703    94835897.531        -826.760          46.000  
G16  18930571.555    99480823.919       -2189.104          44.000  
G 9  19024187.279    99972789.054         955.719          46.000  
G26  20652570.105   108529953.952       -2432.646          39.000  
G 7  21174421.467   111272302.882        2642.740          38.000  
G11  21484138.227   112899909.301        3099.258          37.000  
G18  21484246.785   112900447.640        2790.232          37.000  
G31  21778372.386   114446104.087       -2762.921          40.000  
G 3  22635806.163   118951971.263       -1931.287          32.000  
G 4  20154601.094   105913150.478        1919.722          38.000  
> 2019  3 22  6 36 41.9900000  0 12                     
G27  17338807.540    91116053.090       -1295.954          50.000  
G 8  17499146.929    91958632.107         938.537          50.000  
G23  18046752.473    94836311.001        -827.134          47.000  
G16  18930779.789    99481918.311       -2188.834          45.000  
G 9  19024096.329    99972311.238         955.463          47.000  
G26  20652801.582   108531170.193       -2432.446          39.000  
G 7  21174170.149   111270981.720        2642.493          38.000  
G11  21483843.388   112898359.905        3098.644          37.000  
G18  21483981.437   112899052.551        2789.902          37.000  
G31  21778635.134   114447485.592       -2763.030          40.000  
G 3  22635989.948   118952936.956       -1931.451          32.000  
G 4  20154418.390   105912190.617        1919.710          39.000  
> 2019  3 22  6 36 42.4900000  0 12                     
G27  17338930.791    91116701.179       -1296.296          50.000  
G 8  17499057.618    91958162.964         938.238          50.000  
G23  18046831.279    94836724.616        -827.208          47.000  
G16  18930988.057    99483012.712       -2188.508          45.000  
G 9  19024005.500    99971833.579         955.574          47.000  
G26  20653033.024   108532386.436       -2432.465          39.000  
G 7  21173918.953   111269660.520        2642.721          38.000  
G11  21483548.462   112896810.445        3099.182          37.000  
G18  21483715.932   112897657.434        2790.099          38.000  
G31  21778898.004   114448867.175       -2763.303          40.000  
G 3  22636173.751   118953902.566       -1930.674          32.000  
G 4  20154236.123   105911230.858        1919.410          39.000  
> 2019  3 22  6 36 42.9900000  0 12                     
G27  17339054.304    91117349.246       -1296.343          50.000  
G 8  17498968.465    91957693.788         938.175          50.000  
G23  18046910.136    94837138.220        -827.303          47.000  
G16  18931196.482    99484106.975       -2188.676          45.000  
G 9  19023914.585    99971355.895         955.220          47.000  
G26  20653264.676   108533602.480       -2432.254          40.000  
G 7  21173667.390   111268339.158        2642.708          38.000  
G11  21483253.466   112895260.814        3099.139          37.000  
G18  21483450.461   112896262.070        2790.946          38.000  
G31  21779161.101   114450248.592       -2762.802          40.000  
G 3  22636357.328   118954867.953       -1930.886          32.000  
G 4  20154053.576   105910271.058        1919.711          39.000  
> 2019  3 22  6 36 43.4900000  0 12                     
G27  17339177.677    91117997.533       -1296.988          50.000  
G 8  17498879.225    91957224.844         937.523          50.000  
G23  18046988.854    94837552.051        -828.082          47.000  
G16  18931404.751    99485201.289       -2188.951          45.000  
G 9  19023823.564    99970878.413         954.539          47.000  
G26  20653496.293   108534818.572       -2432.528          39.000  
G 7  21173415.933   111267017.810        2642.277          38.000  
G11  21482958.627   112893711.230        3099.042          38.000  
G18  21483184.886   112894866.786        2789.994          38.000  
G31  21779424.006   114451630.146       -2763.472          40.000  
G 3  22636541.026   118955833.305       -1930.914          32.000  
G 4  20153871.064   105909311.442        1918.831          39.000  
> 2019  3 22  6 36 43.9900000  0 12                     
G27  17339300.945    91118646.139       -1297.747          50.000  
G 8  17498790.002    91956756.223         936.630          50.000  
G23  18047067.624    94837966.198        -828.707          47.000  
G16  18931612.810    99486295.783       -2189.244          45.000  
G 9  19023732.579    99970401.246         953.846          47.000  
G26  20653727.630   108536034.808       -2432.415          39.000  
G 7  21173164.248   111265696.574        2642.566          38.000  
G11  21482663.771   112892161.818        3098.116          37.000  
G18  21482919.486   112893471.613        2789.247          37.000  
G31  21779686.998   114453011.916       -2763.995          40.000  
G 3  22636724.655   118956798.760       -1931.580          32.000  
G 4  20153688.500   105908352.126        1917.680          39.000  
> 2019  3 22  6 36 44.4900000  0 12                     
G27  17339424.248    91119295.143       -1298.463          49.000  
G 8  17498700.744    91956287.985         936.045          49.000  
G23  18047146.639    94838380.746        -829.513          46.000  
G16  18931821.061    99487390.539       -2189.711          45.000  
G 9  19023641.873    99969924.466         953.184          46.000  
G26  20653958.985   108537251.303       -2433.316          39.000  
G 7  21172912.826   111264375.600        2642.071          37.000  
G11  21482368.879   112890612.604        3098.096          37.000  
G18  21482653.981   112892076.606        2789.666          37.000  
G31  21779950.025   114454393.966       -2764.388          40.000  
G 3  22636908.528   118957764.402       -1931.761          32.000  
G 4  20153506.163   105907393.124        1917.549          39.000  
> 2019  3 22  6 36 44.9900000  0 12                     
G27  17339547.848    91119944.343       -1298.624          50.000  
G 8  17498611.783    91955819.929         935.881          50.000  
G23  18047225.636    94838795.484        -829.668          47.000  
G16  18932029.189    99488485.326       -2189.637          45.000  
G 9  19023551.044    99969447.869         953.099          46.000  
G26  20654190.602   108538467.795       -2433.176          39.000  
G 7  21172661.508   111263054.661        2641.154          38.000  
G11  21482073.953   112889063.430        3098.199          37.000  
G18  21482388.511   112890681.611        2789.875          38.000  
G31  21780213.105   114455776.106       -2764.463          40.000  
G 3  22637092.191   118958729.987       -1931.418          32.000  
G 4  20153323.878   105906434.299        1917.527          39.000  
> 2019  3 22  6 36 45.4900000  0 12                     
G27  17339671.692    91120593.664       -1298.964          50.000  
G 8  17498522.525    91955352.001         935.534          50.000  
G23  18047304.633    94839210.344        -829.993          47.000  
G16  18932237.562    99489580.105       -2189.686          45.000  
G 9  19023460.198    99968971.390         952.615          46.000  
G26  20654422.009   108539684.251       -2433.259          39.000  
G 7  21172409.928   111261733.625        2641.921          37.000  
G11  21481779.114   112887514.189        3098.412          37.000  
G18  21482123.180   112889286.576        2789.659          38.000  
G31  21780476.271   114457158.268       -2764.632          40.000  
G 3  22637276.029   118959695.481       -1931.458          32.000  
G 4  20153141.296   105905475.576        1916.996          39.000  
> 2019  3 22  6 36 45.9900000  0 12                     
G27  17339795.153    91121243.187       -1299.352          50.000  
G 8  17498433.808    91954884.265         935.233          50.000  
G23  18047383.560    94839625.406        -830.388          47.000  
G16  18932445.900    99490674.938       -2189.693          45.000  
G 9  19023369.632    99968495.104         952.284          46.000  
G26  20654653.539   108540900.722       -2432.787          39.000  
G 7  21172158.296   111260412.612        2642.064          37.000  
G11  21481484.328   112885964.985        3098.453          37.000  
G18  21481857.728   112887891.513        2790.273          38.000  
G31  21780739.456   114458540.522       -2764.743          40.000  
G 3  22637459.885   118960660.914       -1931.001          32.000  
G 4  20152958.889   105904516.998        1917.148          39.000  
> 2019  3 22  6 36 46.4900000  0 12                     
G27  17339918.630    91121892.867       -1299.639          50.000  
G 8  17498344.672    91954416.680         934.935          49.000  
G23  18047462.401    94840040.624        -830.776          46.000  
G16  18932654.116    99491769.795       -2189.938          44.000  
G 9  19023278.908    99968018.959         952.014          46.000  
G26  20654885.068   108542117.217       -2433.367          39.000  
G 7  21171906.995   111259091.625        2642.296          37.000  
G11  21481189.349   112884415.799        3098.048          37.000  
G18  21481592.275   112886496.423        2790.305          37.000  
G31  21781002.570   114459922.825       -2764.759          40.000  
G 3  22637643.548   118961626.296       -1930.667          32.000  
G 4  20152776.604   105903558.550        1916.651          39.000  
> 2019  3 22  6 36 46.9900000  0 12                     
G27  17340042.265    91122542.706       -1299.711          50.000  
G 8  17498255.502    91953949.242         934.957          49.000  
G23  18047541.084    94840456.001        -830.731          46.000  
G16  18932862.472    99492864.637       -2189.445          44.000  
G 9  19023188.289    99967542.972         951.946          46.000  
G26  20655116.458   108543333.654       -2432.653          39.000  
G 7  21171655.590   111257770.582        2642.104          37.000  
G11  21480894.668   112882866.569        3098.581          37.000  
G18  21481326.735   112885101.319        2790.486          37.000  
G31  21781265.789   114461305.178       -2764.559          40.000  
G 3  22637827.177   118962591.598       -1930.192          32.000  
G 4  20152594.302   105902600.207        1916.750          39.000  
> 2019  3 22  6 36 47.4900000  0 12                     
G27  17340166.144    91123192.635       -1300.172          50.000  
G 8  17498166.698    91953481.901         934.440          49.000  
G23  18047620.447    94840871.471        -831.203          46.000  
G16  18933070.810    99493959.445       -2189.908          44.000  
G 9  19023097.740    99967067.072         951.543          46.000  
G26  20655347.970   108544550.048       -2432.913          39.000  
G 7  21171404.150   111256449.464        2642.187          37.000  
G11  21480599.933   112881317.284        3098.103          37.000  
G18  21481061.596   112883706.111        2790.569          37.000  
G31  21781529.008   114462687.530       -2765.093          40.000  
G 3  22638010.945   118963556.797       -1930.284          33.000  
G 4  20152412.086   105901641.943        1916.284          39.000  
> 2019  3 22  6 36 47.9900000  0 12                     
G27  17340289.727    91123842.694       -1300.361          49.000  
G 8  17498077.806    91953014.667         934.407          49.000  
G23  18047699.392    94841287.066        -831.265          46.000  
G16  18933279.201    99495054.222       -2189.656          44.000  
G 9  19023007.173    99966591.286         951.249          46.000  
G26  20655579.343   108545766.407       -2432.689          39.000  
G 7  21171152.657   111255128.272        2642.993          37.000  
G11  21480305.129   112879767.925        3098.739          37.000  
G18  21480796.144   112882310.828        2790.470          37.000  
G31  21781792.157   114464069.876       -2764.745          40.000  
G 3  22638194.713   118964521.853       -1929.771          32.000  
G 4  20152229.819   105900683.751        1916.355          39.000  
> 2019  3 22  6 36 48.4900000  0 12                     
G27  17340413.466    91124492.855       -1300.411          50.000  
G 8  17497988.845    91952547.546         934.229          49.000  
G23  18047778.511    94841702.786        -831.534          46.000  
G16  18933487.521    99496148.966       -2189.380          44.000  
G 9  19022916.764    99966115.596         951.435          46.000  
G26  20655810.645   108546982.693       -2432.415          39.000  
G 7  21170901.304   111253807.063        2642.548          37.000  
G11  21480010.395   112878218.524        3098.950          37.000  
G18  21480530.656   112880915.488        2790.519          37.000  
G31  21782055.342   114465452.257       -2764.805          40.000  
G 3  22638378.237   118965486.829       -1929.799          32.000  
G 4  20152047.482   105899725.643        1916.142          39.000  
> 2019  3 22  6 36 48.9900000  0 12                     
G27  17340537.206    91125143.058       -1300.527          50.000  
G 8  17497900.128    91952080.458         933.939          50.000  
G23  18047857.421    94842118.527        -831.620          46.000  
G16  18933695.964    99497243.601       -2189.190          45.000  
G 9  19022826.354    99965639.940         951.202          46.000  
G26  20656042.035   108548198.864       -2432.541          39.000  
G 7  21170649.707   111252485.710        2642.647          37.000  
G11  21479715.836   112876668.999        3098.838          38.000  
G18  21480265.151   112879519.950        2790.963          37.000  
G31  21782318.281   114466834.548       -2764.599          40.000  
G 3  22638561.796   118966451.587       -1929.126          32.000  
G 4  20151865.197   105898767.528        1916.010          40.000  
> 2019  3 22  6 36 49.4900000  0 12                     
G27  17340660.858    91125793.441       -1300.887          50.000  
G 8  17497811.219    91951613.542         933.549          50.000  
G23  18047936.628    94842534.458        -832.144          46.000  
G16  18933904.145    99498338.271       -2189.444          45.000  
G 9  19022735.805    99965164.464         950.671          46.000  
G26  20656273.443   108549415.027       -2432.503          39.000  
G 7  21170398.110   111251164.341        2642.408          37.000  
G11  21479421.119   112875119.467        3098.894          38.000  
G18  21479999.559   112878124.408        2790.927          37.000  
G31  21782581.466   114468216.911       -2764.845          40.000  
G 3  22638745.233   118967416.327       -1930.091          32.000  
G 4  20151682.999   105897809.553        1915.624          39.000  
> 2019  3 22  6 36 49.9900000  0 12                     
G27  17340784.405    91126444.020       -1301.533          50.000  
G 8  17497722.223    91951146.811         933.324          50.000  
G23  18048015.625    94842950.576        -832.345          46.000  
G16  18934112.257    99499432.989       -2189.335          45.000  
G 9  19022645.273    99964689.158         950.326          46.000  
G26  20656505.025   108550631.211       -2432.244          39.000  
G 7  21170146.722   111249842.975        2642.990          37.000  
G11  21479126.385   112873569.956        3099.348          39.000  
G18  21479733.879   112876728.873        2790.909          37.000  
G31  21782844.545   114469599.371       -2764.979          40.000  
G 3  22638928.792   118968380.995       -1929.132          32.000  
G 4  20151500.696   105896851.735        1915.569          40.000  
> 2019  3 22  6 36 50.4900000  0 12                     
G27  17340908.180    91127094.800       -1301.853          50.000  
G 8  17497633.419    91950680.284         932.768          49.000  
G23  18048094.482    94843366.913        -833.014          46.000  
G16  18934320.508    99500527.778       -2189.701          45.000  
G 9  19022554.811    99964214.054         949.879          46.000  
G26  20656736.484   108551847.444       -2432.637          39.000  
G 7  21169895.055   111248521.680        2642.789          37.000  
G11  21478831.406   112872020.511        3098.572          38.000  
G18  21479468.269   112875333.343        2790.799          37.000  
G31  21783107.660   114470981.937       -2765.220          40.000  
G 3  22639112.124   118969345.661       -1929.438          32.000  
G 4  20151318.377   105895894.091        1915.041          39.000  
> 2019  3 22  6 36 50.9900000  0 12                     
G27  17341032.216    91127745.837       -1302.303          50.000  
G 8  17497544.894    91950214.004         932.348          49.000  
G23  18048173.724    94843783.498        -833.462          46.000  
G16  18934528.689    99501622.670       -2189.919          44.000  
G 9  19022464.559    99963739.207         949.416          46.000  
G26  20656967.996   108553063.772       -2432.955          39.000  
G 7  21169643.492   111247200.448        2642.346          37.000  
G11  21478536.655   112870471.141        3098.452          38.000  
G18  21479202.677   112873937.860        2790.944          37.000  
G31  21783370.704   114472364.646       -2765.609          40.000  
G 3  22639295.718   118970310.327       -1929.177          32.000  
G 4  20151136.039   105894936.661        1914.806          39.000  
> 2019  3 22  6 36 51.4900000  0 12                     
G27  17341156.287    91128397.112       -1302.871          50.000  
G 8  17497456.404    91949747.959         931.730          50.000  
G23  18048253.314    94844200.330        -834.134          47.000  
G16  18934737.201    99502717.655       -2190.149          45.000  
G 9  19022374.394    99963264.579         948.974          47.000  
G26  20657199.334   108554280.145       -2433.103          40.000  
G 7  21169392.209   111245879.258        2642.201          38.000  
G11  21478241.955   112868921.827        3098.291          38.000  
G18  21478937.154   112872542.458        2790.645          37.000  
G31  21783633.888   114473747.495       -2766.006          40.000  
G 3  22639479.154   118971275.034       -1929.251          32.000  
G 4  20150954.016   105893979.467        1913.785          40.000  
> 2019  3 22  6 36 51.9900000  0 12                     
G27  17341280.567    91129048.576       -1303.376          49.000  
G 8  17497367.984    91949282.095         931.320          49.000  
G23  18048332.922    94844617.349        -834.487          46.000  
G16  18934945.574    99503812.683       -2190.413          43.000  
G 9  19022284.036    99962790.139         948.565          46.000  
G26  20657430.898   108555496.549       -2433.011          39.000  
G 7  21169140.804   111244558.097        2642.156          38.000  
G11  21477947.413   112867372.533        3098.336          38.000  
G18  21478671.649   112871147.026        2790.553          37.000  
G31  21783897.212   114475130.414       -2766.251          40.000  
G 3  22639662.800   118972239.721       -1929.593          31.000  
G 4  20150771.993   105893022.386        1913.590          39.000  
> 2019  3 22  6 36 52.4900000  0 12                     
G27  17341404.953    91129700.286       -1303.887          49.000  
G 8  17497279.529    91948816.476         930.863          49.000  
G23  18048412.338    94845034.615        -835.024          46.000  
G16  18935154.087    99504907.804       -2190.676          44.000  
G 9  19022193.871    99962315.939         948.033          46.000  
G26  20657662.585   108556713.043       -2433.290          39.000  
G 7  21168889.591   111243237.044        2641.393          37.000  
G11  21477652.696   112865823.318        3098.033          38.000  
G18  21478405.987   112869751.639        2790.771          37.000  
G31  21784160.675   114476513.484       -2766.724          40.000  
G 3  22639846.324   118973204.373       -1929.321          31.000  
G 4  20150589.847   105892065.512        1913.400          39.000  
> 2019  3 22  6 36 52.9900000  0 12                     
G27  17341528.954    91130352.204       -1303.848          50.000  
G 8  17497190.934    91948351.070         930.797          50.000  
G23  18048491.754    94845452.094        -834.907          46.000  
G16  18935362.460    99506002.996       -2190.228          44.000  
G 9  19022103.863    99961841.933         948.201          46.000  
G26  20657894.044   108557929.565       -2432.626          39.000  
G 7  21168638.220   111241915.974        2642.161          37.000  
G11  21477357.980   112864274.155        3098.312          38.000  
G18  21478140.500   112868356.328        2790.610          37.000  
G31  21784424.069   114477896.658       -2766.405          40.000  
G 3  22640029.953   118974169.049       -1928.897          31.000  
G 4  20150407.702   105891108.838        1913.332          39.000  
> 2019  3 22  6 36 53.4900000  0 12                     
G27  17341652.955    91131004.276       -1304.510          51.000  
G 8  17497102.618    91947885.802         930.179          50.000  
G23  18048571.187    94845869.724        -835.643          47.000  
G16  18935570.833    99507098.188       -2190.728          45.000  
G 9  19022013.855    99961368.076         947.381          47.000  
G26  20658125.574   108559146.080       -2433.044          40.000  
G 7  21168386.937   111240594.870        2642.286          38.000  
G11  21477063.368   112862724.954        3098.201          38.000  
G18  21477875.064   112866960.936        2790.396          37.000  
G31  21784687.498   114479279.863       -2766.602          41.000  
G 3  22640213.494   118975133.629       -1929.608          32.000  
G 4  20150225.557   105890152.248        1912.998          40.000  
> 2019  3 22  6 36 53.9900000  0 12                     
G27  17341777.096    91131656.551       -1304.794          50.000  
G 8  17497014.163    91947420.734         929.961          50.000  
G23  18048650.883    94846287.553        -835.779          47.000  
G16  18935779.416    99508193.433       -2190.534          45.000  
G 9  19021923.846    99960894.408         947.044          47.000  
G26  20658357.068   108560362.621       -2432.833          40.000  
G 7  21168135.392   111239273.815        2642.767          38.000  
G11  21476768.616   112861175.781        3098.368          38.000  
G18  21477609.524   112865565.530        2790.867          38.000  
G31  21784950.839   114480663.177       -2766.753          41.000  
G 3  22640396.826   118976098.166       -1929.056          32.000  
G 4  20150043.638   105889195.835        1912.659          40.000  
> 2019  3 22  6 36 54.4900000  0 12                     
G27  17341901.132    91132308.941       -1305.101          51.000  
G 8  17496925.621    91946955.774         929.674          50.000  
G23  18048730.264    94846705.503        -836.194          47.000  
G16  18935987.911    99509288.654       -2190.553          45.000  
G 9  19021833.838    99960420.848         946.797          47.000  
G26  20658588.546   108561579.120       -2433.156          40.000  
G 7  21167883.865   111237952.749        2641.345          38.000  
G11  21476473.952   112859626.590        3098.084          38.000  
G18  21477344.229   112864170.081        2790.917          38.000  
G31  21785214.110   114482046.505       -2766.940          41.000  
G 3  22640580.298   118977062.622       -1929.658          32.000  
G 4  20149861.685   105888239.525        1912.185          40.000  
> 2019  3 22  6 36 54.9900000  0 12                     
G27  17342025.203    91132961.404       -1304.976          51.000  
G 8  17496837.183    91946490.888         929.606          50.000  
G23  18048809.680    94847123.529        -836.141          47.000  
G16  18936196.354    99510383.807       -2190.367          45.000  
G 9  19021743.690    99959947.357         946.961          47.000  
G26  20658819.936   108562795.512       -2432.635          40.000  
G 7  21167632.355   111236631.505        2642.092          38.000  
G11  21476178.991   112858077.264        3098.893          38.000  
G18  21477078.567   112862774.485        2791.785          37.000  
G31  21785477.486   114483429.789       -2766.625          41.000  
G 3  22640763.804   118978026.894       -1928.551          32.000  
G 4  20149679.853   105887283.208        1912.783          40.000  
> 2019  3 22  6 36 55.4900000  0 12                     
G27  17342149.379    91133614.018       -1305.438          50.000  
G 8  17496748.641    91946026.134         929.244          50.000  
G23  18048889.444    94847541.702        -836.533          47.000  
G16  18936404.744    99511478.947       -2190.242          45.000  
G 9  19021653.595    99959473.996         946.556          47.000  
G26  20659051.552   108564011.883       -2432.656          40.000  
G 7  21167381.072   111235310.260        2642.266          38.000  
G11  21475884.221   112856527.941        3098.481          38.000  
G18  21476812.765   112861378.880        2791.170          37.000  
G31  21785740.548   114484813.129       -2767.093          41.000  
G 3  22640947.276   118978991.105       -1928.649          33.000  
G 4  20149497.865   105886327.039        1911.964          40.000  
> 2019  3 22  6 36 55.9900000  0 12                     
G27  17342273.537    91134266.675       -1305.714          51.000  
G 8  17496660.185    91945561.437         929.038          51.000  
G23  18048969.157    94847959.924        -836.853          47.000  
G16  18936613.117    99512574.005       -2190.257          46.000  
G 9  19021563.691    99959000.691         946.232          47.000  
G26  20659283.082   108565228.155       -2432.736          40.000  
G 7  21167129.614   111233988.855        2643.120          38.000  
G11  21475589.330   112854978.507        3098.562          38.000  
G18  21476546.911   112859983.103        2791.672          37.000  
G31  21786003.785   114486196.401       -2766.744          41.000  
G 3  22641130.590   118979955.108       -1928.258          33.000  
G 4  20149315.929   105885370.866        1912.222          40.000  
> 2019  3 22  6 36 56.4900000  0 12                     
G27  17342397.713    91134919.463       -1306.032          50.000  
G 8  17496571.922    91945096.859         928.762          51.000  
G23  18049048.695    94848378.278        -837.279          46.000  
G16  18936821.543    99513669.047       -2190.477          45.000  
G 9  19021473.718    99958527.500         945.885          47.000  
G26  20659514.419   108566444.375       -2432.934          40.000  
G 7  21166877.982   111232667.483        2642.404          38.000  
G11  21475294.404   112853428.988        3098.778          38.000  
G18  21476281.284   112858587.307        2791.000          37.000  
G31  21786267.004   114487579.698       -2766.885          41.000  
G 3  22641314.062   118980919.048       -1928.272          33.000  
G 4  20149134.098   105884414.812        1911.462          40.000  
> 2019  3 22  6 36 56.9900000  0 12                     
G27  17342522.028    91135572.474       -1306.265          51.000  
G 8  17496483.589    91944632.507         928.392          51.000  
G23  18049128.146    94848796.845        -837.395          47.000  
G16  18937029.951    99514764.155       -2190.207          46.000  
G 9  19021383.884    99958054.525         945.656          48.000  
G26  20659745.652   108567660.635       -2432.513          40.000  
G 7  21166626.594   111231346.123        2642.344          38.000  
G11  21474999.600   112851879.566        3098.896          39.000  
G18  21476015.517   112857191.509        2791.378          37.000  
G31  21786530.310   114488963.127       -2767.065          41.000  
G 3  22641497.411   118981882.940       -1927.446          33.000  
G 4  20148952.022   105883458.900        1911.782          40.000  
> 2019  3 22  6 36 57.4900000  0 12                     
G27  17342645.890    91136225.605       -1306.181          50.000  
G 8  17496395.012    91944168.259         928.528          50.000  
G23  18049207.684    94849215.538        -837.461          46.000  
G16  18937238.167    99515859.246       -2189.990          45.000  
G 9  19021293.963    99957581.646         945.860          47.000  
G26  20659976.990   108568876.873       -2432.460          40.000  
G 7  21166375.102   111230024.667        2643.458          38.000  
G11  21474704.604   112850330.089        3098.912          38.000  
G18  21475749.680   112855795.618        2792.303          37.000  
G31  21786793.686   114490346.557       -2766.989          41.000  
G 3  22641680.813   118982846.761       -1927.743          34.000  
G 4  20148770.069   105882503.096        1911.846          40.000  
> 2019  3 22  6 36 57.9900000  0 12                     
G27  17342770.170    91136878.692       -1306.561          50.000  
G 8  17496306.714    91943703.963         928.356          50.000  
G23  18049287.292    94849634.182        -837.593          46.000  
G16  18937446.435    99516954.138       -2189.903          45.000  
G 9  19021204.112    99957108.732         945.571          47.000  
G26  20660208.502   108570092.888       -2432.296          40.000  
G 7  21166123.434   111228703.033        2643.005          38.000  
G11  21474409.661   112848780.379        3099.285          38.000  
G18  21475484.053   112854399.526        2792.399          37.000  
G31  21787056.818   114491729.830       -2766.792          41.000  
G 3  22641864.006   118983810.284       -1927.075          34.000  
G 4  20148588.342   105881547.211        1911.365          40.000  
> 2019  3 22  6 36 58.4900000  0 12                     
G27  17342894.835    91137531.987       -1306.598          50.000  
G 8  17496218.363    91943239.891         928.094          50.000  
G23  18049367.162    94850053.051        -837.826          46.000  
G16  18937654.878    99518049.102       -2189.858          45.000  
G 9  19021114.209    99956636.026         945.284          47.000  
G26  20660439.822   108571308.926       -2431.977          40.000  
G 7  21165871.872   111227381.425        2643.690          38.000  
G11  21474114.822   112847230.731        3099.414          38.000  
G18  21475218.339   112853003.447        2792.235          37.000  
G31  21787319.950   114493113.208       -2766.588          41.000  
G 3  22642047.320   118984773.787       -1926.518          34.000  
G 4  20148406.581   105880591.495        1911.299          40.000  
> 2019  3 22  6 36 58.9900000  0 12                     
G27  17343019.202    91138185.376       -1307.072          50.000  
G 8  17496130.013    91942775.893         927.781          50.000  
G23  18049446.944    94850471.998        -838.153          46.000  
G16  18937863.198    99519144.010       -2189.945          45.000  
G 9  19021024.323    99956163.390         945.047          47.000  
G26  20660671.264   108572524.901       -2431.958          40.000  
G 7  21165620.118   111226059.702        2643.671          38.000  
G11  21473819.791   112845680.976        3099.467          38.000  
G18  21474952.485   112851607.261        2792.170          37.000  
G31  21787583.047   114494496.579       -2766.812          41.000  
G 3  22642230.844   118985737.173       -1926.935          34.000  
G 4  20148224.627   105879635.824        1911.121          40.000  
> 2019  3 22  6 36 59.4900000  0 12                     
G27  17343143.204    91138838.917       -1307.425          50.000  
G 8  17496041.715    91942312.051         927.466          50.000  
G23  18049526.744    94850891.106        -838.545          47.000  
G16  18938071.624    99520238.922       -2190.024          45.000  
G 9  19020934.471    99955690.905         944.730          48.000  
G26  20660902.654   108573740.862       -2432.067          40.000  
G 7  21165368.538   111224738.003        2643.771          38.000  
G11  21473524.847   112844131.235        3099.071          38.000  
G18  21474686.927   112850211.044        2791.776          37.000  
G31  21787846.266   114495880.009       -2767.103          41.000  
G 3  22642414.141   118986700.477       -1926.738          34.000  
G 4  20148042.849   105878680.285        1910.479          40.000  
> 2019  3 22  6 36 59.9900000  0 12                     
G27  17343267.728    91139492.775       -1308.036          50.000  
G 8  17495953.574    91941848.529         926.651          51.000  
G23  18049606.526    94851310.544        -839.280          47.000  
G16  18938280.049    99521334.019       -2190.535          45.000  
G 9  19020844.585    99955218.744         943.936          48.000  
G26  20661134.131   108574956.981       -2432.553          40.000  
G 7  21165117.185   111223416.452        2642.861          38.000  
G11  21473229.816   112842581.625        3098.944          38.000  
G18  21474421.457   112848814.935        2791.825          37.000  
G31  21788109.381   114497263.655       -2767.693          41.000  
G 3  22642597.473   118987663.890       -1926.901          34.000  
G 4  20147861.105   105877725.041        1910.002          40.000  
> 2019  3 22  6 37  0.4900000  0 12                     
G27  17343392.166    91140146.796       -1308.203          50.000  
G 8  17495865.537    91941385.149         926.586          51.000  
G23  18049686.448    94851730.123        -839.286          47.000  
G16  18938488.370    99522429.119       -2189.991          45.000  
G 9  19020754.978    99954746.719         943.881          48.000  
G26  20661365.556   108576173.063       -2431.950          40.000  
G 7  21164865.675   111222094.864        2642.884          38.000  
G11  21472934.960   112841032.035        3099.084          39.000  
G18  21474155.673   112847418.794        2792.479          38.000  
G31  21788372.704   114498647.325       -2767.184          42.000  
G 3  22642780.858   118988627.205       -1926.591          34.000  
G 4  20147679.605   105876769.888        1910.394          40.000  
> 2019  3 22  6 37  0.9900000  0 12                     
G27  17343516.726    91140800.900       -1308.142          50.000  
G 8  17495777.449    91940921.861         926.531          50.000  
G23  18049766.492    94852149.800        -839.322          46.000  
G16  18938696.900    99523524.193       -2190.016          45.000  
G 9  19020665.180    99954274.780         943.848          47.000  
G26  20661596.946   108577389.108       -2431.941          40.000  
G 7  21164614.252   111220773.178        2643.405          38.000  
G11  21472640.156   112839482.336        3099.829          39.000  
G18  21473889.958   112846022.567        2792.755          37.000  
G31  21788635.976   114500031.022       -2767.521          40.000  
G 3  22642964.329   118989590.383       -1925.897          34.000  
G 4  20147498.018   105875814.829        1910.092          40.000  
> 2019  3 22  6 37  1.4900000  0 12                     
G27  17343641.582    91141455.280       -1309.209          50.000  
G 8  17495689.447    91940458.826         925.718          50.000  
G23  18049846.711    94852569.750        -840.351          46.000  
G16  18938905.325    99524619.363       -2190.499          45.000  
G 9  19020575.660    99953803.085         943.067          47.000  
G26  20661828.388   108578605.220       -2432.281          40.000  
G 7  21164362.830   111219451.558        2643.469          38.000  
G11  21472345.439   112837932.744        3098.781          39.000  
G18  21473624.593   112844626.401        2792.351          37.000  
G31  21788899.160   114501414.836       -2767.937          41.000  
G 3  22643147.871   118990553.648       -1926.938          34.000  
G 4  20147316.396   105874859.969        1909.403          40.000  
> 2019  3 22  6 37  1.9900000  0 12                     
G27  17343766.142    91142109.841       -1309.532          51.000  
G 8  17495601.463    91939995.976         925.388          51.000  
G23  18049926.808    94852989.883        -840.750          47.000  
G16  18939113.838    99525714.593       -2190.567          45.000  
G 9  19020486.001    99953331.587         942.700          47.000  
G26  20662059.900   108579821.372       -2432.455          40.000  
G 7  21164111.442   111218129.996        2643.129          38.000  
G11  21472050.670   112836383.163        3098.761          39.000  
G18  21473359.000   112843230.251        2792.069          37.000  
G31  21789162.658   114502798.758       -2768.220          41.000  
G 3  22643331.290   118991516.826       -1926.406          34.000  
G 4  20147134.757   105873905.260        1909.190          40.000  
> 2019  3 22  6 37  2.4900000  0 12                     
G27  17343890.701    91142764.499       -1309.599          50.000  
G 8  17495513.375    91939533.220         925.353          50.000  
G23  18050006.695    94853410.105        -840.672          46.000  
G16  18939322.141    99526809.760       -2190.407          45.000  
G 9  19020396.289    99952860.167         942.648          47.000  
G26  20662291.290   108581037.428       -2431.934          40.000  
G 7  21163859.827   111216808.340        2644.099          38.000  
G11  21471755.640   112834833.512        3099.159          39.000  
G18  21473093.286   112841833.995        2792.405          38.000  
G31  21789425.895   114504182.654       -2767.839          41.000  
G 3  22643514.535   118992479.900       -1926.134          34.000  
G 4  20146953.274   105872950.622        1909.137          40.000  
> 2019  3 22  6 37  2.9900000  0 12                     
G27  17344015.156    91143419.437       -1310.196          50.000  
G 8  17495424.937    91939070.748         924.539          50.000  
G23  18050086.791    94853830.618        -841.363          47.000  
G16  18939530.322    99527905.070       -2190.776          45.000  
G 9  19020306.403    99952389.030         942.025          47.000  
G26  20662522.715   108582253.625       -2432.595          40.000  
G 7  21163608.160   111215486.794        2642.799          38.000  
G11  21471460.783   112833283.959        3099.317          39.000  
G18  21472827.484   112840437.825        2792.124          37.000  
G31  21789689.201   114505566.747       -2768.459          41.000  
G 3  22643697.709   118993443.006       -1926.760          34.000  
G 4  20146771.635   105871996.239        1908.160          40.000  
> 2019  3 22  6 37  3.4900000  0 12                     
G27  17344139.663    91144074.488       -1310.076          50.000  
G 8  17495336.656    91938608.374         924.774          50.000  
G23  18050166.643    94854251.232        -841.095          47.000  
G16  18939738.748    99529000.340       -2190.360          45.000  
G 9  19020216.604    99951917.992         942.125          47.000  
G26  20662754.122   108583469.748       -2432.135          40.000  
G 7  21163356.528   111214165.183        2643.257          38.000  
G11  21471166.049   112831734.379        3099.268          38.000  
G18  21472561.892   112839041.563        2792.471          37.000  
G31  21789952.420   114506950.823       -2768.115          41.000  
G 3  22643880.727   118994405.987       -1925.776          34.000  
G 4  20146590.135   105871041.894        1908.930          40.000  
> 2019  3 22  6 37  3.9900000  0 12                     
G27  17344264.258    91144729.635       -1310.559          50.000  
G 8  17495248.550    91938146.094         924.388          50.000  
G23  18050246.687    94854671.963        -841.784          46.000  
G16  18939947.191    99530095.564       -2190.554          45.000  
G 9  19020126.963    99951447.048         941.575          47.000  
G26  20662985.529   108584685.799       -2432.167          40.000  
G 7  21163105.088   111212843.515        2642.726          38.000  
G11  21470871.175   112830184.711        3099.351          38.000  
G18  21472296.160   112837645.238        2792.297          37.000  
G31  21790215.674   114508334.893       -2768.233          41.000  
G 3  22644063.920   118995368.870       -1926.169          34.000  
G 4  20146408.426   105870087.642        1908.413          40.000  
> 2019  3 22  6 37  4.4900000  0 12                     
G27  17344388.713    91145384.941       -1310.596          50.000  
G 8  17495160.584    91937683.961         924.341          49.000  
G23  18050326.749    94855092.830        -841.745          46.000  
G16  18940155.721    99531190.795       -2190.265          45.000  
G 9  19020037.234    99950976.238         941.813          47.000  
G26  20663216.937   108585901.832       -2431.761          40.000  
G 7  21162853.543   111211521.761        2643.826          38.000  
G11  21470576.563   112828635.023        3099.519          38.000  
G18  21472030.480   112836248.841        2793.056          37.000  
G31  21790479.068   114509719.035       -2768.320          41.000  
G 3  22644247.182   118996331.629       -1925.082          34.000  
G 4  20146226.909   105869133.482        1908.629          40.000  
> 2019  3 22  6 37  4.9900000  0 12                     
G27  17344513.447    91146040.200       -1310.704          50.000  
G 8  17495072.809    91937221.786         924.216          50.000  
G23  18050406.741    94855513.666        -841.800          46.000  
G16  18940364.094    99532285.837       -2190.103          45.000  
G 9  19019947.801    99950505.395         941.536          47.000  
G26  20663448.239   108587117.668       -2431.556          40.000  
G 7  21162601.946   111210199.823        2644.856          38.000  
G11  21470281.515   112827085.119        3099.907          38.000  
G18  21471764.853   112834852.232        2793.191          37.000  
G31  21790742.583   114511103.002       -2768.073          41.000  
G 3  22644430.374   118997294.158       -1925.109          33.000  
G 4  20146045.427   105868179.277        1908.367          40.000  
> 2019  3 22  6 37  5.4900000  0 12                     
G27  17344638.094    91146695.429       -1310.492          50.000  
G 8  17494984.773    91936759.579         924.260          50.000  
G23  18050487.082    94855934.476        -841.800          46.000  
G16  18940572.223    99533380.710       -2189.817          45.000  
G 9  19019858.212    99950034.508         941.611          47.000  
G26  20663679.420   108588333.308       -2431.263          40.000  
G 7  21162350.296   111208877.710        2644.531          38.000  
G11  21469986.694   112825535.035        3100.276          38.000  
G18  21471498.999   112833455.422        2793.187          37.000  
G31  21791005.837   114512486.842       -2767.623          41.000  
G 3  22644613.497   118998256.434       -1924.529          34.000  
G 4  20145863.700   105867224.992        1908.352          40.000  
> 2019  3 22  6 37  5.9900000  0 12                     
G27  17344762.828    91147350.711       -1310.992          50.000  
G 8  17494896.754    91936297.417         923.738          50.000  
G23  18050567.300    94856355.337        -842.254          46.000  
G16  18940780.491    99534475.487       -2190.010          44.000  
G 9  19019768.622    99949563.656         941.217          47.000  
G26  20663910.810   108589548.827       -2431.399          40.000  
G 7  21162098.734   111207555.449        2644.167          38.000  
G11  21469691.680   112823984.831        3100.132          38.000  
G18  21471233.302   112832058.423        2793.596          37.000  
G31  21791269.039   114513870.635       -2767.803          41.000  
G 3  22644796.637   118999218.509       -1924.590          34.000  
G 4  20145682.009   105866270.693        1908.428          40.000  
> 2019  3 22  6 37  6.4900000  0 12                     
G27  17344887.370    91148006.303       -1311.635          50.000  
G 8  17494808.648    91935835.550         923.250          50.000  
G23  18050647.449    94856776.507        -842.955          47.000  
G16  18940988.812    99535570.422       -2190.374          45.000  
G 9  19019678.946    99949093.111         940.660          47.000  
G26  20664141.868   108590764.487       -2431.748          40.000  
G 7  21161847.206   111206233.324        2644.100          39.000  
G11  21469396.649   112822434.767        3099.718          38.000  
G18  21470967.500   112830661.580        2793.240          38.000  
G31  21791532.031   114515254.646       -2768.505          41.000  
G 3  22644979.585   119000180.676       -1924.921          33.000  
G 4  20145500.404   105865316.697        1907.840          41.000  
> 2019  3 22  6 37  6.9900000  0 12                     
G27  17345012.070    91148662.054       -1311.870          50.000  
G 8  17494720.698    91935373.849         922.934          50.000  
G23  18050727.476    94857197.832        -843.180          47.000  
G16  18941197.150    99536665.360       -2190.240          45.000  
G 9  19019589.339    99948622.721         940.338          47.000  
G26  20664373.136   108591980.126       -2431.965          40.000  
G 7  21161595.592   111204911.178        2643.872          39.000  
G11  21469101.601   112820884.679        3099.901          38.000  
G18  21470701.681   112829264.678        2793.582          37.000  
G31  21791795.320   114516638.689       -2768.548          41.000  
G 3  22645162.533   119001142.770       -1924.744          33.000  
G 4  20145318.765   105864362.841        1907.256          40.000  
> 2019  3 22  6 37  7.4900000  0 12                     
G27  17345136.664    91149317.933       -1311.755          50.000  
G 8  17494632.680    91934912.273         923.052          50.000  
G23  18050807.747    94857619.292        -843.103          47.000  
G16  18941405.279    99537760.292       -2189.806          44.000  
G 9  19019499.784    99948152.457         940.380          47.000  
G26  20664604.561   108593195.738       -2431.195          40.000  
G 7  21161343.942   111203589.002        2644.334          39.000  
G11  21468806.465   112819334.549        3100.432          39.000  
G18  21470435.653   112827867.713        2794.272          37.000  
G31  21792058.522   114518022.752       -2768.201          41.000  
G 3  22645345.534   119002104.770       -1924.418          33.000  
G 4  20145137.248   105863409.057        1907.257          40.000  
> 2019  3 22  6 37  7.9900000  0 12                     
G27  17345261.608    91149974.088       -1312.477          50.000  
G 8  17494544.661    91934450.956         922.460          50.000  
G23  18050887.913    94858041.011        -843.593          47.000  
G16  18941613.477    99538855.352       -2190.133          45.000  
G 9  19019410.108    99947682.436         940.047          47.000  
G26  20664835.811   108594411.441       -2431.457          40.000  
G 7  21161092.310   111202266.933        2643.443          39.000  
G11  21468511.592   112817784.533        3100.118          39.000  
G18  21470169.764   112826470.836        2793.771          37.000  
G31  21792321.758   114519406.987       -2768.432          41.000  
G 3  22645528.325   119003066.779       -1924.149          33.000  
G 4  20144955.870   105862455.505        1906.896          40.000  
> 2019  3 22  6 37  8.4900000  0 12                     
G27  17345386.621    91150630.430       -1312.774          50.000  
G 8  17494457.113    91933989.834         922.113          50.000  
G23  18050968.219    94858462.940        -844.063          46.000  
G16  18941821.868    99539950.455       -2190.289          44.000  
G 9  19019320.850    99947212.617         939.503          47.000  
G26  20665066.991   108595627.163       -2431.339          40.000  
G 7  21160840.870   111200944.838        2644.002          39.000  
G11  21468216.858   112816234.556        3099.664          38.000  
G18  21469903.875   112825073.948        2794.054          37.000  
G31  21792585.135   114520791.304       -2768.526          40.000  
G 3  22645711.430   119004028.787       -1923.848          33.000  
G 4  20144774.388   105861502.095        1906.818          41.000  
> 2019  3 22  6 37  8.9900000  0 12                     
G27  17345511.460    91151286.949       -1313.347          50.000  
G 8  17494369.408    91933528.877         921.691          50.000  
G23  18051048.490    94858885.035        -844.428          46.000  
G16  18942030.345    99541045.574       -2190.140          44.000  
G 9  19019231.714    99946742.970         939.064          47.000  
G26  20665298.434   108596842.913       -2431.616          40.000  
G 7  21160589.429   111199622.767        2644.094          38.000  
G11  21467921.966   112814684.557        3099.828          38.000  
G18  21469638.056   112823677.053        2793.521          37.000  
G31  21792848.703   114522175.723       -2769.271          40.000  
G 3  22645894.535   119004990.706       -1923.474          33.000  
G 4  20144592.958   105860548.845        1906.335          40.000  
> 2019  3 22  6 37  9.4900000  0 12                     
G27  17345636.491    91151943.587       -1313.121          50.000  
G 8  17494281.668    91933068.038         921.808          50.000  
G23  18051128.936    94859307.249        -844.227          47.000  
G16  18942238.771    99542140.688       -2189.983          44.000  
G 9  19019142.421    99946273.414         939.203          47.000  
G26  20665529.527   108598058.604       -2431.250          40.000  
G 7  21160337.954   111198300.639        2644.109          39.000  
G11  21467626.988   112813134.515        3100.479          38.000  
G18  21469372.324   112822280.075        2794.186          37.000  
G31  21793112.201   114523560.125       -2768.719          40.000  
G 3  22646077.675   119005952.567       -1923.575          34.000  
G 4  20144411.563   105859595.678        1906.408          41.000  
> 2019  3 22  6 37  9.9900000  0 12                     
G27  17345761.155    91152600.328       -1313.570          50.000  
G 8  17494193.946    91932607.307         921.355          50.000  
G23  18051209.346    94859729.582        -844.764          47.000  
G16  18942447.248    99543235.749       -2190.002          44.000  
G 9  19019053.181    99945803.968         938.849          47.000  
G26  20665760.847   108599274.223       -2431.030          40.000  
G 7  21160086.444   111196978.445        2643.975          39.000  
G11  21467332.009   112811584.434        3100.138          38.000  
G18  21469106.505   112820883.031        2793.917          37.000  
G31  21793375.542   114524944.534       -2768.879          40.000  
G 3  22646260.605   119006914.282       -1923.415          34.000  
G 4  20144230.395   105858642.588        1905.669          41.000  
> 2019  3 22  6 37 10.4900000  0 12                     
G27  17345886.308    91153257.174       -1313.629          49.000  
G 8  17494106.241    91932146.673         921.233          49.000  
G23  18051289.687    94860152.012        -844.907          46.000  
G16  18942655.604    99544330.771       -2189.775          44.000  
G 9  19018963.853    99945334.624         938.577          46.000  
G26  20665992.027   108600489.807       -2431.055          39.000  
G 7  21159834.934   111195656.156        2644.708          38.000  
G11  21467036.926   112810034.251        3100.530          38.000  
G18  21468840.650   112819485.894        2794.200          37.000  
G31  21793638.901   114526328.940       -2768.780          40.000  
G 3  22646443.501   119007875.873       -1923.437          33.000  
G 4  20144049.139   105857689.540        1906.146          41.000  
> 2019  3 22  6 37 10.9900000  0 12                     
G27  17346011.147    91153914.077       -1313.708          50.000  
G 8  17494018.571    91931686.093         921.185          51.000  
G23  18051369.975    94860574.508        -845.069          47.000  
G16  18942864.012    99545425.719       -2189.824          45.000  
G 9  19018874.491    99944865.320         938.586          47.000  
G26  20666223.208   108601705.266       -2430.985          39.000  
G 7  21159583.424   111194333.775        2645.023          39.000  
G11  21466741.773   112808483.985        3100.967          39.000  
G18  21468574.901   112818088.605        2794.734          37.000  
G31  21793902.225   114527713.308       -2768.694          41.000  
G 3  22646626.467   119008837.293       -1922.592          34.000  
G 4  20143867.814   105856736.537        1906.004          42.000  
> 2019  3 22  6 37 11.4900000  0 12                     
G27  17346136.230    91154570.944       -1313.683          50.000  
G 8  17493930.849    91931225.466         921.326          50.000  
G23  18051450.316    94860996.951        -844.784          47.000  
G16  18943072.071    99546520.448       -2189.053          45.000  
G 9  19018785.041    99944395.961         939.017          47.000  
G26  20666454.336   108602920.524       -2430.734          39.000  
G 7  21159331.757   111193011.148        2645.403          39.000  
G11  21466446.655   112806933.503        3101.233          39.000  
G18  21468308.960   112816691.083        2795.497          38.000  
G31  21794165.618   114529097.512       -2768.238          41.000  
G 3  22646809.520   119009798.418       -1921.461          34.000  
G 4  20143686.332   105855783.438        1906.525          41.000  
> 2019  3 22  6 37 11.9900000  0 12                     
G27  17346261.261    91155227.955       -1314.478          50.000  
G 8  17493843.389    91930764.992         920.535          50.000  
G23  18051530.640    94861419.558        -845.735          47.000  
G16  18943280.549    99547615.207       -2189.670          45.000  
G 9  19018695.835    99943926.768         938.049          47.000  
G26  20666685.447   108604135.738       -2430.628          39.000  
G 7  21159080.317   111191688.503        2645.415          39.000  
G11  21466151.572   112805382.999        3100.914          39.000  
G18  21468043.106   112815293.579        2794.393          37.000  
G31  21794428.994   114530481.766       -2768.685          41.000  
G 3  22646992.468   119010759.499       -1922.161          34.000  
G 4  20143505.286   105854830.467        1905.566          41.000  
> 2019  3 22  6 37 12.4900000  0 12                     
G27  17346386.344    91155885.250       -1314.883          50.000  
G 8  17493755.579    91930304.794         920.067          50.000  
G23  18051611.137    94861842.438        -846.182          47.000  
G16  18943488.992    99548710.091       -2189.968          45.000  
G 9  19018606.647    99943457.832         937.529          47.000  
G26  20666916.645   108605351.079       -2430.781          39.000  
G 7  21158828.563   111190366.011        2644.818          39.000  
G11  21465856.454   112803832.611        3100.820          38.000  
G18  21467777.199   112813896.107        2794.666          37.000  
G31  21794692.615   114531866.194       -2768.895          40.000  
G 3  22647175.520   119011720.641       -1922.642          33.000  
G 4  20143323.891   105853877.730        1905.342          41.000  
> 2019  3 22  6 37 12.9900000  0 12                     
G27  17346511.776    91156542.812       -1315.806          50.000  
G 8  17493668.415    91929844.851         919.394          50.000  
G23  18051691.757    94862265.576        -846.742          47.000  
G16  18943697.347    99549805.086       -2190.310          45.000  
G 9  19018517.564    99942989.145         936.984          47.000  
G26  20667148.000   108606566.507       -2431.044          39.000  
G 7  21158576.878   111189043.551        2644.605          38.000  
G11  21465561.353   112802282.306        3100.244          38.000  
G18  21467511.363   112812498.705        2794.312          37.000  
G31  21794956.462   114533250.782       -2769.575          41.000  
G 3  22647358.503   119012681.809       -1923.055          33.000  
G 4  20143142.601   105852925.222        1904.563          41.000  
> 2019  3 22  6 37 13.4900000  0 12                     
G27  17346637.086    91157200.597       -1315.812          49.000  
G 8  17493580.955    91929385.144         919.088          50.000  
G23  18051772.151    94862688.961        -846.965          46.000  
G16  18943905.807    99550900.175       -2190.226          44.000  
G 9  19018428.655    99942520.695         936.664          47.000  
G26  20667379.232   108607782.021       -2431.248          39.000  
G 7  21158325.107   111187721.157        2645.227          38.000  
G11  21465266.270   112800732.072        3100.488          38.000  
G18  21467245.526   112811101.349        2794.786          37.000  
G31  21795219.995   114534635.501       -2769.580          40.000  
G 3  22647541.382   119013642.974       -1922.322          33.000  
G 4  20142961.712   105851972.915        1904.451          41.000  
> 2019  3 22  6 37 13.9900000  0 12                     
G27  17346762.361    91157858.573       -1316.090          50.000  
G 8  17493493.634    91928925.605         919.080          50.000  
G23  18051852.823    94863112.529        -847.328          47.000  
G16  18944114.268    99551995.302       -2190.214          45.000  
G 9  19018339.484    99942052.420         936.380          47.000  
G26  20667610.587   108608997.534       -2430.976          39.000  
G 7  21158073.405   111186398.773        2645.352          38.000  
G11  21464971.344   112799181.852        3100.433          38.000  
G18  21466979.759   112809703.992        2795.065          37.000  
G31  21795483.773   114536020.298       -2769.642          41.000  
G 3  22647724.295   119014604.073       -1921.973          34.000  
G 4  20142780.648   105851020.735        1904.771          41.000  
> 2019  3 22  6 37 14.4900000  0 12                     
G27  17346887.985    91158516.654       -1316.431          50.000  
G 8  17493406.453    91928466.190         918.474          50.000  
G23  18051933.478    94863536.209        -847.773          46.000  
G16  18944322.815    99553090.397       -2190.319          45.000  
G 9  19018250.785    99941584.257         935.771          47.000  
G26  20667841.838   108610213.003       -2431.352          39.000  
G 7  21157821.668   111185076.352        2644.326          38.000  
G11  21464676.400   112797631.574        3100.458          38.000  
G18  21466714.010   112808306.570        2794.728          37.000  
G31  21795747.341   114537405.105       -2769.877          41.000  
G 3  22647907.313   119015565.084       -1922.204          33.000  
G 4  20142599.480   105850068.660        1903.940          41.000  
> 2019  3 22  6 37 14.9900000  0 12                     
G27  17347013.121    91159174.937       -1316.878          50.000  
G 8  17493318.853    91928006.952         918.045          50.000  
G23  18052014.290    94863960.088        -848.185          47.000  
G16  18944531.311    99554185.537       -2190.503          45.000  
G 9  19018161.894    99941116.266         935.557          48.000  
G26  20668073.088   108611428.483       -2431.147          39.000  
G 7  21157569.739   111183753.946        2644.711          38.000  
G11  21464381.422   112796081.343        3100.123          38.000  
G18  21466448.208   112806909.156        2794.734          37.000  
G31  21796011.066   114538789.985       -2769.785          41.000  
G 3  22648090.226   119016526.038       -1921.992          34.000  
G 4  20142418.556   105849116.745        1903.637          41.000  
> 2019  3 22  6 37 15.4900000  0 12                     
G27  17347138.134    91159833.416       -1317.335          50.000  
G 8  17493231.375    91927547.914         917.715          50.000  
G23  18052094.910    94864384.164        -848.578          47.000  
G16  18944739.771    99555280.738       -2190.724          45.000  
G 9  19018073.089    99940648.480         935.053          48.000  
G26  20668304.426   108612644.002       -2431.458          39.000  
G 7  21157318.072   111182431.527        2644.923          38.000  
G11  21464086.461   112794531.108        3100.479          38.000  
G18  21466182.180   112805511.721        2794.625          37.000  
G31  21796274.512   114540174.979       -2770.084          41.000  
G 3  22648273.244   119017486.974       -1921.890          34.000  
G 4  20142237.475   105848164.998        1902.954          41.000  
> 2019  3 22  6 37 15.9900000  0 12                     
G27  17347263.409    91160492.001       -1317.526          49.000  
G 8  17493143.827    91927088.965         917.537          50.000  
G23  18052175.530    94864808.343        -848.624          47.000  
G16  18944948.092    99556375.887       -2190.426          45.000  
G 9  19017983.797    99940180.775         935.195          47.000  
G26  20668535.641   108613859.457       -2431.125          39.000  
G 7  21157066.318   111181109.083        2644.789          38.000  
G11  21463791.378   112792980.838        3100.428          38.000  
G18  21465916.203   112804114.189        2794.890          37.000  
G31  21796538.010   114541559.963       -2770.056          41.000  
G 3  22648456.122   119018447.813       -1922.261          34.000  
G 4  20142056.412   105847213.295        1903.240          41.000  
> 2019  3 22  6 37 16.4900000  0 12                     
G27  17347388.807    91161150.767       -1318.000          50.000  
G 8  17493056.489    91926630.195         917.241          50.000  
G23  18052256.394    94865232.706        -849.080          47.000  
G16  18945156.761    99557471.066       -2190.399          45.000  
G 9  19017894.923    99939713.255         934.782          48.000  
G26  20668766.821   108615074.915       -2430.938          39.000  
G 7  21156814.790   111179786.621        2644.351          38.000  
G11  21463496.399   112791430.562        3100.338          39.000  
G18  21465650.279   112802716.643        2795.172          37.000  
G31  21796801.508   114542945.032       -2770.489          41.000  
G 3  22648639.000   119019408.580       -1922.304          34.000  
G 4  20141875.470   105846261.750        1902.869          41.000  
> 2019  3 22  6 37 16.9900000  0 12                     
G27  17347514.256    91161809.701       -1318.012          50.000  
G 8  17492969.290    91926171.592         917.120          50.000  
G23  18052337.328    94865657.243        -849.307          47.000  
G16  18945365.256    99558566.296       -2190.600          45.000  
G 9  19017806.136    99939245.899         934.657          47.000  
G26  20668997.932   108616290.385       -2430.816          39.000  
G 7  21156563.053   111178464.151        2645.053          38.000  
G11  21463201.630   112789880.302        3100.353          39.000  
G18  21465384.443   112801319.107        2795.155          37.000  
G31  21797065.181   114544330.145       -2770.162          41.000  
G 3  22648821.756   119020369.278       -1921.513          34.000  
G 4  20141694.686   105845310.327        1902.820          41.000  
> 2019  3 22  6 37 17.4900000  0 12                     
G27  17347639.776    91162468.639       -1318.158          50.000  
G 8  17492881.986    91925712.998         916.947          50.000  
G23  18052418.175    94866081.777        -849.286          47.000  
G16  18945573.839    99559661.361       -2190.147          45.000  
G 9  19017717.314    99938778.530         934.599          48.000  
G26  20669229.304   108617505.704       -2430.752          39.000  
G 7  21156311.352   111177141.532        2645.000          38.000  
G11  21462906.634   112788329.870        3100.865          38.000  
G18  21465118.414   112799921.392        2795.153          37.000  
G31  21797328.872   114545715.175       -2770.122          41.000  
G 3  22649004.635   119021329.763       -1921.294          34.000  
G 4  20141513.570   105844358.899        1902.550          41.000  
> 2019  3 22  6 37 17.9900000  0 12                     
G27  17347765.417    91163127.692       -1318.262          50.000  
G 8  17492794.962    91925254.510         916.846          50.000  
G23  18052498.987    94866506.434        -849.436          47.000  
G16  18945782.334    99560756.416       -2190.316          45.000  
G 9  19017628.650    99938311.279         934.353          48.000  
G26  20669460.223   108618720.956       -2430.294          39.000  
G 7  21156059.702   111175818.821        2645.690          38.000  
G11  21462611.656   112786779.398        3100.891          38.000  
G18  21464852.438   112798523.559        2795.948          37.000  
G31  21797592.597   114547100.213       -2770.236          41.000  
G 3  22649187.565   119022290.127       -1920.616          34.000  
G 4  20141332.629   105843407.518        1902.560          41.000  
> 2019  3 22  6 37 18.4900000  0 12                     
G27  17347890.902    91163786.804       -1318.662          50.000  
G 8  17492707.694    91924796.070         916.512          50.000  
G23  18052579.921    94866931.146        -849.902          47.000  
G16  18945990.759    99561851.360       -2190.125          45.000  
G 9  19017539.671    99937844.073         933.837          47.000  
G26  20669691.247   108619936.088       -2430.456          39.000  
G 7  21155807.878   111174496.030        2645.450          39.000  
G11  21462316.468   112785228.783        3100.911          38.000  
G18  21464586.340   112797125.629        2795.957          37.000  
G31  21797856.182   114548485.197       -2770.357          41.000  
G 3  22649370.252   119023250.330       -1920.765          34.000  
G 4  20141151.635   105842456.177        1902.310          41.000  
> 2019  3 22  6 37 18.9900000  0 12                     
G27  17348016.351    91164445.895       -1318.774          50.000  
G 8  17492620.547    91924337.618         916.229          50.000  
G23  18052660.786    94867355.851        -850.090          47.000  
G16  18946199.202    99562946.154       -2190.146          45.000  
G 9  19017450.710    99937376.844         933.772          47.000  
G26  20669922.689   108621151.062       -2430.439          39.000  
G 7  21155556.263   111173173.016        2645.364          39.000  
G11  21462021.367   112783678.007        3100.767          38.000  
G18  21464320.311   112795727.497        2795.692          37.000  
G31  21798119.960   114549870.057       -2770.373          41.000  
G 3  22649552.956   119024210.256       -1920.155          34.000  
G 4  20140970.677   105841504.791        1902.011          41.000  
> 2019  3 22  6 37 19.4900000  0 12                     
G27  17348142.010    91165105.174       -1318.993          49.000  
G 8  17492533.558    91923879.327         916.030          50.000  
G23  18052741.842    94867780.717        -850.191          47.000  
G16  18946407.645    99564040.974       -2189.824          45.000  
G 9  19017361.941    99936909.784         933.498          47.000  
G26  20670153.834   108622366.032       -2430.078          39.000  
G 7  21155304.457   111171850.004        2645.467          38.000  
G11  21461726.284   112782127.228        3101.031          38.000  
G18  21464054.317   112794329.327        2796.000          37.000  
G31  21798383.894   114551254.992       -2770.380          41.000  
G 3  22649735.520   119025170.178       -1920.328          34.000  
G 4  20140789.648   105840553.524        1902.026          41.000  
> 2019  3 22  6 37 19.9900000  0 12                     
G27  17348267.286    91165764.661       -1318.957          50.000  
G 8  17492446.342    91923421.257         916.138          50.000  
G23  18052822.671    94868205.810        -850.114          47.000  
G16  18946616.053    99565135.874       -2189.671          45.000  
G 9  19017273.067    99936442.927         933.861          47.000  
G26  20670384.963   108623581.044       -2429.815          39.000  
G 7  21155052.650   111170527.029        2646.304          38.000  
G11  21461431.201   112780576.477        3101.850          38.000  
G18  21463788.184   112792931.205        2796.377          37.000  
G31  21798647.427   114552640.030       -2770.040          41.000  
G 3  22649917.979   119026130.033       -1919.034          34.000  
G 4  20140608.602   105839602.435        1902.309          41.000  
> 2019  3 22  6 37 20.4900000  0 12                     
G27  17348392.788    91166424.276       -1319.309          50.000  
G 8  17492359.300    91922963.304         915.880          50.000  
G23  18052903.658    94868631.036        -850.535          47.000  
G16  18946824.636    99566230.754       -2189.636          45.000  
G 9  19017184.315    99935976.213         933.341          47.000  
G26  20670616.352   108624796.031       -2429.884          39.000  
G 7  21154801.122   111169204.029        2645.900          38.000  
G11  21461136.240   112779025.746        3101.379          38.000  
G18  21463522.260   112791533.013        2796.624          37.000  
G31  21798911.257   114554025.092       -2769.793          41.000  
G 3  22650100.665   119027089.841       -1919.011          34.000  
G 4  20140427.591   105838651.464        1902.265          41.000  
> 2019  3 22  6 37 20.9900000  0 12                     
G27  17348518.394    91167084.073       -1319.787          49.000  
G 8  17492271.892    91922505.527         915.276          50.000  
G23  18052984.679    94869056.431        -851.033          46.000  
G16  18947032.956    99567325.657       -2189.864          45.000  
G 9  19017095.389    99935509.646         932.885          47.000  
G26  20670847.707   108626011.006       -2430.011          39.000  
G 7  21154549.316   111167881.004        2645.817          39.000  
G11  21460841.226   112777474.990        3100.865          38.000  
G18  21463256.040   112790134.795        2796.410          37.000  
G31  21799175.070   114555410.248       -2770.612          41.000  
G 3  22650283.160   119028049.570       -1919.221          34.000  
G 4  20140246.388   105837700.628        1901.389          40.000  
> 2019  3 22  6 37 21.4900000  0 12                     
G27  17348643.949    91167744.029       -1320.186          49.000  
G 8  17492184.571    91922047.912         915.181          50.000  
G23  18053065.491    94869482.005        -851.434          47.000  
G16  18947241.190    99568420.593       -2190.022          45.000  
G 9  19017006.323    99935043.251         932.511          47.000  
G26  20671078.888   108627225.978       -2429.795          39.000  
G 7  21154297.562   111166557.973        2646.196          39.000  
G11  21460546.143   112775924.211        3101.587          38.000  
G18  21462989.802   112788736.580        2796.166          37.000  
G31  21799438.952   114556795.445       -2770.607          42.000  
G 3  22650465.899   119029009.268       -1919.596          34.000  
G 4  20140065.499   105836749.914        1901.232          40.000  
> 2019  3 22  6 37 21.9900000  0 12                     
G27  17348769.293    91168404.160       -1320.780          50.000  
G 8  17492097.285    91921590.469         914.313          50.000  
G23  18053146.233    94869907.745        -852.072          47.000  
G16  18947449.336    99569515.545       -2190.379          45.000  
G 9  19016917.327    99934577.007         931.909          48.000  
G26  20671310.103   108628440.975       -2430.369          39.000  
G 7  21154045.772   111165234.966        2645.608          39.000  
G11  21460250.955   112774373.447        3101.069          38.000  
G18  21462723.407   112787338.310        2796.108          37.000  
G31  21799702.572   114558180.703       -2771.000          41.000  
G 3  22650648.375   119029968.895       -1919.587          34.000  
G 4  20139884.383   105835799.350        1900.294          41.000  
> 2019  3 22  6 37 22.4900000  0 12                     
G27  17348894.429    91169064.550       -1321.023          50.000  
G 8  17492010.139    91921133.275         914.091          50.000  
G23  18053227.115    94870333.750        -852.409          47.000  
G16  18947657.604    99570610.605       -2190.237          45.000  
G 9  19016828.575    99934111.023         931.604          47.000  
G26  20671541.179   108629656.055       -2430.300          39.000  
G 7  21153794.332   111163912.029        2646.010          39.000  
G11  21459955.924   112772822.795        3100.902          38.000  
G18  21462457.274   112785940.123        2796.305          37.000  
G31  21799966.123   114559566.129       -2771.164          41.000  
G 3  22650831.062   119030928.544       -1919.547          34.000  
G 4  20139703.442   105834848.978        1900.590          40.000  
> 2019  3 22  6 37 22.9900000  0 12                     
G27  17349020.489    91169725.107       -1321.224          50.000  
G 8  17491923.219    91920676.239         913.927          50.000  
G23  18053308.258    94870759.911        -852.458          47.000  
G16  18947866.012    99571705.694       -2190.059          45.000  
G 9  19016739.858    99933645.200         931.478          47.000  
G26  20671772.290   108630871.127       -2430.016          39.000  
G 7  21153542.683   111162589.082        2646.251          38.000  
G11  21459660.841   112771272.126        3101.329          38.000  
G18  21462191.158   112784541.907        2796.584          37.000  
G31  21800229.796   114560951.608       -2770.880          41.000  
G 3  22651013.958   119031888.131       -1918.951          34.000  
G 4  20139522.466   105833898.757        1900.426          40.000  
> 2019  3 22  6 37 23.4900000  0 12                     
G27  17349146.183    91170385.741       -1321.784          49.000  
G 8  17491836.230    91920219.269         913.470          50.000  
G23  18053389.262    94871186.164        -853.061          46.000  
G16  18948074.368    99572800.728       -2190.514          45.000  
G 9  19016651.089    99933179.438         930.883          47.000  
G26  20672003.366   108632086.099       -2430.113          39.000  
G 7  21153291.120   111161266.049        2645.626          38.000  
G11  21459365.584   112769721.333        3101.494          38.000  
G18  21461925.042   112783143.580        2796.272          37.000  
G31  21800493.468   114562337.060       -2771.287          41.000  
G 3  22651196.487   119032847.583       -1919.320          34.000  
G 4  20139341.524   105832948.572        1900.115          40.000  
> 2019  3 22  6 37 23.9900000  0 12                     
G27  17349271.423    91171046.473       -1321.533          49.000  
G 8  17491749.031    91919762.418         913.623          49.000  
G23  18053470.162    94871612.515        -852.822          46.000  
G16  18948282.741    99573895.706       -2190.169          44.000  
G 9  19016562.058    99932713.775         931.205          47.000  
G26  20672234.302   108633301.023       -2429.637          38.000  
G 7  21153039.226   111159942.915        2646.776          39.000  
G11  21459070.256   112768170.510        3102.208          37.000  
G18  21461658.856   112781745.163        2796.686          37.000  
G31  21800756.862   114563722.521       -2770.891          41.000  
G 3  22651378.859   119033806.885       -1918.594          33.000  
G 4  20139160.496   105831998.457        1900.479          40.000  
> 2019  3 22  6 37 24.4900000  0 12                     
G27  17349397.152    91171707.320       -1321.743          49.000  
G 8  17491661.920    91919305.669         913.439          50.000  
G23  18053551.253    94872038.980        -853.172          46.000  
G16  18948491.009    99574990.630       -2189.705          45.000  
G 9  19016473.498    99932248.211         931.118          47.000  
G26  20672465.482   108634515.890       -2429.714          38.000  
G 7  21152787.298   111158619.770        2646.234          39.000  
G11  21458774.981   112766619.642        3101.985          37.000  
G18  21461392.898   112780346.686        2796.823          37.000  
G31  21801020.308   114565107.977       -2770.894          41.000  
G 3  22651561.510   119034766.075       -1918.514          34.000  
G 4  20138979.677   105831048.427        1899.935          41.000  
> 2019  3 22  6 37 24.9900000  0 12                     
G27  17349522.515    91172368.177       -1322.045          49.000  
G 8  17491574.581    91918848.924         913.206          49.000  
G23  18053632.100    94872465.447        -853.126          46.000  
G16  18948699.190    99576085.436       -2189.762          45.000  
G 9  19016384.816    99931782.659         930.994          47.000  
G26  20672696.558   108635730.592       -2429.543          38.000  
G 7  21152535.648   111157296.403        2646.945          38.000  
G11  21458479.863   112765068.592        3102.018          37.000  
G18  21461126.764   112778947.985        2797.396          37.000  
G31  21801283.876   114566493.330       -2770.893          41.000  
G 3  22651743.970   119035725.023       -1917.784          34.000  
G 4  20138798.805   105830098.350        1899.842          41.000  
> 2019  3 22  6 37 25.4900000  0 12                     
G27  17349648.435    91173029.213       -1322.254          49.000  
G 8  17491487.609    91918392.353         913.000          49.000  
G23  18053713.313    94872892.108        -853.406          46.000  
G16  18948907.476    99577180.274       -2189.574          44.000  
G 9  19016296.238    99931317.277         930.674          47.000  
G26  20672927.634   108636945.319       -2429.375          38.000  
G 7  21152283.911   111155973.077        2646.281          39.000  
G11  21458184.640   112763517.583        3101.715          38.000  
G18  21460860.509   112777549.327        2797.094          37.000  
G31  21801547.392   114567878.780       -2770.815          41.000  
G 3  22651926.586   119036683.982       -1917.854          34.000  
G 4  20138617.864   105829148.439        1899.720          41.000  
> 2019  3 22  6 37 25.9900000  0 12                     
G27  17349774.548    91173690.416       -1322.327          50.000  
G 8  17491401.091    91917935.953         912.865          50.000  
G23  18053794.579    94873318.940        -853.677          47.000  
G16  18949116.006    99578275.152       -2189.533          45.000  
G 9  19016208.080    99930852.065         930.405          48.000  
G26  20673158.762   108638160.029       -2429.237          38.000  
G 7  21152032.070   111154649.736        2646.652          38.000  
G11  21457889.487   112761966.533        3102.329          39.000  
G18  21460594.323   112776150.606        2797.913          37.000  
G31  21801811.082   114569264.288       -2770.930          42.000  
G 3  22652109.325   119037642.850       -1917.766          34.000  
G 4  20138437.167   105828198.659        1899.522          41.000  
> 2019  3 22  6 37 26.4900000  0 12                     
G27  17349900.591    91174351.697       -1322.765          49.000  
G 8  17491314.259    91917479.616         912.566          50.000  
G23  18053875.844    94873745.836        -853.842          47.000  
G16  18949324.379    99579369.934       -2189.535          45.000  
G 9  19016119.380    99930386.911         930.086          47.000  
G26  20673389.820   108639374.661       -2429.443          38.000  
G 7  21151780.228   111153326.288        2646.481          38.000  
G11  21457594.107   112760415.424        3102.241          38.000  
G18  21460328.260   112774751.801        2797.468          37.000  
G31  21802074.685   114570649.759       -2770.914          42.000  
G 3  22652291.907   119038601.557       -1917.449          34.000  
G 4  20138256.383   105827248.895        1899.678          41.000  
> 2019  3 22  6 37 26.9900000  0 12                     
G27  17350026.110    91175013.094       -1323.197          49.000  
G 8  17491227.427    91917023.399         912.034          49.000  
G23  18053956.918    94874172.866        -854.511          46.000  
G16  18949532.334    99580464.711       -2189.731          44.000  
G 9  19016030.890    99929921.864         929.799          47.000  
G26  20673620.896   108640589.244       -2429.383          38.000  
G 7  21151528.177   111152002.764        2647.218          38.000  
G11  21457298.745   112758864.253        3102.206          38.000  
G18  21460061.987   112773352.904        2797.518          37.000  
G31  21802338.026   114572035.259       -2771.315          41.000  
G 3  22652474.279   119039560.158       -1917.800          34.000  
G 4  20138075.633   105826299.247        1898.909          40.000  
> 2019  3 22  6 37 27.4900000  0 12                     
G27  17350151.735    91175674.641       -1323.317          50.000  
G 8  17491140.367    91916567.324         911.986          50.000  
G23  18054038.149    94874600.029        -854.369          47.000  
G16  18949740.515    99581559.487       -2189.557          45.000  
G 9  19015942.453    99929456.973         929.694          48.000  
G26  20673851.867   108641803.779       -2428.831          39.000  
G 7  21151276.091   111150679.264        2647.064          39.000  
G11  21457003.400   112757313.062        3102.573          38.000  
G18  21459795.784   112771953.970        2797.926          37.000  
G31  21802601.455   114573420.795       -2771.129          41.000  
G 3  22652656.756   119040518.685       -1917.045          34.000  
G 4  20137894.692   105825349.700        1898.861          40.000  
> 2019  3 22  6 37 27.9900000  0 12                     
G27  17350277.568    91176336.356       -1323.765          49.000  
G 8  17491053.710    91916111.428         911.417          50.000  
G23  18054119.606    94875027.380        -855.123          46.000  
G16  18949948.940    99582654.291       -2189.957          45.000  
G 9  19015854.015    99928992.240         929.101          47.000  
G26  20674082.960   108643018.357       -2429.416          39.000  
G 7  21151024.162   111149355.709        2647.017          38.000  
G11  21456708.195   112755761.899        3101.927          38.000  
G18  21459529.703   112770555.008        2797.544          37.000  
G31  21802865.075   114574806.402       -2771.569          41.000  
G 3  22652839.215   119041477.130       -1916.694          34.000  
G 4  20137713.995   105824400.298        1898.423          40.000  
> 2019  3 22  6 37 28.4900000  0 12                     
G27  17350403.663    91176998.232       -1323.772          49.000  
G 8  17490967.069    91915655.683         911.327          50.000  
G23  18054200.942    94875454.891        -855.175          46.000  
G16  18950157.418    99583749.103       -2189.665          45.000  
G 9  19015765.507    99928527.664         929.047          47.000  
G26  20674314.280   108644232.917       -2429.095          39.000  
G 7  21150772.164   111148032.174        2647.086          38.000  
G11  21456412.885   112754210.709        3102.186          38.000  
G18  21459263.430   112769156.019        2798.100          37.000  
G31  21803128.382   114576192.060       -2771.316          40.000  
G 3  22653021.814   119042435.586       -1917.344          33.000  
G 4  20137533.298   105823451.006        1898.473          40.000  
> 2019  3 22  6 37 28.9900000  0 12                     
G27  17350529.863    91177660.334       -1324.305          50.000  
G 8  17490880.586    91915200.149         911.072          50.000  
G23  18054282.591    94875882.616        -855.509          46.000  
G16  18950365.756    99584843.985       -2189.725          45.000  
G 9  19015677.366    99928063.286         928.655          47.000  
G26  20674545.444   108645447.519       -2429.119          39.000  
G 7  21150520.444   111146708.694        2646.764          38.000  
G11  21456117.766   112752659.547        3102.548          38.000  
G18  21458997.279   112767757.030        2798.260          37.000  
G31  21803391.862   114577577.822       -2771.226          40.000  
G 3  22653204.239   119043393.963       -1916.804          33.000  
G 4  20137352.915   105822501.894        1898.206          40.000  
> 2019  3 22  6 37 29.4900000  0 12                     
G27  17350656.133    91178322.544       -1324.762          50.000  
G 8  17490794.190    91914744.726         910.532          50.000  
G23  18054364.066    94876310.449        -855.974          46.000  
G16  18950574.321    99585938.839       -2189.891          45.000  
G 9  19015589.086    99927599.029         928.217          47.000  
G26  20674776.659   108646662.072       -2429.250          39.000  
G 7  21150268.254   111145385.099        2647.083          38.000  
G11  21455822.579   112751108.363        3102.121          38.000  
G18  21458731.076   112766357.997        2797.765          37.000  
G31  21803655.588   114578963.629       -2771.944          40.000  
G 3  22653386.646   119044352.245       -1917.123          33.000  
G 4  20137172.131   105821552.876        1897.742          40.000  
> 2019  3 22  6 37 29.9900000  0 12                     
G27  17350782.124    91178984.961       -1325.183          50.000  
G 8  17490707.550    91914289.518         909.920          50.000  
G23  18054445.472    94876738.505        -856.608          47.000  
G16  18950782.903    99587033.768       -2190.185          46.000  
G 9  19015500.666    99927134.968         927.781          48.000  
G26  20675008.171   108647876.657       -2429.496          39.000  
G 7  21150016.325   111144061.577        2646.975          40.000  
G11  21455527.461   112749557.200        3102.305          38.000  
G18  21458464.803   112764958.958        2798.054          37.000  
G31  21803919.208   114580349.498       -2771.950          41.000  
G 3  22653568.896   119045310.497       -1917.305          33.000  
G 4  20136991.504   105820604.016        1897.372          40.000  
> 2019  3 22  6 37 30.4900000  0 12                     
G27  17350908.097    91179647.509       -1324.603          50.000  
G 8  17490620.665    91913834.421         910.593          50.000  
G23  18054526.877    94877166.678        -855.917          46.000  
G16  18950991.050    99588128.662       -2189.249          45.000  
G 9  19015412.298    99926671.033         928.212          48.000  
G26  20675239.282   108649091.205       -2428.388          39.000  
G 7  21149764.449   111142737.990        2647.810          38.000  
G11  21455232.325   112748005.998        3103.060          38.000  
G18  21458198.600   112763559.867        2799.071          37.000  
G31  21804182.828   114581735.401       -2771.282          41.000  
G 3  22653751.234   119046268.619       -1915.489          33.000  
G 4  20136811.033   105819655.255        1898.085          41.000  
> 2019  3 22  6 37 30.9900000  0 12                     
G27  17351034.419    91180309.908       -1324.927          49.000  
G 8  17490534.182    91913379.164         910.490          50.000  
G23  18054608.457    94877594.708        -856.100          46.000  
G16  18951199.248    99589223.255       -2189.073          45.000  
G 9  19015324.349    99926206.926         928.160          48.000  
G26  20675470.549   108650305.428       -2428.124          39.000  
G 7  21149512.572   111141414.093        2648.166          38.000  
G11  21454937.102   112746454.473        3103.409          38.000  
G18  21457932.397   112762160.461        2798.954          37.000  
G31  21804446.606   114583121.059       -2771.462          40.000  
G 3  22653933.606   119047226.400       -1915.355          33.000  
G 4  20136630.650   105818706.309        1897.785          40.000  
> 2019  3 22  6 37 31.4900000  0 12                     
G27  17351160.514    91180972.430       -1325.129          49.000  
G 8  17490447.646    91912924.054         909.965          50.000  
G23  18054690.002    94878022.887        -856.655          46.000  
G16  18951407.726    99590317.865       -2189.464          45.000  
G 9  19015236.242    99925742.956         927.750          48.000  
G26  20675701.625   108651519.635       -2428.388          39.000  
G 7  21149260.643   111140090.154        2647.678          39.000  
G11  21454641.810   112744902.943        3102.887          38.000  
G18  21457666.281   112760760.998        2798.509          37.000  
G31  21804710.296   114584506.725       -2771.496          41.000  
G 3  22654115.751   119048184.079       -1914.934          33.000  
G 4  20136450.163   105817757.456        1897.568          41.000  
> 2019  3 22  6 37 31.9900000  0 12                     
G27  17351286.679    91181635.119       -1325.810          49.000  
G 8  17490360.988    91912469.083         909.554          49.000  
G23  18054771.285    94878451.208        -857.134          46.000  
G16  18951615.959    99591412.450       -2189.239          45.000  
G 9  19015147.892    99925279.136         927.312          47.000  
G26  20675932.683   108652733.819       -2428.477          39.000  
G 7  21149008.627   111138766.179        2647.948          39.000  
G11  21454346.587   112743351.365        3102.961          38.000  
G18  21457399.869   112759361.468        2798.755          37.000  
G31  21804973.986   114585892.454       -2771.642          41.000  
G 3  22654298.054   119049141.697       -1914.965          33.000  
G 4  20136269.693   105816808.723        1897.172          40.000  
> 2019  3 22  6 37 32.4900000  0 12                     
G27  17351412.670    91182297.881       -1325.723          48.000  
G 8  17490274.208    91912014.188         909.630          49.000  
G23  18054852.795    94878879.609        -857.081          45.000  
G16  18951824.350    99592506.987       -2189.202          44.000  
G 9  19015059.611    99924815.376         927.418          46.000  
G26  20676163.759   108653947.923       -2428.229          38.000  
G 7  21148756.751   111137442.115        2648.200          38.000  
G11  21454051.347   112741799.701        3103.552          37.000  
G18  21457133.439   112757961.837        2799.360          37.000  
G31  21805237.624   114587278.160       -2771.521          40.000  
G 3  22654480.251   119050099.178       -1914.969          33.000  
G 4  20136089.484   105815860.035        1897.352          40.000  
> 2019  3 22  6 37 32.9900000  0 12                     
G27  17351539.114    91182960.840       -1326.187          48.000  
G 8  17490187.638    91911559.489         909.259          49.000  
G23  18054934.217    94879308.208        -857.439          45.000  
G16  18952032.688    99593601.575       -2189.211          44.000  
G 9  19014971.662    99924351.809         927.113          46.000  
G26  20676395.010   108655162.047       -2428.371          38.000  
G 7  21148504.683   111136118.092        2647.878          38.000  
G11  21453756.071   112740248.083        3103.328          37.000  
G18  21456867.114   112756562.208        2799.448          36.000  
G31  21805501.559   114588663.947       -2771.648          40.000  
G 3  22654662.519   119051056.612       -1914.745          32.000  
G 4  20135908.822   105814911.528        1896.812          40.000  
> 2019  3 22  6 37 33.4900000  0 12                     
G27  17351665.192    91183623.758       -1325.552          50.000  
G 8  17490101.137    91911104.753         909.743          50.000  
G23  18055015.780    94879736.772        -856.957          47.000  
G16  18952240.974    99594695.973       -2188.456          46.000  
G 9  19014883.364    99923888.204         927.583          48.000  
G26  20676625.946   108656375.964       -2427.361          38.000  
G 7  21148252.928   111134793.828        2649.136          40.000  
G11  21453460.814   112738696.256        3104.054          38.000  
G18  21456600.928   112755162.345        2800.068          38.000  
G31  21805765.406   114590049.600       -2771.133          42.000  
G 3  22654844.717   119052013.751       -1913.325          33.000  
G 4  20135728.265   105813962.918        1897.550          41.000  
> 2019  3 22  6 37 33.9900000  0 12                     
G27  17351791.549    91184286.588       -1325.842          50.000  
G 8  17490015.038    91910649.918         909.535          50.000  
G23  18055097.499    94880165.241        -857.109          47.000  
G16  18952449.103    99595790.138       -2188.523          45.000  
G 9  19014795.520    99923424.498         927.274          48.000  
G26  20676857.039   108657589.631       -2427.145          39.000  
G 7  21148001.034   111133469.316        2648.985          39.000  
G11  21453165.486   112737144.165        3104.064          38.000  
G18  21456334.411   112753762.223        2799.860          38.000  
G31  21806029.271   114591435.037       -2771.038          41.000  
G 3  22655027.054   119052970.621       -1913.476          33.000  
G 4  20135547.777   105813014.185        1897.453          41.000  
> 2019  3 22  6 37 34.4900000  0 12                     
G27  17351917.540    91184949.588       -1326.482          49.000  
G 8  17489928.328    91910195.240         909.075          50.000  
G23  18055178.747    94880593.889        -857.674          46.000  
G16  18952657.196    99596884.317       -2188.509          45.000  
G 9  19014707.204    99922960.952         926.764          48.000  
G26  20677088.028   108658803.298       -2427.441          38.000  
G 7  21147749.036   111132144.798        2648.836          39.000  
G11  21452870.141   112735592.082        3103.929          38.000  
G18  21456068.051   112752362.056        2800.103          38.000  
G31  21806293.101   114592820.553       -2771.263          41.000  
G 3  22655209.025   119053927.407       -1913.566          33.000  
G 4  20135367.202   105812065.587        1897.247          41.000  
> 2019  3 22  6 37 34.9900000  0 12                     
G27  17352043.356    91185612.791       -1326.585          49.000  
G 8  17489841.583    91909740.776         908.458          50.000  
G23  18055260.100    94881022.756        -858.290          46.000  
G16  18952865.290    99597978.581       -2188.908          45.000  
G 9  19014618.714    99922497.617         926.241          48.000  
G26  20677319.033   108660017.002       -2427.575          38.000  
G 7  21147496.898   111130820.320        2648.771          39.000  
G11  21452574.849   112734040.029        3104.034          38.000  
G18  21455801.516   112750961.932        2799.978          38.000  
G31  21806556.756   114594206.183       -2771.480          41.000  
G 3  22655391.118   119054884.206       -1914.310          33.000  
G 4  20135186.593   105811117.204        1896.148          41.000  
> 2019  3 22  6 37 35.4900000  0 12                     
G27  17352169.032    91186276.376       -1327.734          49.000  
G 8  17489754.820    91909286.656         907.682          50.000  
G23  18055341.558    94881451.964        -858.977          46.000  
G16  18953073.279    99599073.039       -2189.253          45.000  
G 9  19014530.451    99922034.637         925.360          47.000  
G26  20677550.144   108661230.905       -2428.282          38.000  
G 7  21147244.759   111129496.016        2648.361          39.000  
G11  21452279.434   112732488.178        3103.369          38.000  
G18  21455535.034   112749561.966        2799.783          38.000  
G31  21806820.237   114595592.066       -2772.258          41.000  
G 3  22655573.158   119055841.065       -1913.825          33.000  
G 4  20135005.843   105810169.111        1895.645          41.000  
> 2019  3 22  6 37 35.9900000  0 12                     
G27  17352295.494    91186940.184       -1327.857          50.000  
G 8  17489668.337    91908832.779         907.658          50.000  
G23  18055423.172    94881881.428        -859.048          46.000  
G16  18953281.600    99600167.599       -2188.965          45.000  
G 9  19014442.170    99921571.879         925.523          48.000  
G26  20677781.080   108662444.865       -2427.698          39.000  
G 7  21146992.865   111128171.787        2648.767          39.000  
G11  21451984.124   112730936.405        3103.575          38.000  
G18  21455268.534   112748162.052        2799.819          38.000  
G31  21807083.997   114596978.067       -2771.980          41.000  
G 3  22655755.269   119056797.986       -1914.164          33.000  
G 4  20134825.443   105809221.208        1895.780          40.000  
> 2019  3 22  6 37 36.4900000  0 12                     
G27  17352422.252    91187604.096       -1327.860          50.000  
G 8  17489582.499    91908379.004         907.518          50.000  
G23  18055505.171    94882310.990        -859.135          46.000  
G16  18953489.973    99601262.130       -2188.997          45.000  
G 9  19014354.151    99921109.219         925.342          47.000  
G26  20678012.331   108663658.777       -2427.501          39.000  
G 7  21146741.041   111126847.481        2648.396          40.000  
G11  21451689.128   112729384.576        3103.740          38.000  
G18  21455002.331   112746762.032        2799.967          38.000  
G31  21807347.914   114598364.089       -2772.074          41.000  
G 3  22655937.292   119057754.741       -1912.737          33.000  
G 4  20134644.868   105808273.403        1895.495          40.000  
> 2019  3 22  6 37 36.9900000  0 12                     
G27  17352548.819    91188268.036       -1328.048          50.000  
G 8  17489496.365    91907925.254         907.262          50.000  
G23  18055586.995    94882740.589        -859.408          46.000  
G16  18953698.346    99602356.530       -2188.894          45.000  
G 9  19014266.237    99920646.582         925.109          47.000  
G26  20678243.494   108664872.553       -2427.514          39.000  
G 7  21146489.165   111125522.997        2649.357          39.000  
G11  21451393.905   112727832.588        3103.452          38.000  
G18  21454735.971   112745361.849        2800.464          38.000  
G31  21807611.692   114599750.015       -2772.025          41.000  
G 3  22656119.071   119058711.340       -1913.198          33.000  
G 4  20134464.834   105807325.586        1895.320          40.000  
> 2019  3 22  6 37 37.4900000  0 12                     
G27  17352675.263    91188932.136       -1328.253          49.000  
G 8  17489410.091    91907471.646         907.233          50.000  
G23  18055668.854    94883170.334        -859.491          46.000  
G16  18953906.824    99603450.940       -2188.719          45.000  
G 9  19014178.061    99920184.093         924.863          47.000  
G26  20678474.447   108666086.307       -2427.348          39.000  
G 7  21146237.027   111124198.532        2649.184          39.000  
G11  21451098.613   112726280.575        3104.305          38.000  
G18  21454469.419   112743961.647        2800.880          37.000  
G31  21807875.434   114601135.986       -2771.841          41.000  
G 3  22656301.112   119059667.861       -1912.730          33.000  
G 4  20134284.381   105806377.866        1895.565          40.000  
> 2019  3 22  6 37 37.9900000  0 12                     
G27  17352801.515    91189596.332       -1328.474          50.000  
G 8  17489323.800    91907018.138         906.902          50.000  
G23  18055750.643    94883600.185        -859.870          47.000  
G16  18954115.040    99604545.307       -2188.788          46.000  
G 9  19014089.903    99919721.694         924.625          48.000  
G26  20678705.471   108667299.987       -2427.319          39.000  
G 7  21145985.272   111122874.012        2648.454          40.000  
G11  21450803.355   112724728.518        3103.959          38.000  
G18  21454203.059   112742561.352        2800.278          38.000  
G31  21808139.334   114602521.952       -2771.856          42.000  
G 3  22656483.118   119060624.251       -1912.783          34.000  
G 4  20134104.016   105805430.241        1894.909          40.000  
> 2019  3 22  6 37 38.4900000  0 12                     
G27  17352927.925    91190260.611       -1328.534          50.000  
G 8  17489237.718    91906564.715         906.897          50.000  
G23  18055832.694    94884030.127        -859.886          47.000  
G16  18954323.396    99605639.599       -2188.282          45.000  
G 9  19014001.849    99919259.369         924.883          48.000  
G26  20678936.686   108668513.599       -2427.242          39.000  
G 7  21145733.117   111121549.341        2649.840          39.000  
G11  21450507.958   112723176.343        3104.800          38.000  
G18  21453936.472   112741160.927        2801.001          38.000  
G31  21808403.164   114603907.915       -2771.912          42.000  
G 3  22656665.071   119061580.475       -1912.158          34.000  
G 4  20133923.424   105804482.639        1895.302          40.000  
> 2019  3 22  6 37 38.9900000  0 12                     
G27  17353054.369    91190924.939       -1328.491          50.000  
G 8  17489151.618    91906111.349         906.761          50.000  
G23  18055914.361    94884460.124        -859.994          46.000  
G16  18954531.542    99606733.816       -2188.120          45.000  
G 9  19013913.847    99918797.104         924.738          47.000  
G26  20679167.552   108669727.079       -2426.789          39.000  
G 7  21145481.205   111120224.596        2650.261          39.000  
G11  21450212.648   112721624.072        3104.983          38.000  
G18  21453670.216   112739760.373        2801.578          38.000  
G31  21808666.854   114605293.817       -2771.712          41.000  
G 3  22656846.937   119062536.532       -1911.546          34.000  
G 4  20133743.041   105803535.067        1895.276          40.000  
> 2019  3 22  6 37 39.4900000  0 12                     
G27  17353180.761    91191589.355       -1329.183          50.000  
G 8  17489065.327    91905658.040         906.443          50.000  
G23  18055996.150    94884890.186        -860.385          46.000  
G16  18954739.827    99607827.954       -2188.440          45.000  
G 9  19013825.986    99918334.900         924.094          47.000  
G26  20679398.768   108670940.477       -2427.240          39.000  
G 7  21145229.137   111118899.746        2649.679          39.000  
G11  21449917.442   112720071.749        3104.352          38.000  
G18  21453403.717   112738359.711        2801.538          38.000  
G31  21808930.614   114606679.688       -2771.910          41.000  
G 3  22657028.873   119063492.442       -1911.621          34.000  
G 4  20133562.658   105802587.523        1894.842          40.000  
> 2019  3 22  6 37 39.9900000  0 12                     
G27  17353307.484    91192253.760       -1329.229          50.000  
G 8  17488978.896    91905204.727         906.303          50.000  
G23  18056077.957    94885320.259        -860.454          46.000  
G16  18954947.729    99608921.946       -2188.149          45.000  
G 9  19013738.106    99917872.687         924.069          48.000  
G26  20679629.617   108672153.716       -2426.939          39.000  
G 7  21144976.877   111117574.716        2649.349          39.000  
G11  21449622.028   112718519.223        3104.691          38.000  
G18  21453137.130   112736958.860        2801.619          38.000  
G31  21809194.391   114608065.460       -2771.736          41.000  
G 3  22657210.617   119064448.109       -1910.948          34.000  
G 4  20133382.310   105801639.955        1894.933          40.000  
> 2019  3 22  6 37 40.4900000  0 12                     
G27  17353433.946    91192918.261       -1329.056          50.000  
G 8  17488892.640    91904751.508         906.315          50.000  
G23  18056159.729    94885750.434        -860.470          46.000  
G16  18955155.980    99610015.902       -2187.845          45.000  
G 9  19013650.018    99917410.572         924.299          47.000  
G26  20679860.553   108673366.867       -2426.432          39.000  
G 7  21144724.843   111116249.600        2650.183          39.000  
G11  21449326.543   112716966.619        3105.548          38.000  
G18  21452870.700   112735557.940        2801.763          38.000  
G31  21809458.029   114609451.224       -2771.562          41.000  
G 3  22657392.605   119065403.672       -1910.832          34.000  
G 4  20133201.857   105800692.451        1894.849          40.000  
> 2019  3 22  6 37 40.9900000  0 12                     
G27  17353560.443    91193582.900       -1329.211          50.000  
G 8  17488806.401    91904298.407         906.164          50.000  
G23  18056241.657    94886180.730        -860.567          46.000  
G16  18955363.743    99611109.830       -2187.838          45.000  
G 9  19013562.051    99916948.575         924.011          47.000  
G26  20680091.350   108674579.976       -2425.987          39.000  
G 7  21144472.531   111114924.421        2650.920          39.000  
G11  21449031.338   112715414.004        3105.131          38.000  
G18  21452604.218   112734156.910        2802.501          38.000  
G31  21809721.632   114610837.005       -2771.459          41.000  
G 3  22657574.524   119066359.123       -1910.587          34.000  
G 4  20133021.614   105799745.040        1894.829          40.000  
> 2019  3 22  6 37 41.4900000  0 12                     
G27  17353686.800    91194247.554       -1329.271          50.000  
G 8  17488720.301    91903845.330         906.085          50.000  
G23  18056323.482    94886611.048        -860.654          46.000  
G16  18955571.819    99612203.627       -2187.454          45.000  
G 9  19013473.893    99916486.585         923.927          47.000  
G26  20680322.268   108675792.954       -2425.718          39.000  
G 7  21144220.113   111113599.126        2651.067          39.000  
G11  21448735.975   112713861.206        3105.692          38.000  
G18  21452337.491   112732755.771        2802.562          38.000  
G31  21809985.270   114612222.707       -2771.247          41.000  
G 3  22657756.268   119067314.352       -1910.034          34.000  
G 4  20132841.248   105798797.617        1894.740          40.000  
> 2019  3 22  6 37 41.9900000  0 12                     
G27  17353813.576    91194912.465       -1330.165          50.000  
G 8  17488634.202    91903392.501         905.393          50.000  
G23  18056405.463    94887041.624        -861.447          46.000  
G16  18955780.018    99613297.539       -2187.970          45.000  
G 9  19013386.013    99916024.836         923.320          47.000  
G26  20680553.117   108677006.010       -2426.215          39.000  
G 7  21143967.818   111112273.895        2650.430          39.000  
G11  21448440.700   112712308.530        3105.152          38.000  
G18  21452070.991   112731354.684        2801.801          38.000  
G31  21810248.908   114613608.555       -2771.927          41.000  
G 3  22657937.890   119068269.638       -1910.550          34.000  
G 4  20132661.023   105797850.392        1894.549          40.000  
> 2019  3 22  6 37 42.4900000  0 12                     
G27  17353940.386    91195577.637       -1330.803          50.000  
G 8  17488548.295    91902939.933         904.660          51.000  
G23  18056487.706    94887472.465        -862.251          46.000  
G16  18955988.495    99614391.561       -2188.320          45.000  
G 9  19013298.186    99915563.362         922.417          47.000  
G26  20680784.019   108678219.158       -2426.533          40.000  
G 7  21143715.732   111110948.763        2650.232          39.000  
G11  21448145.408   112710755.918        3105.088          38.000  
G18  21451804.509   112729953.645        2801.285          38.000  
G31  21810512.598   114614994.556       -2772.390          41.000  
G 3  22658119.686   119069224.929       -1910.817          34.000  
G 4  20132480.779   105796903.412        1893.581          40.000  
> 2019  3 22  6 37 42.9900000  0 12                     
G27  17354067.127    91196242.994       -1331.089          50.000  
G 8  17488462.178    91902487.556         904.368          51.000  
G23  18056569.913    94887903.487        -862.405          47.000  
G16  18956196.973    99615485.637       -2188.452          45.000  
G 9  19013210.377    99915102.052         922.255          47.000  
G26  20681015.025   108679432.329       -2426.508          40.000  
G 7  21143463.594   111109623.617        2650.438          39.000  
G11  21447849.993   112709203.339        3105.021          39.000  
G18  21451538.062   112728552.599        2802.067          38.000  
G31  21810776.463   114616380.633       -2772.237          41.000  
G 3  22658301.465   119070180.205       -1910.953          34.000  
G 4  20132300.815   105795956.583        1893.368          40.000  
> 2019  3 22  6 37 43.4900000  0 12                     
G27  17354193.711    91196908.727       -1331.871          50.000  
G 8  17488376.375    91902035.543         903.568          51.000  
G23  18056651.807    94888334.893        -863.321          46.000  
G16  18956405.294    99616579.936       -2189.019          45.000  
G 9  19013122.794    99914641.114         921.535          47.000  
G26  20681246.135   108680645.697       -2426.942          40.000  
G 7  21143211.491   111108298.696        2649.728          39.000  
G11  21447554.788   112707650.957        3104.701          38.000  
G18  21451271.457   112727151.751        2801.587          38.000  
G31  21811040.258   114617766.992       -2773.080          41.000  
G 3  22658483.157   119071135.605       -1910.971          34.000  
G 4  20132120.729   105795010.095        1892.630          40.000  
> 2019  3 22  6 37 43.9900000  0 12                     
G27  17354320.400    91197574.707       -1332.037          51.000  
G 8  17488290.415    91901583.778         903.393          51.000  
G23  18056733.911    94888766.538        -863.344          47.000  
G16  18956613.422    99617674.330       -2188.738          45.000  
G 9  19013035.072    99914180.422         921.258          48.000  
G26  20681477.211   108681859.154       -2426.806          40.000  
G 7  21142959.283   111106973.841        2649.763          39.000  
G11  21447259.495   112706098.682        3104.652          39.000  
G18  21451005.132   112725750.940        2802.105          38.000  
G31  21811304.105   114619153.484       -2772.815          41.000  
G 3  22658664.953   119072091.032       -1910.927          34.000  
G 4  20131940.555   105794063.805        1892.929          41.000  
> 2019  3 22  6 37 44.4900000  0 12                     
G27  17354447.402    91198240.828       -1332.639          51.000  
G 8  17488204.525    91901132.143         902.861          51.000  
G23  18056816.136    94889198.337        -863.933          47.000  
G16  18956821.638    99618768.734       -2188.986          45.000  
G 9  19012947.542    99913719.862         920.743          48.000  
G26  20681708.287   108683072.588       -2427.015          40.000  
G 7  21142707.075   111105648.975        2649.183          39.000  
G11  21446964.115   112704546.359        3104.334          39.000  
G18  21450738.527   112724350.142        2801.204          38.000  
G31  21811567.848   114620540.025       -2773.560          41.000  
G 3  22658846.802   119073046.371       -1911.007          35.000  
G 4  20131760.731   105793117.632        1892.755          41.000  
> 2019  3 22  6 37 44.9900000  0 12                     
G27  17354574.213    91198907.154       -1332.808          50.000  
G 8  17488118.792    91900680.720         902.530          50.000  
G23  18056898.606    94889630.342        -864.262          46.000  
G16  18957029.872    99619863.186       -2188.900          45.000  
G 9  19012860.064    99913259.503         920.497          47.000  
G26  20681939.328   108684286.067       -2427.003          40.000  
G 7  21142454.971   111104324.120        2649.147          39.000  
G11  21446668.875   112702994.079        3104.382          39.000  
G18  21450471.958   112722949.330        2801.438          38.000  
G31  21811831.695   114621926.661       -2773.462          41.000  
G 3  22659028.528   119074001.687       -1910.825          34.000  
G 4  20131580.802   105792171.653        1891.834          41.000  
> 2019  3 22  6 37 45.4900000  0 12                     
G27  17354701.006    91199573.683       -1333.322          51.000  
G 8  17488032.850    91900229.487         902.270          51.000  
G23  18056980.831    94890062.549        -864.719          47.000  
G16  18957238.105    99620957.710       -2189.125          46.000  
G 9  19012772.307    99912799.331         920.247          48.000  
G26  20682170.229   108685499.580       -2427.111          40.000  
G 7  21142203.008   111102999.244        2650.112          39.000  
G11  21446373.513   112701441.816        3104.575          39.000  
G18  21450205.580   112721548.511        2801.450          38.000  
G31  21812095.525   114623313.398       -2773.823          41.000  
G 3  22659210.255   119074956.965       -1910.576          34.000  
G 4  20131400.785   105791225.830        1891.466          41.000  
> 2019  3 22  6 37 45.9900000  0 12                     
G27  17354827.922    91200240.189       -1333.044          50.000  
G 8  17487947.135    91899778.231         902.256          50.000  
G23  18057063.039    94890494.733        -864.589          46.000  
G16  18957446.461    99622052.056       -2188.752          44.000  
G 9  19012684.654    99912339.146         920.094          47.000  
G26  20682401.392   108686712.898       -2426.958          39.000  
G 7  21141950.869   111101674.261        2649.658          39.000  
G11  21446077.941   112699889.396        3104.769          38.000  
G18  21449939.081   112720147.475        2802.061          38.000  
G31  21812359.320   114624700.002       -2773.409          40.000  
G 3  22659391.964   119075912.000       -1909.828          34.000  
G 4  20131220.943   105790279.939        1891.652          40.000  
> 2019  3 22  6 37 46.4900000  0 12                     
G27  17354954.663    91200906.934       -1333.865          50.000  
G 8  17487861.210    91899327.199         901.818          50.000  
G23  18057145.247    94890927.144        -864.998          46.000  
G16  18957654.712    99623146.497       -2189.064          45.000  
G 9  19012596.949    99911879.173         919.677          47.000  
G26  20682632.293   108687926.265       -2427.042          39.000  
G 7  21141698.888   111100349.272        2649.829          39.000  
G11  21445782.439   112698337.030        3104.550          38.000  
G18  21449672.686   112718746.501        2801.722          38.000  
G31  21812623.062   114626086.734       -2773.667          40.000  
G 3  22659573.621   119076867.019       -1909.733          34.000  
G 4  20131040.962   105789334.236        1891.592          40.000  
> 2019  3 22  6 37 46.9900000  0 12                     
G27  17355081.543    91201573.943       -1334.221          50.000  
G 8  17487775.233    91898876.451         901.109          50.000  
G23  18057227.385    94891359.849        -865.764          46.000  
G16  18957862.788    99624241.072       -2189.318          45.000  
G 9  19012509.419    99911419.482         919.036          47.000  
G26  20682863.229   108689139.764       -2427.032          39.000  
G 7  21141446.733   111099024.428        2649.406          39.000  
G11  21445487.233   112696784.773        3104.219          37.000  
G18  21449406.134   112717345.590        2801.813          38.000  
G31  21812886.910   114627473.650       -2774.239          40.000  
G 3  22659755.138   119077822.126       -1909.960          34.000  
G 4  20130861.172   105788388.815        1890.519          40.000  
> 2019  3 22  6 37 47.4900000  0 12                     
G27  17355208.284    91202241.214       -1334.730          50.000  
G 8  17487689.535    91898425.949         900.737          50.000  
G23  18057309.803    94891792.802        -866.257          46.000  
G16  18958070.934    99625335.748       -2189.508          45.000  
G 9  19012421.958    99910960.033         918.630          47.000  
G26  20683093.904   108690353.352       -2427.438          39.000  
G 7  21141194.525   111097699.618        2649.808          39.000  
G11  21445191.801   112695232.597        3104.140          39.000  
G18  21449139.494   112715944.747        2801.885          38.000  
G31  21813150.740   114628860.691       -2774.345          40.000  
G 3  22659936.795   119078777.236       -1909.888          34.000  
G 4  20130681.208   105787443.580        1890.108          41.000  
> 2019  3 22  6 37 47.9900000  0 12                     
G27  17355335.304    91202908.608       -1334.836          50.000  
G 8  17487603.749    91897975.560         900.545          50.000  
G23  18057392.325    94892225.868        -866.346          46.000  
G16  18958279.116    99626430.396       -2189.330          45.000  
G 9  19012334.585    99910500.706         918.405          47.000  
G26  20683324.927   108691566.887       -2427.083          39.000  
G 7  21140942.543   111096374.772        2649.772          39.000  
G11  21444896.317   112693680.378        3104.521          39.000  
G18  21448872.890   112714543.837        2802.028          38.000  
G31  21813414.587   114630247.760       -2774.182          40.000  
G 3  22660118.260   119079732.249       -1909.839          34.000  
G 4  20130501.261   105786498.439        1890.009          40.000  
> 2019  3 22  6 37 48.4900000  0 12                     
G27  17355462.220    91203576.057       -1334.937          50.000  
G 8  17487517.929    91897525.234         900.542          50.000  
G23  18057474.480    94892658.996        -866.177          46.000  
G16  18958487.349    99627524.953       -2189.003          45.000  
G 9  19012247.020    99910041.410         918.564          47.000  
G26  20683555.776   108692780.303       -2426.858          39.000  
G 7  21140690.492   111095049.840        2650.022          39.000  
G11  21444600.867   112692128.038        3104.954          38.000  
G18  21448606.093   112713142.800        2802.408          38.000  
G31  21813678.242   114631634.797       -2774.209          40.000  
G 3  22660300.056   119080687.091       -1909.399          34.000  
G 4  20130321.489   105785553.311        1890.209          40.000  
> 2019  3 22  6 37 48.9900000  0 12                     
G27  17355589.327    91204243.625       -1335.411          50.000  
G 8  17487432.493    91897075.019         900.168          50.000  
G23  18057557.229    94893092.248        -866.749          46.000  
G16  18958695.635    99628619.494       -2189.196          45.000  
G 9  19012159.525    99909582.233         918.162          47.000  
G26  20683786.747   108693993.666       -2426.709          39.000  
G 7  21140438.407   111093724.827        2649.941          39.000  
G11  21444305.435   112690575.651        3104.639          38.000  
G18  21448339.541   112711741.681        2802.011          38.000  
G31  21813942.212   114633021.813       -2774.047          40.000  
G 3  22660481.608   119081641.806       -1909.275          34.000  
G 4  20130141.630   105784608.267        1889.940          40.000  
> 2019  3 22  6 37 49.4900000  0 12                     
G27  17355716.435    91204911.333       -1335.815          50.000  
G 8  17487346.690    91896624.949         899.790          51.000  
G23  18057639.629    94893525.649        -867.208          47.000  
G16  18958903.903    99629714.033       -2189.388          45.000  
G 9  19012072.239    99909123.204         917.742          47.000  
G26  20684017.474   108695207.011       -2426.734          39.000  
G 7  21140186.234   111092399.774        2649.911          39.000  
G11  21444009.985   112689023.249        3104.482          38.000  
G18  21448073.129   112710340.523        2801.929          38.000  
G31  21814205.902   114634408.911       -2774.636          40.000  
G 3  22660663.003   119082596.458       -1909.163          34.000  
G 4  20129961.701   105783663.327        1889.839          40.000  
> 2019  3 22  6 37 49.9900000  0 12                     
G27  17355843.559    91205579.179       -1335.816          50.000  
G 8  17487261.044    91896175.008         899.860          50.000  
G23  18057722.116    94893959.171        -867.118          46.000  
G16  18959112.137    99630808.546       -2188.749          45.000  
G 9  19011984.796    99908664.296         917.744          47.000  
G26  20684248.637   108696420.324       -2426.458          40.000  
G 7  21139934.113   111091074.693        2650.251          39.000  
G11  21443714.553   112687470.808        3105.110          38.000  
G18  21447806.577   112708939.308        2802.695          38.000  
G31  21814469.732   114635796.006       -2774.170          40.000  
G 3  22660844.677   119083550.998       -1908.793          34.000  
G 4  20129781.719   105782718.496        1889.767          40.000  
> 2019  3 22  6 37 50.4900000  0 12                     
G27  17355970.562    91206247.100       -1336.523          50.000  
G 8  17487175.399    91895725.137         899.234          51.000  
G23  18057804.848    94894392.782        -867.803          47.000  
G16  18959320.213    99631903.011       -2189.469          45.000  
G 9  19011897.562    99908205.471         916.863          47.000  
G26  20684479.678   108697633.562       -2426.833          40.000  
G 7  21139681.887   111089749.546        2649.471          40.000  
G11  21443419.034   112685918.278        3104.884          38.000  
G18  21447540.095   112707538.006        2801.906          39.000  
G31  21814733.527   114637183.085       -2774.686          40.000  
G 3  22661025.950   119084505.418       -1909.503          34.000  
G 4  20129601.720   105781773.736        1888.683          41.000  
> 2019  3 22  6 37 50.9900000  0 12                     
G27  17356097.530    91206915.365       -1337.000          50.000  
G 8  17487089.683    91895275.600         898.636          51.000  
G23  18057887.335    94894826.734        -868.346          46.000  
G16  18959528.377    99632997.660       -2189.577          45.000  
G 9  19011810.293    99907746.953         916.616          47.000  
G26  20684710.544   108698846.942       -2426.874          40.000  
G 7  21139429.924   111088424.523        2649.578          40.000  
G11  21443123.444   112684365.930        3104.889          38.000  
G18  21447273.298   112706136.824        2802.123          38.000  
G31  21814997.409   114638570.398       -2774.919          40.000  
G 3  22661207.450   119085459.895       -1908.725          34.000  
G 4  20129421.931   105780829.236        1888.656          40.000  
> 2019  3 22  6 37 51.4900000  0 12                     
G27  17356224.655    91207583.889       -1337.079          50.000  
G 8  17487004.195    91894826.320         898.603          50.000  
G23  18057969.770    94895260.935        -868.285          46.000  
G16  18959736.628    99634092.427       -2189.374          45.000  
G 9  19011722.728    99907288.704         916.579          46.000  
G26  20684941.603   108700060.426       -2426.702          39.000  
G 7  21139177.820   111087099.607        2649.780          40.000  
G11  21442828.134   112682813.673        3105.089          38.000  
G18  21447006.519   112704735.717        2802.305          38.000  
G31  21815261.518   114639957.857       -2774.688          40.000  
G 3  22661389.019   119086414.464       -1909.046          34.000  
G 4  20129241.932   105779884.979        1888.549          40.000  
> 2019  3 22  6 37 51.9900000  0 12                     
G27  17356351.605    91208252.368       -1337.175          50.000  
G 8  17486918.322    91894377.003         898.430          50.000  
G23  18058051.995    94895695.111        -868.486          46.000  
G16  18959944.739    99635187.008       -2189.180          45.000  
G 9  19011635.285    99906830.408         916.335          47.000  
G26  20685172.329   108701273.716       -2426.434          39.000  
G 7  21138925.822   111085774.464        2650.042          40.000  
G11  21442532.685   112681261.226        3104.957          38.000  
G18  21446739.932   112703334.387        2802.600          38.000  
G31  21815525.487   114641345.197       -2774.755          40.000  
G 3  22661570.345   119087368.738       -1908.715          34.000  
G 4  20129062.125   105778940.652        1888.541          40.000  
> 2019  3 22  6 37 52.4900000  0 12                     
G27  17356478.695    91208920.955       -1337.500          50.000  
G 8  17486832.764    91893927.785         898.234          50.000  
G23  18058134.500    94896129.381        -868.703          46.000  
G16  18960153.077    99636281.540       -2188.869          45.000  
G 9  19011547.842    99906372.203         916.221          47.000  
G26  20685403.039   108702486.944       -2426.619          39.000  
G 7  21138673.509   111084449.250        2650.456          38.000  
G11  21442237.253   112679708.694        3105.151          38.000  
G18  21446473.345   112701932.955        2802.761          38.000  
G31  21815789.335   114642732.520       -2774.815          40.000  
G 3  22661751.809   119088322.872       -1908.109          34.000  
G 4  20128882.440   105777996.386        1888.609          40.000  
> 2019  3 22  6 37 52.9900000  0 12                     
G27  17356606.134    91209589.650       -1337.782          50.000  
G 8  17486747.397    91893478.679         897.787          50.000  
G23  18058217.423    94896563.783        -869.242          46.000  
G16  18960361.276    99637376.065       -2189.420          45.000  
G 9  19011460.800    99905914.111         915.810          47.000  
G26  20685633.958   108703700.099       -2426.566          39.000  
G 7  21138421.039   111083123.988        2649.976          39.000  
G11  21441941.751   112678156.116        3104.856          38.000  
G18  21446206.549   112700531.453        2802.853          38.000  
G31  21816053.182   114644119.860       -2775.081          40.000  
G 3  22661933.100   119089276.897       -1907.875          34.000  
G 4  20128702.441   105777052.208        1887.895          40.000  
> 2019  3 22  6 37 53.4900000  0 12                     
G27  17356733.241    91210258.434       -1337.717          50.000  
G 8  17486661.996    91893029.656         897.874          50.000  
G23  18058300.068    94896998.263        -869.176          46.000  
G16  18960569.561    99638470.504       -2188.970          45.000  
G 9  19011373.410    99905456.096         915.903          47.000  
G26  20685864.562   108704913.186       -2426.373          39.000  
G 7  21138168.727   111081798.586        2651.110          39.000  
G11  21441646.388   112676603.469        3105.142          38.000  
G18  21445939.561   112699129.834        2803.234          38.000  
G31  21816316.959   114645507.163       -2774.762          40.000  
G 3  22662114.739   119090230.801       -1907.644          34.000  
G 4  20128522.424   105776108.087        1888.008          40.000  
> 2019  3 22  6 37 53.9900000  0 12                     
G27  17356860.453    91210927.500       -1338.487          49.000  
G 8  17486576.333    91892580.902         897.216          50.000  
G23  18058382.572    94897433.024        -869.943          46.000  
G16  18960777.725    99639565.084       -2189.457          44.000  
G 9  19011286.229    99904998.343         915.366          46.000  
G26  20686095.254   108706126.377       -2426.624          39.000  
G 7  21137916.519   111080473.363        2649.899          39.000  
G11  21441350.799   112675050.899        3104.771          38.000  
G18  21445672.764   112697728.288        2803.094          38.000  
G31  21816580.859   114646894.656       -2775.399          40.000  
G 3  22662296.221   119091184.740       -1907.998          34.000  
G 4  20128342.809   105775164.194        1887.122          40.000  
> 2019  3 22  6 37 54.4900000  0 12                     
G27  17356987.700    91211596.968       -1339.154          50.000  
G 8  17486490.827    91892132.547         896.527          51.000  
G23  18058465.356    94897868.185        -870.538          47.000  
G16  18960985.854    99640659.919       -2189.755          45.000  
G 9  19011199.117    99904541.007         914.474          47.000  
G26  20686325.876   108707339.807       -2427.069          39.000  
G 7  21137664.049   111079148.348        2649.795          39.000  
G11  21441055.297   112673498.587        3104.634          38.000  
G18  21445406.020   112696326.999        2802.419          38.000  
G31  21816844.776   114648282.436       -2775.734          40.000  
G 3  22662477.547   119092138.842       -1908.253          35.000  
G 4  20128163.299   105774220.654        1886.901          40.000  
> 2019  3 22  6 37 54.9900000  0 12                     
G27  17357115.087    91212266.606       -1339.505          50.000  
G 8  17486405.373    91891684.360         896.283          51.000  
G23  18058547.983    94898303.527        -870.879          47.000  
G16  18961194.087    99641754.781       -2189.697          45.000  
G 9  19011112.145    99904083.831         914.168          47.000  
G26  20686556.516   108708553.240       -2427.014          39.000  
G 7  21137411.544   111077823.298        2650.012          39.000  
G11  21440759.778   112671946.263        3104.550          38.000  
G18  21445139.067   112694925.668        2802.345          38.000  
G31  21817108.763   114649670.290       -2775.630          40.000  
G 3  22662658.924   119093092.906       -1908.386          35.000  
G 4  20127983.649   105773277.306        1886.146          40.000  
> 2019  3 22  6 37 55.4900000  0 12                     
G27  17357242.648    91212936.403       -1340.018          49.000  
G 8  17486320.739    91891236.334         895.548          50.000  
G23  18058631.151    94898739.027        -871.515          45.000  
G16  18961402.792    99642849.669       -2190.132          44.000  
G 9  19011025.400    99903626.810         913.496          46.000  
G26  20686787.661   108709766.663       -2426.996          39.000  
G 7  21137159.546   111076498.248        2649.977          39.000  
G11  21440464.485   112670393.956        3104.021          38.000  
G18  21444872.689   112693524.314        2802.438          38.000  
G31  21817373.012   114651058.198       -2776.328          40.000  
G 3  22662840.406   119094046.861       -1907.906          34.000  
G 4  20127804.261   105772334.020        1886.410          39.000  
> 2019  3 22  6 37 55.9900000  0 12                     
G27  17357370.192    91213606.358       -1340.148          49.000  
G 8  17486235.460    91890788.444         895.634          49.000  
G23  18058714.284    94899174.680        -871.589          46.000  
G16  18961611.235    99643944.544       -2189.670          44.000  
G 9  19010938.411    99903169.921         913.603          46.000  
G26  20687018.475   108710980.082       -2427.094          38.000  
G 7  21136907.285   111075173.178        2650.386          37.000  
G11  21440169.140   112668841.632        3104.312          38.000  
G18  21444606.015   112692122.916        2802.692          38.000  
G31  21817637.226   114652446.153       -2776.023          39.000  
G 3  22663021.697   119095000.774       -1907.344          34.000  
G 4  20127624.855   105771390.893        1886.128          39.000  
> 2019  3 22  6 37 56.4900000  0 12                     
G27  17357497.857    91214276.392       -1340.436          51.000  
G 8  17486150.390    91890340.637         895.335          52.000  
G23  18058797.102    94899610.415        -871.805          47.000  
G16  18961819.677    99645039.386       -2190.067          46.000  
G 9  19010851.439    99902713.116         913.356          48.000  
G26  20687249.464   108712193.412       -2426.880          41.000  
G 7  21136655.130   111073848.020        2650.189          40.000  
G11  21439873.708   112667289.186        3104.845          39.000  
G18  21444339.445   112690721.414        2802.937          39.000  
G31  21817901.544   114653834.072       -2775.897          41.000  
G 3  22663203.144   119095954.572       -1908.063          36.000  
G 4  20127445.257   105770447.806        1885.702          41.000  
> 2019  3 22  6 37 56.9900000  0 12                     
G27  17357625.576    91214946.668       -1341.077          51.000  
G 8  17486065.600    91889893.067         894.632          51.000  
G23  18058880.113    94900046.398        -872.350          47.000  
G16  18962028.190    99646134.289       -2190.058          46.000  
G 9  19010764.764    99902256.552         912.684          48.000  
G26  20687480.417   108713406.811       -2427.094          40.000  
G 7  21136402.957   111072522.949        2649.558          39.000  
G11  21439578.433   112665736.842        3104.174          38.000  
G18  21444072.911   112689319.982        2802.090          39.000  
G31  21818165.950   114655222.160       -2776.550          41.000  
G 3  22663384.487   119096908.326       -1907.600          36.000  
G 4  20127265.886   105769504.908        1885.475          41.000  
> 2019  3 22  6 37 57.4900000  0 12                     
G27  17357753.346    91215617.270       -1341.419          51.000  
G 8  17485980.792    91889445.821         894.318          52.000  
G23  18058963.246    94900482.718        -872.835          47.000  
G16  18962236.581    99647229.394       -2190.095          46.000  
G 9  19010678.001    99901800.304         912.398          48.000  
G26  20687711.423   108714620.372       -2427.081          40.000  
G 7  21136150.818   111071197.982        2650.186          39.000  
G11  21439283.210   112664184.654        3104.376          39.000  
G18  21443806.184   112687918.622        2802.932          40.000  
G31  21818430.338   114656610.458       -2776.830          41.000  
G 3  22663566.039   119097862.193       -1907.390          36.000  
G 4  20127086.690   105768562.317        1885.459          41.000  
> 2019  3 22  6 37 57.9900000  0 12                     
G27  17357880.872    91216288.223       -1342.128          51.000  
G 8  17485895.617    91888998.933         893.511          52.000  
G23  18059046.344    94900919.380        -873.539          48.000  
G16  18962445.146    99648324.709       -2190.717          46.000  
G 9  19010591.291    99901344.411         911.422          48.000  
G26  20687942.517   108715834.112       -2427.686          40.000  
G 7  21135898.506   111069873.243        2649.426          39.000  
G11  21438987.917   112662632.658        3103.722          39.000  
G18  21443539.789   112686517.497        2801.896          40.000  
G31  21818694.552   114657999.010       -2777.557          42.000  
G 3  22663747.504   119098816.202       -1908.057          36.000  
G 4  20126907.424   105767620.064        1884.343          41.000  
> 2019  3 22  6 37 58.4900000  0 12                     
G27  17358008.730    91216959.384       -1342.371          51.000  
G 8  17485810.408    91888552.236         893.316          51.000  
G23  18059129.494    94901356.263        -874.074          47.000  
G16  18962653.588    99649420.081       -2190.754          46.000  
G 9  19010504.755    99900888.695         911.367          48.000  
G26  20688173.523   108717047.889       -2427.393          40.000  
G 7  21135646.577   111068548.519        2649.218          39.000  
G11  21438692.346   112661080.720        3103.464          39.000  
G18  21443273.150   112685116.373        2802.073          39.000  
G31  21818958.835   114659387.626       -2777.310          42.000  
G 3  22663929.230   119099770.188       -1908.154          36.000  
G 4  20126728.140   105766677.959        1884.046          40.000  
> 2019  3 22  6 37 58.9900000  0 12                     
G27  17358136.413    91217630.578       -1342.600          51.000  
G 8  17485725.547    91888105.576         893.082          51.000  
G23  18059212.662    94901793.152        -873.989          47.000  
G16  18962862.171    99650515.329       -2190.450          46.000  
G 9  19010418.202    99900433.018         911.175          48.000  
G26  20688404.197   108718261.543       -2427.234          40.000  
G 7  21135394.508   111067223.650        2649.491          39.000  
G11  21438397.035   112659528.595        3104.435          38.000  
G18  21443006.790   112683715.062        2802.416          39.000  
G31  21819223.311   114660776.188       -2777.157          41.000  
G 3  22664110.503   119100723.953       -1907.569          36.000  
G 4  20126548.525   105765735.853        1884.179          41.000  
> 2019  3 22  6 37 59.4900000  0 12                     
G27  17358264.184    91218301.726       -1342.327          50.000  
G 8  17485640.425    91887658.862         893.538          51.000  
G23  18059295.725    94902230.011        -873.563          47.000  
G16  18963070.369    99651610.401       -2190.090          45.000  
G 9  19010331.579    99899977.294         911.392          48.000  
G26  20688635.081   108719474.968       -2426.477          40.000  
G 7  21135142.370   111065898.540        2650.760          39.000  
G11  21438101.725   112657976.294        3104.707          39.000  
G18  21442740.028   112682313.542        2803.311          39.000  
G31  21819487.490   114662164.610       -2776.720          41.000  
G 3  22664291.985   119101677.499       -1907.354          36.000  
G 4  20126369.277   105764793.684        1884.203          40.000  
> 2019  3 22  6 37 59.9900000  0 12                     
G27  17358392.007    91218973.060       -1342.929          50.000  
G 8  17485555.739    91887212.343         892.723          51.000  
G23  18059378.927    94902667.083        -874.662          47.000  
G16  18963278.900    99652705.512       -2190.412          45.000  
G 9  19010244.922    99899521.757         910.714          48.000  
G26  20688865.825   108720688.440       -2427.399          39.000  
G 7  21134890.215   111064573.477        2650.029          39.000  
G11  21437806.346   112656423.999        3104.736          39.000  
G18  21442473.546   112680912.026        2802.959          39.000  
G31  21819751.895   114663553.119       -2777.037          41.000  
G 3  22664473.537   119102630.937       -1906.673          36.000  
G 4  20126189.941   105763851.669        1883.638          40.000  
> 2019  3 22  6 38  0.4900000  0 12                     
G27  17358519.637    91219644.621       -1343.448          50.000  
G 8  17485470.774    91886766.036         892.252          51.000  
G23  18059462.113    94903104.352        -874.954          47.000  
G16  18963487.238    99653800.698       -2190.706          45.000  
G 9  19010158.299    99899066.428         910.235          48.000  
G26  20689096.988   108721901.960       -2427.179          39.000  
G 7  21134638.268   111063248.444        2650.012          39.000  
G11  21437510.687   112654871.800        3104.098          39.000  
G18  21442206.837   112679510.523        2802.967          39.000  
G31  21820016.126   114664941.751       -2777.553          41.000  
G 3  22664654.967   119103584.393       -1906.774          36.000  
G 4  20126010.797   105762909.816        1883.207          40.000  
> 2019  3 22  6 38  0.9900000  0 12                     
G27  17358647.652    91220316.366       -1344.027          51.000  
G 8  17485386.245    91886319.913         891.825          51.000  
G23  18059545.368    94903541.812        -875.285          47.000  
G16  18963695.681    99654895.924       -2190.746          45.000  
G 9  19010071.903    99898611.274         909.994          48.000  
G26  20689328.116   108723115.493       -2427.228          39.000  
G 7  21134386.287   111061923.453        2649.924          39.000  
G11  21437215.342   112653319.587        3104.105          39.000  
G18  21441940.302   112678109.031        2802.893          39.000  
G31  21820280.462   114666330.452       -2777.744          41.000  
G 3  22664836.572   119104537.834       -1906.612          36.000  
G 4  20125831.670   105761968.139        1882.760          40.000  
> 2019  3 22  6 38  1.4900000  0 12                     
G27  17358775.318    91220988.260       -1344.115          50.000  
G 8  17485301.019    91885873.923         891.789          51.000  
G23  18059628.588    94903979.426        -875.420          47.000  
G16  18963904.141    99655991.149       -2190.568          45.000  
G 9  19009985.419    99898156.261         909.805          47.000  
G26  20689559.052   108724329.024       -2427.142          39.000  
G 7  21134134.062   111060598.422        2649.830          39.000  
G11  21436920.032   112651767.348        3104.484          39.000  
G18  21441673.663   112676707.492        2803.375          39.000  
G31  21820544.781   114667719.192       -2777.808          41.000  
G 3  22665017.827   119105491.188       -1906.599          35.000  
G 4  20125652.561   105761026.560        1882.653          40.000  
> 2019  3 22  6 38  1.9900000  0 12                     
G27  17358903.298    91221660.183       -1344.019          50.000  
G 8  17485216.245    91885427.976         891.937          51.000  
G23  18059711.790    94904417.069        -875.252          46.000  
G16  18964112.479    99657086.261       -2189.795          45.000  
G 9  19009898.779    99897701.279         909.957          47.000  
G26  20689789.901   108725542.379       -2426.416          39.000  
G 7  21133881.976   111059273.238        2650.114          39.000  
G11  21436624.599   112650214.959        3105.281          38.000  
G18  21441407.111   112675305.841        2803.408          38.000  
G31  21820809.204   114669107.840       -2777.188          41.000  
G 3  22665199.414   119106444.350       -1906.445          35.000  
G 4  20125473.470   105760084.986        1883.125          40.000  
> 2019  3 22  6 38  2.4900000  0 12                     
G27  17359031.016    91222332.107       -1344.194          50.000  
G 8  17485131.577    91884982.014         891.667          50.000  
G23  18059795.220    94904854.703        -875.440          46.000  
G16  18964321.027    99658181.230       -2190.059          45.000  
G 9  19009812.086    99897246.285         909.748          47.000  
G26  20690020.628   108726755.575       -2426.404          38.000  
G 7  21133629.785   111057947.885        2650.377          40.000  
G11  21436329.167   112648662.449        3104.581          38.000  
G18  21441140.541   112673903.955        2803.578          38.000  
G31  21821073.802   114670496.402       -2777.394          41.000  
G 3  22665380.774   119107397.243       -1906.132          35.000  
G 4  20125294.343   105759143.364        1883.294          40.000  
> 2019  3 22  6 38  2.9900000  0 12                     
G27  17359158.909    91223004.075       -1343.673          49.000  
G 8  17485046.490    91884536.112         892.036          50.000  
G23  18059878.632    94905292.403        -875.223          46.000  
G16  18964529.504    99659276.114       -2189.356          44.000  
G 9  19009725.568    99896791.348         909.803          47.000  
G26  20690251.477   108727968.685       -2426.025          38.000  
G 7  21133377.542   111056622.413        2651.171          38.000  
G11  21436033.526   112647109.789        3105.648          38.000  
G18  21440873.919   112672501.956        2804.114          38.000  
G31  21821338.103   114671884.919       -2776.812          41.000  
G 3  22665561.977   119108349.961       -1904.642          35.000  
G 4  20125115.025   105758201.796        1882.832          40.000  
> 2019  3 22  6 38  3.4900000  0 12                     
G27  17359286.749    91223675.975       -1343.831          50.000  
G 8  17484961.472    91884090.128         892.067          50.000  
G23  18059961.887    94905730.033        -875.404          46.000  
G16  18964737.668    99660370.758       -2188.906          44.000  
G 9  19009638.876    99896336.318         910.024          47.000  
G26  20690482.012   108729181.516       -2425.568          38.000  
G 7  21133125.177   111055296.652        2651.726          38.000  
G11  21435738.059   112645556.908        3105.846          38.000  
G18  21440606.966   112671099.657        2804.741          38.000  
G31  21821602.456   114673273.248       -2776.767          41.000  
G 3  22665742.971   119109302.400       -1904.401          35.000  
G 4  20124935.741   105757260.078        1883.007          40.000  
> 2019  3 22  6 38  3.9900000  0 12                     
G27  17359414.816    91224347.919       -1343.954          50.000  
G 8  17484877.100    91883644.190         891.758          50.000  
G23  18060045.351    94906167.700        -875.459          46.000  
G16  18964945.867    99661465.324       -2189.131          45.000  
G 9  19009552.462    99895881.328         909.918          47.000  
G26  20690712.739   108730394.254       -2425.525          39.000  
G 7  21132872.935   111053970.815        2651.658          38.000  
G11  21435442.644   112644003.900        3105.894          38.000  
G18  21440340.082   112669697.232        2804.965          38.000  
G31  21821866.792   114674661.515       -2776.652          41.000  
G 3  22665924.191   119110254.666       -1904.748          36.000  
G 4  20124756.702   105756318.378        1883.246          40.000  
> 2019  3 22  6 38  4.4900000  0 12                     
G27  17359543.093    91225020.045       -1344.997          50.000  
G 8  17484792.327    91883198.421         890.906          50.000  
G23  18060128.885    94906605.557        -876.411          46.000  
G16  18965154.327    99662559.908       -2189.662          45.000  
G 9  19009466.066    99895426.516         909.066          47.000  
G26  20690943.500   108731606.991       -2425.995          39.000  
G 7  21132620.639   111052644.966        2651.264          39.000  
G11  21435147.142   112642450.879        3105.625          38.000  
G18  21440073.495   112668294.767        2804.648          38.000  
G31  21822131.128   114676049.854       -2777.278          41.000  
G 3  22666105.447   119111206.842       -1904.412          35.000  
G 4  20124577.558   105755376.836        1882.385          40.000  
> 2019  3 22  6 38  4.9900000  0 12                     
G27  17359671.038    91225692.310       -1344.504          50.000  
G 8  17484707.502    91882752.802         891.286          50.000  
G23  18060212.158    94907043.551        -876.042          46.000  
G16  18965362.403    99663654.509       -2189.079          45.000  
G 9  19009379.722    99894971.850         909.284          47.000  
G26  20691174.105   108732819.700       -2425.110          39.000  
G 7  21132368.361   111051319.047        2652.880          39.000  
G11  21434851.675   112640897.878        3106.315          38.000  
G18  21439806.594   112666892.267        2805.720          38.000  
G31  21822395.446   114677438.234       -2776.751          41.000  
G 3  22666286.528   119112158.974       -1903.657          36.000  
G 4  20124398.746   105754435.392        1883.196          40.000  
> 2019  3 22  6 38  5.4900000  0 12                     
G27  17359798.913    91226364.645       -1344.702          50.000  
G 8  17484622.851    91882307.234         891.119          50.000  
G23  18060295.360    94907481.606        -876.156          46.000  
G16  18965570.864    99664749.009       -2188.907          45.000  
G 9  19009293.257    99894517.230         909.235          47.000  
G26  20691404.954   108734032.331       -2425.159          39.000  
G 7  21132116.119   111049993.104        2652.179          39.000  
G11  21434556.312   112639344.772        3106.019          38.000  
G18  21439539.658   112665489.654        2805.642          38.000  
G31  21822659.974   114678826.578       -2776.687          41.000  
G 3  22666467.766   119113110.938       -1903.714          36.000  
G 4  20124219.654   105753493.977        1883.318          40.000  
> 2019  3 22  6 38  5.9900000  0 12                     
G27  17359926.736    91227037.163       -1345.490          49.000  
G 8  17484538.025    91881861.859         890.366          50.000  
G23  18060378.668    94907919.853        -876.775          46.000  
G16  18965779.202    99665843.561       -2189.439          44.000  
G 9  19009206.738    99894062.785         908.617          47.000  
G26  20691635.471   108735244.949       -2425.403          39.000  
G 7  21131863.963   111048667.120        2652.056          38.000  
G11  21434260.549   112637791.660        3105.804          38.000  
G18  21439272.687   112664087.046        2805.034          38.000  
G31  21822924.170   114680215.001       -2777.124          41.000  
G 3  22666649.039   119114062.851       -1903.910          35.000  
G 4  20124040.441   105752552.741        1881.999          40.000  
> 2019  3 22  6 38  6.4900000  0 12                     
G27  17360054.803    91227709.923       -1345.512          50.000  
G 8  17484453.322    91881416.731         890.254          51.000  
G23  18060462.254    94908358.362        -877.127          47.000  
G16  18965987.767    99666938.211       -2189.162          45.000  
G 9  19009120.238    99893608.595         908.463          47.000  
G26  20691866.285   108736457.687       -2425.610          39.000  
G 7  21131611.772   111047341.218        2652.663          39.000  
G11  21433965.204   112636238.653        3105.888          38.000  
G18  21439005.699   112662684.493        2805.284          38.000  
G31  21823188.367   114681603.581       -2777.235          41.000  
G 3  22666830.242   119115014.785       -1903.479          36.000  
G 4  20123861.366   105751611.704        1881.919          40.000  
> 2019  3 22  6 38  6.9900000  0 12                     
G27  17360182.905    91228382.719       -1345.296          49.000  
G 8  17484368.566    91880971.631         890.418          50.000  
G23  18060545.684    94908796.882        -876.750          46.000  
G16  18966196.227    99668032.748       -2188.782          44.000  
G 9  19009033.859    99893154.431         908.470          46.000  
G26  20692097.082   108737670.257       -2424.854          38.000  
G 7  21131359.739   111046015.181        2652.782          38.000  
G11  21433669.859   112634685.450        3107.026          37.000  
G18  21438738.676   112661281.761        2806.366          38.000  
G31  21823452.650   114682992.063       -2776.628          40.000  
G 3  22667011.497   119115966.517       -1903.063          35.000  
G 4  20123682.589   105750670.664        1882.057          39.000  
> 2019  3 22  6 38  7.4900000  0 12                     
G27  17360311.042    91229055.528       -1345.427          49.000  
G 8  17484284.194    91880526.525         890.451          50.000  
G23  18060629.166    94909235.418        -876.873          45.000  
G16  18966404.426    99669127.139       -2188.496          43.000  
G 9  19008947.550    99892700.265         908.535          46.000  
G26  20692327.739   108738882.677       -2424.866          38.000  
G 7  21131107.391   111044688.957        2652.840          38.000  
G11  21433374.444   112633132.142        3107.059          37.000  
G18  21438471.757   112659878.908        2806.006          37.000  
G31  21823716.864   114684380.453       -2776.565          40.000  
G 3  22667192.857   119116918.022       -1902.404          35.000  
G 4  20123503.654   105749729.565        1882.664          39.000  
> 2019  3 22  6 38  7.9900000  0 12                     
G27  17360439.214    91229728.367       -1345.584          49.000  
G 8  17484199.823    91880081.459         890.284          50.000  
G23  18060712.787    94909673.997        -877.080          46.000  
G16  18966612.938    99670221.427       -2188.256          44.000  
G 9  19008861.451    99892246.120         908.410          46.000  
G26  20692558.361   108740094.950       -2424.390          38.000  
G 7  21130855.079   111043362.632        2652.969          38.000  
G11  21433078.855   112631578.700        3107.292          37.000  
G18  21438204.664   112658475.841        2806.487          37.000  
G31  21823981.095   114685768.788       -2776.517          40.000  
G 3  22667373.973   119117869.334       -1902.043          35.000  
G 4  20123324.615   105748788.524        1882.093          39.000  
> 2019  3 22  6 38  8.4900000  0 12                     
G27  17360567.281    91230401.129       -1345.610          49.000  
G 8  17484115.189    91879636.316         890.173          50.000  
G23  18060796.478    94910112.500        -877.058          46.000  
G16  18966821.224    99671315.509       -2188.250          44.000  
G 9  19008775.107    99891791.904         908.347          46.000  
G26  20692789.001   108741307.006       -2424.109          37.000  
G 7  21130602.539   111042036.040        2652.891          38.000  
G11  21432783.300   112630025.030        3106.980          37.000  
G18  21437937.554   112657072.554        2806.476          37.000  
G31  21824245.274   114687156.953       -2776.605          40.000  
G 3  22667555.159   119118820.368       -1902.366          35.000  
G 4  20123145.768   105747847.341        1882.233          39.000  
> 2019  3 22  6 38  8.9900000  0 12                     
G27  17360695.313    91231074.059       -1346.056          49.000  
G 8  17484030.451    91879191.331         889.770          49.000  
G23  18060879.803    94910551.176        -877.632          45.000  
G16  18967029.335    99672409.588       -2188.225          44.000  
G 9  19008688.502    99891337.829         907.954          46.000  
G26  20693019.448   108742519.029       -2423.981          37.000  
G 7  21130350.017   111040709.441        2652.448          38.000  
G11  21432487.519   112628471.321        3107.034          37.000  
G18  21437670.688   112655669.192        2806.860          37.000  
G31  21824509.296   114688545.152       -2776.711          40.000  
G 3  22667736.222   119119771.322       -1902.359          35.000  
G 4  20122966.519   105746906.300        1881.636          39.000  
> 2019  3 22  6 38  9.4900000  0 12                     
G27  17360823.485    91231747.162       -1346.283          49.000  
G 8  17483945.765    91878746.514         889.656          50.000  
G23  18060963.320    94910990.023        -877.774          46.000  
G16  18967237.621    99673503.705       -2188.155          44.000  
G 9  19008602.088    99890883.933         907.793          46.000  
G26  20693249.948   108743731.089       -2423.816          37.000  
G 7  21130097.408   111039382.808        2653.618          38.000  
G11  21432191.930   112626917.628        3107.483          37.000  
G18  21437403.612   112654265.860        2806.740          37.000  
G31  21824773.352   114689933.415       -2776.461          40.000  
G 3  22667917.320   119120722.238       -1902.465          35.000  
G 4  20122787.340   105745965.378        1881.901          39.000  
> 2019  3 22  6 38  9.9900000  0 12                     
G27  17360951.692    91232420.357       -1346.708          49.000  
G 8  17483861.219    91878301.788         889.146          50.000  
G23  18061047.046    94911428.962        -878.275          45.000  
G16  18967445.942    99674597.762       -2188.287          44.000  
G 9  19008515.919    99890430.128         907.280          46.000  
G26  20693480.692   108744943.058       -2424.017          37.000  
G 7  21129845.060   111038056.142        2653.140          38.000  
G11  21431896.428   112625363.848        3107.461          37.000  
G18  21437136.484   112652862.416        2806.573          37.000  
G31  21825037.619   114691321.689       -2777.061          40.000  
G 3  22668098.401   119121672.970       -1901.857          34.000  
G 4  20122608.493   105745024.516        1881.528          39.000  
> 2019  3 22  6 38 10.4900000  0 12                     
G27  17361079.881    91233093.808       -1347.081          50.000  
G 8  17483776.463    91877857.312         888.789          50.000  
G23  18061130.685    94911868.157        -878.552          46.000  
G16  18967654.367    99675691.929       -2188.116          44.000  
G 9  19008429.541    99889976.567         906.884          46.000  
G26  20693711.349   108746155.115       -2424.011          38.000  
G 7  21129592.608   111036729.522        2653.337          38.000  
G11  21431600.804   112623810.192        3107.396          37.000  
G18  21436869.461   112651459.059        2806.155          37.000  
G31  21825301.989   114692710.103       -2776.944          40.000  
G 3  22668279.395   119122623.777       -1901.771          35.000  
G 4  20122429.436   105744083.887        1881.457          40.000  
> 2019  3 22  6 38 10.9900000  0 12                     
G27  17361207.913    91233767.410       -1347.527          49.000  
G 8  17483691.812    91877412.978         888.420          50.000  
G23  18061214.306    94912307.501        -879.018          46.000  
G16  18967862.827    99676786.119       -2188.615          44.000  
G 9  19008343.162    99889523.139         906.600          46.000  
G26  20693941.849   108747367.158       -2424.127          38.000  
G 7  21129340.312   111035402.878        2653.727          39.000  
G11  21431305.354   112622256.490        3107.074          37.000  
G18  21436602.403   112650055.607        2806.734          37.000  
G31  21825565.976   114694098.551       -2776.912          39.000  
G 3  22668460.197   119123574.462       -1901.532          35.000  
G 4  20122250.467   105743143.393        1880.408          40.000  
> 2019  3 22  6 38 11.4900000  0 12                     
G27  17361336.015    91234441.188       -1347.899          49.000  
G 8  17483607.108    91876968.825         888.017          50.000  
G23  18061297.736    94912747.021        -879.231          46.000  
G16  18968070.956    99677880.329       -2188.666          44.000  
G 9  19008256.731    99889069.901         906.243          46.000  
G26  20694172.576   108748579.214       -2424.048          38.000  
G 7  21129087.843   111034076.281        2653.128          38.000  
G11  21431009.625   112620702.823        3106.742          37.000  
G18  21436335.380   112648652.184        2806.492          37.000  
G31  21825830.033   114695487.098       -2777.319          39.000  
G 3  22668641.120   119124525.108       -1901.048          35.000  
G 4  20122071.777   105742203.016        1880.296          40.000  
> 2019  3 22  6 38 11.9900000  0 12                     
G27  17361464.170    91235115.231       -1348.543          49.000  
G 8  17483522.527    91876524.949         887.313          49.000  
G23  18061381.532    94913186.819        -879.996          46.000  
G16  18968279.207    99678974.652       -2188.856          44.000  
G 9  19008170.597    99888616.917         905.458          46.000  
G26  20694403.093   108749791.369       -2424.518          38.000  
G 7  21128835.303   111032749.747        2652.547          38.000  
G11  21430713.984   112619149.240        3106.786          37.000  
G18  21436068.269   112647248.805        2806.513          37.000  
G31  21826094.090   114696875.782       -2777.675          39.000  
G 3  22668822.079   119125475.803       -1901.343          34.000  
G 4  20121892.685   105741262.874        1879.864          40.000  
> 2019  3 22  6 38 12.4900000  0 12                     
G27  17361592.219    91235789.554       -1348.983          49.000  
G 8  17483438.051    91876081.342         887.019          50.000  
G23  18061464.926    94913626.896        -880.494          46.000  
G16  18968487.318    99680069.116       -2189.210          44.000  
G 9  19008084.253    99888164.202         905.219          47.000  
G26  20694633.698   108751003.619       -2424.585          38.000  
G 7  21128582.746   111031423.291        2652.518          38.000  
G11  21430418.325   112617595.781        3106.647          37.000  
G18  21435801.281   112645845.529        2806.855          37.000  
G31  21826358.251   114698264.652       -2777.692          39.000  
G 3  22669002.933   119126426.547       -1901.157          34.000  
G 4  20121713.890   105740322.974        1879.507          40.000  
> 2019  3 22  6 38 12.9900000  0 12                     
G27  17361720.705    91236464.001       -1349.241          49.000  
G 8  17483353.888    91875637.869         886.582          50.000  
G23  18061548.722    94914067.104        -880.922          46.000  
G16  18968695.430    99681163.567       -2189.233          44.000  
G 9  19007998.171    99887711.622         904.773          46.000  
G26  20694864.337   108752215.872       -2424.689          38.000  
G 7  21128330.329   111030096.802        2653.492          38.000  
G11  21430122.666   112616042.258        3106.946          37.000  
G18  21435534.327   112644442.194        2806.880          37.000  
G31  21826622.360   114699653.560       -2778.164          39.000  
G 3  22669183.787   119127377.217       -1902.002          34.000  
G 4  20121535.078   105739383.189        1879.346          40.000  
> 2019  3 22  6 38 13.4900000  0 12                     
G27  17361849.156    91237138.845       -1349.879          49.000  
G 8  17483269.534    91875194.764         886.041          50.000  
G23  18061632.658    94914507.692        -881.349          46.000  
G16  18968903.873    99682258.260       -2189.458          44.000  
G 9  19007912.124    99887259.408         904.236          46.000  
G26  20695095.082   108753428.296       -2424.805          38.000  
G 7  21128078.051   111028770.583        2652.031          38.000  
G11  21429827.146   112614488.967        3106.772          37.000  
G18  21435267.426   112643039.085        2806.312          37.000  
G31  21826886.539   114701042.747       -2778.621          39.000  
G 3  22669364.798   119128328.015       -1901.795          34.000  
G 4  20121356.440   105738443.734        1878.984          40.000  
> 2019  3 22  6 38 13.9900000  0 12                     
G27  17361977.677    91237813.916       -1350.392          50.000  
G 8  17483185.110    91874751.901         885.528          50.000  
G23  18061716.646    94914948.533        -881.927          46.000  
G16  18969112.054    99683353.045       -2189.704          44.000  
G 9  19007825.972    99886807.433         903.714          46.000  
G26  20695325.669   108754640.814       -2424.854          38.000  
G 7  21127825.651   111027444.360        2652.399          38.000  
G11  21429531.679   112612935.746        3106.800          37.000  
G18  21435000.560   112641635.980        2806.392          37.000  
G31  21827150.770   114702432.052       -2778.737          39.000  
G 3  22669545.757   119129278.813       -1901.311          34.000  
G 4  20121177.697   105737504.489        1878.409          40.000  
> 2019  3 22  6 38 14.4900000  0 12                     
G27  17362106.303    91238489.103       -1350.647          49.000  
G 8  17483100.947    91874309.148         885.220          50.000  
G23  18061800.721    94915389.472        -882.004          46.000  
G16  18969320.462    99684447.793       -2189.547          44.000  
G 9  19007740.048    99886355.558         903.675          46.000  
G26  20695556.396   108755853.280       -2424.805          38.000  
G 7  21127573.356   111026118.101        2652.512          38.000  
G11  21429235.985   112611382.504        3106.326          38.000  
G18  21434733.624   112640232.814        2806.746          37.000  
G31  21827414.914   114703821.371       -2778.597          39.000  
G 3  22669726.786   119130229.514       -1901.292          34.000  
G 4  20120998.920   105736565.340        1878.272          40.000  
> 2019  3 22  6 38 14.9900000  0 12                     
G27  17362234.719    91239164.528       -1351.116          49.000  
G 8  17483016.680    91873866.614         884.923          50.000  
G23  18061884.691    94915830.659        -882.618          46.000  
G16  18969528.713    99685542.630       -2189.725          44.000  
G 9  19007653.966    99885903.923         903.066          46.000  
G26  20695787.000   108757065.820       -2425.439          38.000  
G 7  21127320.991   111024791.905        2652.304          38.000  
G11  21428940.344   112609829.305        3106.288          37.000  
G18  21434466.636   112638829.700        2806.639          37.000  
G31  21827679.233   114705210.818       -2778.847          39.000  
G 3  22669907.640   119131180.229       -1901.664          34.000  
G 4  20120820.230   105735626.386        1877.505          40.000  
> 2019  3 22  6 38 15.4900000  0 12                     
G27  17362363.310    91239840.130       -1351.447          50.000  
G 8  17482932.413    91873424.264         884.506          50.000  
G23  18061968.627    94916272.019        -882.838          46.000  
G16  18969736.963    99686637.504       -2189.761          44.000  
G 9  19007568.041    99885452.460         902.698          46.000  
G26  20696017.675   108758278.347       -2424.951          38.000  
G 7  21127068.573   111023465.715        2652.565          39.000  
G11  21428644.615   112608276.114        3106.387          38.000  
G18  21434199.595   112637426.598        2806.275          37.000  
G31  21827943.446   114706600.353       -2779.106          39.000  
G 3  22670088.389   119132130.871       -1901.129          34.000  
G 4  20120641.487   105734687.560        1877.471          40.000  
> 2019  3 22  6 38 15.9900000  0 12                     
G27  17362492.005    91240515.876       -1351.620          50.000  
G 8  17482848.356    91872982.056         884.140          50.000  
G23  18062052.493    94916713.538        -883.208          46.000  
G16  18969945.302    99687732.379       -2189.808          44.000  
G 9  19007482.273    99885001.136         902.379          46.000  
G26  20696248.401   108759490.876       -2424.927          38.000  
G 7  21126816.069   111022139.525        2652.293          39.000  
G11  21428348.781   112606722.924        3106.219          37.000  
G18  21433932.485   112636023.417        2806.151          37.000  
G31  21828207.712   114707989.914       -2779.265          39.000  
G 3  22670269.086   119133081.459       -1901.112          34.000  
G 4  20120463.041   105733748.860        1877.549          40.000  
> 2019  3 22  6 38 16.4900000  0 12                     
G27  17362620.613    91241191.805       -1352.201          50.000  
G 8  17482764.315    91872540.012         883.953          50.000  
G23  18062136.481    94917155.232        -883.616          46.000  
G16  18970153.727    99688827.286       -2189.889          44.000  
G 9  19007396.470    99884549.975         902.059          46.000  
G26  20696478.919   108760703.404       -2425.079          38.000  
G 7  21126563.634   111020813.273        2652.821          39.000  
G11  21428053.314   112605169.715        3106.370          37.000  
G18  21433665.514   112634620.237        2806.067          37.000  
G31  21828472.345   114709379.562       -2779.542          39.000  
G 3  22670449.958   119134031.948       -1900.564          34.000  
G 4  20120284.630   105732810.322        1876.781          40.000  
> 2019  3 22  6 38 16.9900000  0 12                     
G27  17362749.239    91241867.791       -1351.917          49.000  
G 8  17482680.345    91872098.039         884.101          50.000  
G23  18062220.626    94917596.994        -883.475          46.000  
G16  18970362.083    99689922.125       -2189.478          44.000  
G 9  19007310.842    99884098.890         902.168          47.000  
G26  20696709.855   108761915.830       -2424.475          38.000  
G 7  21126311.234   111019486.992        2652.836          39.000  
G11  21427757.742   112603616.445        3106.608          37.000  
G18  21433398.351   112633216.925        2806.797          37.000  
G31  21828736.820   114710769.159       -2779.107          39.000  
G 3  22670630.969   119134982.343       -1900.796          34.000  
G 4  20120106.114   105731871.786        1877.343          40.000  
> 2019  3 22  6 38 17.4900000  0 12                     
G27  17362878.143    91242543.746       -1352.152          50.000  
G 8  17482596.287    91871656.012         884.040          50.000  
G23  18062304.858    94918038.713        -883.586          46.000  
G16  18970570.491    99691016.762       -2189.334          44.000  
G 9  19007225.074    99883647.737         902.095          47.000  
G26  20696940.704   108763128.077       -2424.756          38.000  
G 7  21126059.008   111018160.435        2653.305          39.000  
G11  21427461.996   112602062.934        3106.981          37.000  
G18  21433131.380   112631813.389        2807.449          37.000  
G31  21829001.086   114712158.616       -2778.872          40.000  
G 3  22670811.823   119135932.424       -1900.437          34.000  
G 4  20119927.581   105730933.183        1877.122          40.000  
> 2019  3 22  6 38 17.9900000  0 12                     
G27  17363006.752    91243219.910       -1352.526          50.000  
G 8  17482512.090    91871214.205         883.453          49.000  
G23  18062389.125    94918480.647        -884.157          46.000  
G16  18970778.933    99692111.475       -2189.588          44.000  
G 9  19007139.149    99883196.805         901.684          46.000  
G26  20697171.343   108764340.335       -2424.664          38.000  
G 7  21125806.678   111016833.975        2652.440          39.000  
G11  21427166.355   112600509.489        3106.886          37.000  
G18  21432864.374   112630409.896        2807.213          37.000  
G31  21829265.667   114713548.181       -2779.194          40.000  
G 3  22670992.590   119136882.486       -1900.298          34.000  
G 4  20119749.031   105729994.762        1876.655          40.000  
> 2019  3 22  6 38 18.4900000  0 12                     
G27  17363135.726    91243896.355       -1353.140          50.000  
G 8  17482428.242    91870772.671         882.792          50.000  
G23  18062473.322    94918922.867        -884.777          46.000  
G16  18970987.272    99693206.315       -2189.850          44.000  
G 9  19007053.574    99882746.149         901.036          47.000  
G26  20697402.192   108765552.715       -2424.750          38.000  
G 7  21125554.313   111015507.575        2652.869          39.000  
G11  21426870.713   112598956.146        3106.812          37.000  
G18  21432597.560   112629006.505        2806.636          37.000  
G31  21829530.334   114714937.923       -2779.590          40.000  
G 3  22671173.304   119137832.611       -1899.999          34.000  
G 4  20119570.497   105729056.584        1876.556          40.000  
> 2019  3 22  6 38 18.9900000  0 12                     
G27  17363264.666    91244573.069       -1353.921          50.000  
G 8  17482344.201    91870331.401         882.224          50.000  
G23  18062557.554    94919365.338        -885.216          47.000  
G16  18971195.679    99694301.286       -2190.201          44.000  
G 9  19006967.998    99882295.752         900.450          47.000  
G26  20697632.797   108766765.197       -2424.994          38.000  
G 7  21125301.931   111014181.268        2652.148          39.000  
G11  21426575.106   112597402.921        3106.041          37.000  
G18  21432330.328   112627603.163        2806.421          37.000  
G31  21829794.914   114716327.819       -2779.883          40.000  
G 3  22671354.368   119138782.789       -1900.326          34.000  
G 4  20119392.086   105728118.670        1875.281          40.000  
> 2019  3 22  6 38 19.4900000  0 12                     
G27  17363393.431    91245250.032       -1354.000          50.000  
G 8  17482260.231    91869890.383         882.105          50.000  
G23  18062642.066    94919808.080        -885.361          47.000  
G16  18971404.018    99695396.363       -2189.984          44.000  
G 9  19006882.369    99881845.612         900.251          47.000  
G26  20697863.594   108767977.771       -2424.957          38.000  
G 7  21125049.670   111012855.048        2652.815          39.000  
G11  21426279.587   112595849.756        3106.499          37.000  
G18  21432063.270   112626199.893        2806.251          37.000  
G31  21830059.495   114717717.882       -2780.124          40.000  
G 3  22671535.396   119139733.004       -1900.565          35.000  
G 4  20119213.571   105727180.942        1875.278          40.000  
> 2019  3 22  6 38 19.9900000  0 12                     
G27  17363522.231    91245926.958       -1353.608          50.000  
G 8  17482175.981    91869449.325         882.265          50.000  
G23  18062726.193    94920250.785        -885.173          46.000  
G16  18971612.251    99696491.260       -2189.562          45.000  
G 9  19006796.706    99881395.410         900.581          47.000  
G26  20698094.268   108769190.135       -2424.402          37.000  
G 7  21124797.201   111011528.624        2653.353          39.000  
G11  21425983.998   112594296.409        3107.124          37.000  
G18  21431796.002   112624796.352        2807.725          37.000  
G31  21830324.127   114719107.789       -2779.531          40.000  
G 3  22671716.198   119140682.902       -1899.529          34.000  
G 4  20119035.125   105726243.132        1876.003          40.000  
> 2019  3 22  6 38 20.4900000  0 12                     
G27  17363651.206    91246603.954       -1354.272          50.000  
G 8  17482092.081    91869008.321         881.706          50.000  
G23  18062810.600    94920693.563        -886.033          46.000  
G16  18971820.676    99697586.069       -2189.849          45.000  
G 9  19006710.799    99880945.265         900.050          47.000  
G26  20698325.012   108770402.385       -2424.658          37.000  
G 7  21124544.905   111010202.078        2653.293          38.000  
G11  21425688.356   112592742.960        3106.838          37.000  
G18  21431528.874   112623392.754        2806.969          37.000  
G31  21830588.795   114720497.655       -2779.917          40.000  
G 3  22671896.808   119141632.651       -1899.481          34.000  
G 4  20118856.714   105725305.382        1875.110          41.000  
> 2019  3 22  6 38 20.9900000  0 12                     
G27  17363780.075    91247281.153       -1354.815          50.000  
G 8  17482008.302    91868567.538         881.317          49.000  
G23  18062894.937    94921136.537        -886.351          46.000  
G16  18972029.119    99698680.942       -2189.907          44.000  
G 9  19006625.188    99880495.336         899.608          46.000  
G26  20698555.791   108771614.681       -2424.530          38.000  
G 7  21124292.610   111008875.584        2653.004          38.000  
G11  21425392.749   112591189.526        3106.906          37.000  
G18  21431261.851   112621989.157        2806.959          37.000  
G31  21830853.514   114721887.630       -2780.203          40.000  
G 3  22672077.522   119142582.379       -1898.925          34.000  
G 4  20118678.512   105724367.797        1874.877          39.000  
> 2019  3 22  6 38 21.4900000  0 12                     
G27  17363909.120    91247958.546       -1355.048          50.000  
G 8  17481924.646    91868126.948         880.877          50.000  
G23  18062979.466    94921579.706        -886.675          46.000  
G16  18972237.527    99699775.873       -2190.120          44.000  
G 9  19006539.734    99880045.587         899.201          46.000  
G26  20698786.466   108772827.016       -2424.640          37.000  
G 7  21124040.123   111007549.120        2652.321          38.000  
G11  21425097.055   112589636.156        3106.855          37.000  
G18  21430994.671   112620585.539        2807.652          37.000  
G31  21831118.199   114723277.694       -2780.189          40.000  
G 3  22672258.202   119143532.086       -1899.025          34.000  
G 4  20118500.293   105723430.356        1874.901          40.000  
> 2019  3 22  6 38 21.9900000  0 12                     
G27  17364038.251    91248636.167       -1355.606          50.000  
G 8  17481840.745    91867686.591         880.414          50.000  
G23  18063064.047    94922023.113        -887.281          46.000  
G16  18972446.040    99700870.883       -2190.106          44.000  
G 9  19006454.159    99879596.073         898.827          46.000  
G26  20699017.193   108774039.403       -2424.695          38.000  
G 7  21123787.950   111006222.703        2652.692          38.000  
G11  21424801.553   112588082.846        3106.572          37.000  
G18  21430727.543   112619182.003        2806.853          37.000  
G31  21831382.919   114724667.881       -2780.600          40.000  
G 3  22672439.108   119144481.822       -1899.418          34.000  
G 4  20118322.196   105722493.143        1874.068          40.000  
> 2019  3 22  6 38 22.4900000  0 12                     
G27  17364167.278    91249313.964       -1355.806          50.000  
G 8  17481756.984    91867246.389         880.310          49.000  
G23  18063148.611    94922466.682        -887.377          46.000  
G16  18972654.204    99701965.914       -2190.140          44.000  
G 9  19006368.722    99879146.714         898.470          46.000  
G26  20699247.885   108775251.814       -2424.683          37.000  
G 7  21123535.498   111004896.258        2653.232          38.000  
G11  21424505.912   112586529.517        3106.687          37.000  
G18  21430460.659   112617778.424        2806.901          37.000  
G31  21831647.464   114726058.130       -2780.657          40.000  
G 3  22672619.875   119145431.480       -1899.565          34.000  
G 4  20118144.169   105721556.034        1873.950          40.000  
> 2019  3 22  6 38 22.9900000  0 12                     
G27  17364296.375    91249991.806       -1355.738          50.000  
G 8  17481673.258    91866806.251         880.248          50.000  
G23  18063233.000    94922910.313        -887.342          47.000  
G16  18972862.681    99703060.856       -2189.781          45.000  
G 9  19006283.408    99878697.400         898.624          46.000  
G26  20699478.594   108776464.099       -2424.432          37.000  
G 7  21123283.202   111003569.755        2653.236          38.000  
G11  21424210.462   112584976.099        3106.727          37.000  
G18  21430193.636   112616374.707        2807.737          37.000  
G31  21831912.289   114727448.325       -2780.316          41.000  
G 3  22672800.624   119146380.908       -1898.065          34.000  
G 4  20117966.020   105720618.957        1874.382          40.000  
> 2019  3 22  6 38 23.4900000  0 12                     
G27  17364425.454    91250669.734       -1356.096          50.000  
G 8  17481589.532    91866366.185         879.936          50.000  
G23  18063317.581    94923354.029        -887.661          47.000  
G16  18973071.124    99704155.736       -2189.883          45.000  
G 9  19006198.077    99878248.168         898.290          46.000  
G26  20699709.443   108777676.283       -2424.377          38.000  
G 7  21123030.698   111002243.096        2653.398          38.000  
G11  21423915.082   112583422.576        3107.147          38.000  
G18  21429926.700   112614970.913        2807.329          37.000  
G31  21832177.113   114728838.507       -2780.547          41.000  
G 3  22672981.391   119147330.273       -1898.760          34.000  
G 4  20117787.748   105719681.950        1873.616          40.000  
> 2019  3 22  6 38 23.9900000  0 12                     
G27  17364554.534    91251347.830       -1356.687          50.000  
G 8  17481506.189    91865926.294         879.301          50.000  
G23  18063401.953    94923797.931        -888.444          46.000  
G16  18973279.462    99705250.636       -2190.028          44.000  
G 9  19006112.588    99877799.085         897.853          46.000  
G26  20699940.257   108778888.487       -2424.664          38.000  
G 7  21122778.350   111000916.449        2653.340          38.000  
G11  21423619.441   112581869.064        3106.902          37.000  
G18  21429659.659   112613567.078        2807.113          37.000  
G31  21832441.886   114730228.753       -2781.024          41.000  
G 3  22673161.861   119148279.519       -1898.739          34.000  
G 4  20117609.494   105718745.050        1873.423          40.000  
> 2019  3 22  6 38 24.4900000  0 12                     
G27  17364683.403    91252026.256       -1356.956          50.000  
G 8  17481422.236    91865486.729         878.980          50.000  
G23  18063486.360    94924242.148        -888.690          46.000  
G16  18973487.766    99706345.730       -2190.065          44.000  
G 9  19006027.222    99877350.353         897.378          46.000  
G26  20700170.966   108780100.847       -2424.835          38.000  
G 7  21122525.845   110999589.994        2653.175          38.000  
G11  21423323.817   112580315.735        3106.598          37.000  
G18  21429392.741   112612163.362        2807.344          37.000  
G31  21832706.570   114731619.223       -2781.008          41.000  
G 3  22673342.610   119149228.903       -1898.517          35.000  
G 4  20117431.205   105717808.476        1872.537          40.000  
> 2019  3 22  6 38 24.9900000  0 12                     
G27  17364812.500    91252704.998       -1358.005          50.000  
G 8  17481338.406    91865047.472         878.152          50.000  
G23  18063570.714    94924686.682        -889.619          46.000  
G16  18973696.034    99707440.984       -2190.832          44.000  
G 9  19005941.942    99876901.916         896.260          46.000  
G26  20700401.501   108781313.371       -2425.598          38.000  
G 7  21122273.445   110998263.653        2652.022          39.000  
G11  21423028.088   112578762.493        3106.226          37.000  
G18  21429125.578   112610759.801        2806.934          37.000  
G31  21832971.360   114733009.899       -2781.733          41.000  
G 3  22673523.412   119150178.361       -1899.471          35.000  
G 4  20117253.109   105716872.139        1872.239          40.000  
> 2019  3 22  6 38 25.4900000  0 13                     
G27  17364941.579    91253383.916       -1357.904          50.000  
G 8  17481254.435    91864608.399         878.069          49.000  
G23  18063655.400    94925131.397        -889.681          46.000  
G16  18973904.215    99708536.274       -2190.503          44.000  
G 9  19005856.332    99876453.646         896.397          46.000  
G26  20700632.245   108782525.868       -2424.817          38.000  
G 7  21122021.150   110996937.315        2652.386          38.000  
G11  21422732.673   112577209.337        3106.189          37.000  
G18  21428858.450   112609356.225        2807.400          37.000  
G31  21833236.185   114734400.637       -2781.521          41.000  
G 3  22673704.196   119151127.755       -1898.726          35.000  
G 4  20117074.959   105715935.985        1872.150          40.000  
G21  23403188.370                3      -2044.831          21.000  
> 2019  3 22  6 38 25.9900000  0 13                     
G27  17365070.432    91254062.903       -1357.809          50.000  
G 8  17481170.796    91864169.393         878.200          50.000  
G23  18063739.859    94925576.185        -889.490          46.000  
G16  18974112.518    99709631.495       -2190.205          44.000  
G 9  19005770.930    99876005.443         896.571          46.000  
G26  20700862.955   108783738.317       -2424.707          38.000  
G 7  21121768.646   110995610.880        2653.043          38.000  
G11  21422437.154   112575656.052        3106.614          37.000  
G18  21428591.217   112607952.546        2807.634          36.000  
G31  21833500.835   114735791.366       -2781.402          41.000  
G 3  22673884.981   119152076.988       -1898.113          35.000  
G 4  20116896.670   105714999.846        1872.396          40.000  
G21  23403358.370                3      -2044.831          21.000  
> 2019  3 22  6 38 26.4900000  0 13                     
G27  17365199.563    91254741.813       -1357.909          50.000  
G 8  17481086.983    91863730.299         878.151          49.000  
G23  18063824.091    94926020.889        -889.391          46.000  
G16  18974320.577    99710726.484       -2189.704          44.000  
G 9  19005685.564    99875557.163         896.473          46.000  
G26  20701093.454   108784950.495       -2424.414          38.000  
G 7  21121516.211   110994284.188        2653.001          38.000  
G11  21422141.477   112574102.520        3107.091          37.000  
G18  21428323.932   112606548.564        2807.952          36.000  
G31  21833765.327   114737181.892       -2781.109          41.000  
G 3  22674065.486   119153025.947       -1897.502          34.000  
G 4  20116718.137   105714063.601        1872.509          40.000  
G21  23403530.412                3      -2044.831          20.000  
> 2019  3 22  6 38 26.9900000  0 13                     
G27  17365328.625    91255420.796       -1358.001          50.000  
G 8  17481003.396    91863291.270         877.935          49.000  
G23  18063908.760    94926465.684        -889.779          46.000  
G16  18974529.003    99711821.413       -2189.985          44.000  
G 9  19005600.180    99875108.952         896.116          46.000  
G26  20701323.885   108786162.564       -2424.164          38.000  
G 7  21121263.689   110992957.389        2654.042          38.000  
G11  21421845.783   112572548.896        3107.251          37.000  
G18  21428056.525   112605144.484        2808.073          37.000  
G31  21834029.855   114738572.402       -2781.075          41.000  
G 3  22674246.287   119153974.727       -1897.334          35.000  
G 4  20116539.813   105713127.407        1872.215          40.000  
G21  23403722.312                3      -2044.831          19.000  
> 2019  3 22  6 38 27.4900000  0 13                     
G27  17365458.141    91256100.062       -1359.009          50.000  
G 8  17480920.054    91862852.515         876.998          49.000  
G23  18063993.515    94926910.744        -890.682          46.000  
G16  18974737.184    99712916.458       -2190.458          44.000  
G 9  19005515.040    99874661.013         895.296          46.000  
G26  20701554.367   108787374.767       -2424.805          38.000  
G 7  21121011.184   110991630.705        2653.103          38.000  
G11  21421550.246   112570995.403        3106.323          37.000  
G18  21427789.310   112603740.485        2807.493          37.000  
G31  21834294.505   114739963.058       -2781.796          41.000  
G 3  22674427.072   119154923.573       -1898.096          35.000  
G 4  20116361.769   105712191.441        1871.411          40.000  
G21  23403918.696                3      -2044.831          18.000  
> 2019  3 22  6 38 27.9900000  0 13                     
G27  17365587.639    91256779.595       -1359.251          50.000  
G 8  17480836.660    91862414.027         876.761          50.000  
G23  18064078.358    94927356.075        -890.971          46.000  
G16  18974945.644    99714011.633       -2190.452          45.000  
G 9  19005429.953    99874213.324         895.241          46.000  
G26  20701785.129   108788587.049       -2424.414          38.000  
G 7  21120758.801   110990304.136        2652.930          38.000  
G11  21421254.570   112569441.995        3106.622          38.000  
G18  21427521.990   112602336.539        2807.853          37.000  
G31  21834559.243   114741353.899       -2781.698          41.000  
G 3  22674607.681   119155872.434       -1897.706          35.000  
G 4  20116183.637   105711255.716        1871.360          40.000  
G21  23404093.565                3      -2044.831          18.000  
> 2019  3 22  6 38 28.4900000  0 13                     
G27  17365716.997    91257459.213       -1359.470          50.000  
G 8  17480753.056    91861975.620         876.715          49.000  
G23  18064163.044    94927801.492        -890.938          46.000  
G16  18975153.912    99715106.759       -2190.277          44.000  
G 9  19005344.813    99873765.718         895.123          46.000  
G26  20702015.541   108789799.260       -2424.133          38.000  
G 7  21120506.471   110988977.441        2653.421          39.000  
G11  21420959.085   112567888.511        3106.805          38.000  
G18  21427254.949   112600932.491        2808.020          37.000  
G31  21834823.997   114742744.723       -2781.760          41.000  
G 3  22674787.995   119156821.162       -1897.541          35.000  
G 4  20116005.435   105710320.057        1871.048          40.000  
G21  23404272.011                3      -2044.831          17.000  
> 2019  3 22  6 38 28.9900000  0 13                     
G27  17365846.373    91258138.916       -1359.578          50.000  
G 8  17480669.574    91861537.304         876.340          49.000  
G23  18064247.940    94928247.002        -891.307          46.000  
G16  18975362.355    99716201.813       -2190.276          44.000  
G 9  19005259.726    99873318.201         894.865          46.000  
G26  20702246.129   108791011.408       -2424.152          37.000  
G 7  21120254.176   110987650.696        2653.156          39.000  
G11  21420663.583   112566334.928        3106.949          38.000  
G18  21426987.769   112599528.381        2808.228          37.000  
G31  21835088.752   114744135.521       -2781.865          41.000  
G 3  22674968.377   119157769.751       -1897.187          35.000  
G 4  20115827.408   105709384.432        1870.772          40.000  
G21  23404457.018                3      -2044.831          16.000  
> 2019  3 22  6 38 29.4900000  0 13                     
G27  17365975.732    91258818.690       -1359.940          50.000  
G 8  17480586.319    91861099.052         876.174          49.000  
G23  18064332.608    94928692.590        -891.582          46.000  
G16  18975570.763    99717296.798       -2190.193          44.000  
G 9  19005174.534    99872870.748         894.503          46.000  
G26  20702476.820   108792223.458       -2424.249          37.000  
G 7  21120001.741   110986323.820        2653.394          39.000  
G11  21420368.116   112564781.286        3106.998          38.000  
G18  21426720.536   112598124.164        2808.301          37.000  
G31  21835353.419   114745526.292       -2781.731          41.000  
G 3  22675149.092   119158718.172       -1896.771          35.000  
G 4  20115649.381   105708448.851        1870.892          40.000  
G21  23404650.506                3      -2044.831          14.000  
> 2019  3 22  6 38 29.9900000  0 13                     
G27  17366105.282    91259498.565       -1359.928          50.000  
G 8  17480503.099    91860660.893         876.226          49.000  
G23  18064417.643    94929138.275        -891.432          46.000  
G16  18975779.258    99718391.737       -2189.971          44.000  
G 9  19005089.429    99872423.386         894.733          46.000  
G26  20702707.425   108793435.441       -2424.121          37.000  
G 7  21119749.324   110984996.880        2653.920          39.000  
G11  21420072.387   112563227.555        3107.288          38.000  
G18  21426453.321   112596719.835        2808.497          37.000  
G31  21835618.192   114746917.062       -2781.540          41.000  
G 3  22675329.702   119159666.464       -1896.171          35.000  
G 4  20115471.406   105707513.338        1870.884          40.000  
G21  23404844.046                3      -2044.831          12.000  
> 2019  3 22  6 38 30.4900000  0 13                     
G27  17366234.763    91260178.550       -1360.258          50.000  
G 8  17480419.861    91860222.832         875.938          50.000  
G23  18064502.346    94929584.061        -891.722          46.000  
G16  18975987.666    99719486.634       -2189.891          44.000  
G 9  19005004.255    99871976.128         894.420          46.000  
G26  20702937.855   108794647.342       -2423.846          37.000  
G 7  21119496.871   110983669.870        2654.081          39.000  
G11  21419776.781   112561673.755        3107.751          38.000  
G18  21426185.932   112595315.406        2809.271          37.000  
G31  21835882.894   114748307.830       -2781.479          41.000  
G 3  22675510.311   119160614.670       -1896.797          35.000  
G 4  20115293.571   105706577.898        1870.689          40.000  
G21  23405040.571                3      -2044.831          11.000  
> 2019  3 22  6 38 30.9900000  0 12                     
G27  17366363.947    91260858.595       -1360.151          50.000  
G 8  17480336.292    91859784.846         875.872          49.000  
G23  18064587.032    94930029.932        -891.815          46.000  
G16  18976195.987    99720581.473       -2189.677          44.000  
G 9  19004919.255    99871528.949         894.286          46.000  
G26  20703168.582   108795859.175       -2423.822          37.000  
G 7  21119244.437   110982342.787        2653.940          39.000  
G11  21419481.279   112560119.884        3108.081          38.000  
G18  21425918.507   112593910.881        2809.431          37.000  
G31  21836147.649   114749698.566       -2781.324          41.000  
G 3  22675690.712   119161562.696       -1895.781          35.000  
G 4  20115115.335   105705642.499        1870.607          40.000  
> 2019  3 22  6 38 31.4900000  0 12                     
G27  17366493.323    91261538.736       -1360.298          50.000  
G 8  17480252.967    91859346.926         875.928          49.000  
G23  18064672.032    94930475.886        -891.878          46.000  
G16  18976404.116    99721676.253       -2189.477          44.000  
G 9  19004834.011    99871081.851         894.047          46.000  
G26  20703399.344   108797070.914       -2423.694          37.000  
G 7  21118991.949   110981015.588        2654.610          39.000  
G11  21419185.358   112558565.938        3108.029          38.000  
G18  21425651.013   112592506.263        2808.998          37.000  
G31  21836412.316   114751089.274       -2781.145          40.000  
G 3  22675870.990   119162510.580       -1895.478          35.000  
G 4  20114937.447   105704707.152        1870.691          40.000  
> 2019  3 22  6 38 31.9900000  0 12                     
G27  17366622.733    91262218.998       -1360.784          50.000  
G 8  17480169.642    91858909.152         875.241          50.000  
G23  18064756.875    94930921.975        -892.419          46.000  
G16  18976612.245    99722770.997       -2189.715          44.000  
G 9  19004748.923    99870634.859         893.655          46.000  
G26  20703629.809   108798282.597       -2423.407          38.000  
G 7  21118739.288   110979688.353        2654.135          40.000  
G11  21418889.664   112557011.955        3107.445          38.000  
G18  21425383.588   112591101.585        2809.098          37.000  
G31  21836676.704   114752480.021       -2781.750          41.000  
G 3  22676051.216   119163458.363       -1895.725          35.000  
G 4  20114759.333   105703771.898        1870.115          40.000  
> 2019  3 22  6 38 32.4900000  0 12                     
G27  17366752.284    91262899.559       -1361.497          50.000  
G 8  17480085.969    91858471.657         874.552          50.000  
G23  18064841.840    94931368.353        -893.174          47.000  
G16  18976820.408    99723865.893       -2190.026          45.000  
G 9  19004663.801    99870188.148         893.040          47.000  
G26  20703860.396   108799494.420       -2423.792          38.000  
G 7  21118486.591   110978361.227        2654.010          39.000  
G11  21418594.197   112555458.071        3107.479          38.000  
G18  21425116.303   112589696.973        2809.032          37.000  
G31  21836941.180   114753870.950       -2782.177          41.000  
G 3  22676231.564   119164406.201       -1895.452          35.000  
G 4  20114581.341   105702836.897        1869.686          40.000  
> 2019  3 22  6 38 32.9900000  0 12                     
G27  17366881.625    91263580.267       -1361.467          50.000  
G 8  17480002.731    91858034.314         874.653          50.000  
G23  18064926.683    94931814.882        -893.073          46.000  
G16  18977028.572    99724960.805       -2189.664          44.000  
G 9  19004578.801    99869741.588         893.264          46.000  
G26  20704091.053   108800706.236       -2423.438          38.000  
G 7  21118234.121   110977034.086        2654.518          39.000  
G11  21418298.555   112553904.186        3108.081          38.000  
G18  21424848.931   112588292.357        2809.508          38.000  
G31  21837205.725   114755261.931       -2781.875          40.000  
G 3  22676411.912   119165353.963       -1895.262          34.000  
G 4  20114403.558   105701902.034        1869.698          40.000  
> 2019  3 22  6 38 33.4900000  0 13                     
G27  17367011.018    91264261.126       -1361.518          49.000  
G 8  17479919.249    91857597.127         874.507          49.000  
G23  18065011.578    94932261.564        -893.351          46.000  
G16  18977236.735    99726055.710       -2189.414          44.000  
G 9  19004493.749    99869295.180         892.977          46.000  
G26  20704321.815   108801918.024       -2423.407          38.000  
G 7  21117981.687   110975706.920        2654.908          39.000  
G11  21418002.914   112552350.303        3107.920          38.000  
G18  21424581.750   112586887.670        2810.076          37.000  
G31  21837470.428   114756652.956       -2781.889          40.000  
G 3  22676592.155   119166301.654       -1895.022          34.000  
G 4  20114225.496   105700967.285        1869.511          40.000  
G21  23406217.065                3      -2044.831          11.000  
> 2019  3 22  6 38 33.9900000  0 12                     
G27  17367140.481    91264941.966       -1361.925          50.000  
G 8  17479836.099    91857159.918         874.241          49.000  
G23  18065096.596    94932708.230        -893.588          46.000  
G16  18977444.934    99727150.459       -2189.575          44.000  
G 9  19004408.801    99868848.737         892.853          47.000  
G26  20704552.524   108803129.618       -2423.163          38.000  
G 7  21117729.077   110974379.573        2654.440          40.000  
G11  21417707.167   112550796.204        3108.456          38.000  
G18  21424314.518   112585482.825        2809.911          37.000  
G31  21837735.008   114758043.845       -2782.103          40.000  
G 3  22676772.346   119167249.094       -1894.732          34.000  
G 4  20114047.643   105700032.467        1869.201          40.000  
> 2019  3 22  6 38 34.4900000  0 12                     
G27  17367270.102    91265622.878       -1362.146          50.000  
G 8  17479752.914    91856722.779         874.076          49.000  
G23  18065181.596    94933154.960        -893.674          46.000  
G16  18977653.237    99728245.136       -2189.449          44.000  
G 9  19004323.696    99868402.366         892.424          47.000  
G26  20704783.059   108804341.124       -2422.882          38.000  
G 7  21117476.573   110973052.123        2654.413          39.000  
G11  21417411.194   112549242.021        3108.534          38.000  
G18  21424047.146   112584077.839        2810.041          38.000  
G31  21837999.536   114759434.709       -2781.997          40.000  
G 3  22676952.380   119168196.394       -1894.807          34.000  
G 4  20113869.860   105699097.662        1869.597          40.000  
> 2019  3 22  6 38 34.9900000  0 12                     
G27  17367399.861    91266303.933       -1362.596          50.000  
G 8  17479669.886    91856285.781         873.440          49.000  
G23  18065266.701    94933601.855        -894.330          46.000  
G16  18977861.593    99729339.814       -2189.778          44.000  
G 9  19004238.836    99867956.140         891.890          46.000  
G26  20705013.454   108805552.620       -2423.230          38.000  
G 7  21117223.981   110971724.639        2654.922          39.000  
G11  21417115.465   112547687.810        3108.024          38.000  
G18  21423779.808   112582672.800        2809.907          38.000  
G31  21838264.220   114760825.612       -2782.286          40.000  
G 3  22677132.536   119169143.610       -1894.997          33.000  
G 4  20113691.798   105698162.995        1869.771          40.000  
> 2019  3 22  6 38 35.4900000  0 12                     
G27  17367529.499    91266985.188       -1362.916          50.000  
G 8  17479586.735    91855848.977         873.165          50.000  
G23  18065351.613    94934048.937        -894.655          46.000  
G16  18978069.652    99730434.540       -2189.720          44.000  
G 9  19004153.853    99867510.094         891.728          47.000  
G26  20705243.884   108806764.148       -2423.486          38.000  
G 7  21116971.249   110970397.185        2654.348          39.000  
G11  21416819.667   112546133.670        3107.999          38.000  
G18  21423512.698   112581267.795        2810.192          39.000  
G31  21838528.539   114762216.614       -2782.321          40.000  
G 3  22677312.483   119170090.745       -1894.367          33.000  
G 4  20113513.858   105697228.524        1868.943          40.000  
> 2019  3 22  6 38 35.9900000  0 12                     
G27  17367659.398    91267666.716       -1363.317          50.000  
G 8  17479503.742    91855412.437         872.858          50.000  
G23  18065436.753    94934496.297        -894.968          46.000  
G16  18978277.973    99731529.401       -2190.060          44.000  
G 9  19004069.080    99867064.332         891.115          46.000  
G26  20705474.489   108807975.779       -2423.206          38.000  
G 7  21116718.744   110969069.832        2654.252          39.000  
G11  21416523.816   112544579.614        3107.623          38.000  
G18  21423245.535   112579862.895        2809.678          37.000  
G31  21838793.346   114763607.781       -2782.261          40.000  
G 3  22677492.674   119171037.960       -1894.207          33.000  
G 4  20113336.233   105696294.270        1868.410          40.000  
> 2019  3 22  6 38 36.4900000  0 12                     
G27  17367789.333    91268348.475       -1363.670          50.000  
G 8  17479420.888    91854976.125         872.471          50.000  
G23  18065522.224    94934943.892        -895.355          46.000  
G16  18978486.380    99732624.345       -2190.004          44.000  
G 9  19003984.394    99866618.784         890.892          47.000  
G26  20705705.023   108809187.469       -2423.395          37.000  
G 7  21116466.083   110967742.520        2654.674          39.000  
G11  21416228.192   112543025.617        3107.889          38.000  
G18  21422978.128   112578458.020        2809.431          38.000  
G31  21839058.153   114764999.089       -2782.699          40.000  
G 3  22677673.004   119171985.210       -1894.575          33.000  
G 4  20113158.659   105695360.214        1868.266          40.000  
> 2019  3 22  6 38 36.9900000  0 12                     
G27  17367919.145    91269030.419       -1364.195          50.000  
G 8  17479338.000    91854539.991         872.020          50.000  
G23  18065607.434    94935391.668        -895.780          46.000  
G16  18978694.928    99733719.313       -2190.027          44.000  
G 9  19003899.848    99866173.411         890.651          47.000  
G26  20705935.680   108810399.169       -2423.151          37.000  
G 7  21116213.473   110966415.209        2654.804          39.000  
G11  21415932.201   112541471.615        3108.303          38.000  
G18  21422710.843   112577053.132        2809.419          38.000  
G31  21839323.012   114766390.465       -2782.923          40.000  
G 3  22677853.335   119172932.364       -1894.344          33.000  
G 4  20112980.754   105694426.293        1868.047          40.000  
> 2019  3 22  6 38 37.4900000  0 12                     
G27  17368049.062    91269712.496       -1364.316          50.000  
G 8  17479255.076    91854104.005         871.708          50.000  
G23  18065692.573    94935839.586        -896.061          46.000  
G16  18978903.423    99734814.293       -2190.073          44.000  
G 9  19003815.284    99865728.187         890.158          47.000  
G26  20706166.215   108811610.874       -2423.596          37.000  
G 7  21115960.847   110965087.888        2654.813          39.000  
G11  21415636.385   112539917.637        3108.041          38.000  
G18  21422443.436   112575648.203        2809.426          38.000  
G31  21839587.977   114767781.875       -2782.978          40.000  
G 3  22678033.613   119173879.474       -1894.185          32.000  
G 4  20112802.937   105693492.499        1867.599          40.000  
> 2019  3 22  6 38 37.9900000  0 12                     
G27  17368178.787    91270394.664       -1364.617          50.000  
G 8  17479171.856    91853668.093         871.635          50.000  
G23  18065778.097    94936287.595        -896.274          46.000  
G16  18979111.901    99735909.204       -2190.032          44.000  
G 9  19003730.755    99865283.030         890.125          47.000  
G26  20706396.785   108812822.460       -2423.328          38.000  
G 7  21115708.237   110963760.486        2654.709          39.000  
G11  21415340.569   112538363.564        3107.925          38.000  
G18  21422176.238   112574243.160        2809.537          38.000  
G31  21839852.836   114769173.276       -2783.065          41.000  
G 3  22678214.013   119174826.404       -1894.396          33.000  
G 4  20112625.224   105692558.756        1867.284          40.000  
> 2019  3 22  6 38 38.4900000  0 13                     
G27  17368308.930    91271076.931       -1365.072          50.000  
G 8  17479088.950    91853232.281         871.231          50.000  
G23  18065863.359    94936735.700        -896.713          46.000  
G16  18979320.169    99737004.062       -2189.990          44.000  
G 9  19003645.860    99864837.971         889.744          47.000  
G26  20706627.494   108814033.988       -2423.303          38.000  
G 7  21115455.401   110962432.998        2654.525          39.000  
G11  21415044.875   112536809.421        3108.074          38.000  
G18  21421909.145   112572838.012        2810.220          38.000  
G31  21840117.765   114770564.652       -2782.964          41.000  
G 3  22678394.257   119175773.218       -1893.676          33.000  
G 4  20112447.511   105691625.078        1867.205          40.000  
G21  23406157.891                3      -2048.000          19.000  
> 2019  3 22  6 38 38.9900000  0 13                     
G27  17368438.812    91271759.382       -1365.382          50.000  
G 8  17479006.219    91852796.646         870.884          50.000  
G23  18065948.690    94937183.990        -896.972          46.000  
G16  18979528.525    99738098.974       -2190.096          44.000  
G 9  19003561.314    99864393.098         889.383          47.000  
G26  20706858.099   108815245.529       -2423.120          38.000  
G 7  21115202.565   110961105.517        2654.786          39.000  
G11  21414749.164   112535255.294        3107.816          38.000  
G18  21421641.651   112571432.895        2809.958          38.000  
G31  21840382.625   114771956.130       -2783.233          41.000  
G 3  22678574.343   119176719.950       -1893.704          33.000  
G 4  20112269.937   105690691.552        1866.802          40.000  
G21  23406336.860                3      -2048.000          18.000  
> 2019  3 22  6 38 39.4900000  0 13                     
G27  17368568.642    91272441.984       -1365.524          50.000  
G 8  17478923.330    91852361.160         870.739          49.000  
G23  18066033.760    94937632.437        -897.199          45.000  
G16  18979737.020    99739193.878       -2189.775          44.000  
G 9  19003476.628    99863948.357         889.264          46.000  
G26  20707088.738   108816457.071       -2423.041          37.000  
G 7  21114949.973   110959778.023        2655.069          39.000  
G11  21414453.627   112533701.156        3108.265          38.000  
G18  21421374.104   112570027.734        2810.116          37.000  
G31  21840647.362   114773347.655       -2783.380          40.000  
G 3  22678754.359   119177666.636       -1893.287          32.000  
G 4  20112092.067   105689758.137        1866.668          39.000  
G21  23406523.473                3      -2048.000          17.000  
> 2019  3 22  6 38 39.9900000  0 12                     
G27  17368698.541    91273124.808       -1366.149          50.000  
G 8  17478840.564    91851925.906         869.980          49.000  
G23  18066119.161    94938081.116        -898.003          45.000  
G16  18979945.254    99740288.886       -2190.349          43.000  
G 9  19003391.977    99863503.842         888.574          46.000  
G26  20707319.430   108817668.658       -2423.474          37.000  
G 7  21114697.276   110958450.583        2654.513          39.000  
G11  21414157.880   112532147.063        3108.004          37.000  
G18  21421106.644   112568622.600        2809.923          37.000  
G31  21840912.343   114774739.283       -2783.704          40.000  
G 3  22678934.480   119178613.340       -1893.467          31.000  
G 4  20111914.598   105688824.910        1866.318          38.000  
> 2019  3 22  6 38 40.4900000  0 12                     
G27  17368828.319    91273807.925       -1366.285          50.000  
G 8  17478757.763    91851490.940         869.835          50.000  
G23  18066204.615    94938530.079        -898.082          46.000  
G16  18980153.504    99741384.027       -2190.337          44.000  
G 9  19003307.500    99863059.617         888.355          46.000  
G26  20707549.860   108818880.397       -2423.724          37.000  
G 7  21114444.859   110957123.276        2654.497          39.000  
G11  21413862.204   112530593.122        3107.903          37.000  
G18  21420839.132   112567217.575        2810.084          37.000  
G31  21841177.168   114776131.097       -2783.559          40.000  
G 3  22679114.532   119179560.082       -1893.016          31.000  
G 4  20111736.885   105687891.965        1865.631          39.000  
> 2019  3 22  6 38 40.9900000  0 12                     
G27  17368958.497    91274491.223       -1366.827          50.000  
G 8  17478675.119    91851056.149         869.298          50.000  
G23  18066290.016    94938979.233        -898.714          46.000  
G16  18980362.035    99742479.195       -2190.376          44.000  
G 9  19003223.198    99862615.562         887.876          47.000  
G26  20707780.483   108820092.094       -2423.267          38.000  
G 7  21114192.476   110955795.940        2654.692          40.000  
G11  21413566.405   112529039.164        3108.076          37.000  
G18  21420571.760   112565812.542        2809.902          38.000  
G31  21841442.115   114777523.012       -2784.087          41.000  
G 3  22679294.775   119180506.783       -1893.425          32.000  
G 4  20111559.643   105686959.162        1865.188          40.000  
> 2019  3 22  6 38 41.4900000  0 12                     
G27  17369088.432    91275174.674       -1366.964          51.000  
G 8  17478592.317    91850621.508         869.262          50.000  
G23  18066375.627    94939428.533        -898.663          47.000  
G16  18980570.477    99743574.378       -2190.400          45.000  
G 9  19003138.809    99862171.651         887.718          47.000  
G26  20708010.983   108821303.809       -2423.059          38.000  
G 7  21113940.129   110954468.612        2655.257          40.000  
G11  21413270.711   112527485.233        3107.954          38.000  
G18  21420304.405   112564407.473        2810.085          38.000  
G31  21841707.148   114778914.964       -2783.884          41.000  
G 3  22679474.931   119181453.417       -1893.077          32.000  
G 4  20111382.157   105686026.464        1864.906          40.000  
> 2019  3 22  6 38 41.9900000  0 12                     
G27  17369218.523    91275858.215       -1367.033          50.000  
G 8  17478509.778    91850186.957         869.116          50.000  
G23  18066461.273    94939877.926        -898.918          47.000  
G16  18980778.798    99744669.496       -2190.105          44.000  
G 9  19003054.437    99861727.836         887.582          47.000  
G26  20708241.622   108822515.468       -2423.492          38.000  
G 7  21113687.659   110953141.173        2655.384          40.000  
G11  21412974.703   112525931.187        3108.424          38.000  
G18  21420037.068   112563002.297        2810.409          38.000  
G31  21841971.921   114780306.900       -2784.003          41.000  
G 3  22679654.948   119182399.867       -1892.462          32.000  
G 4  20111204.654   105685093.817        1865.015          40.000  
> 2019  3 22  6 38 42.4900000  0 12                     
G27  17369348.614    91276541.755       -1367.326          50.000  
G 8  17478427.256    91849752.407         868.907          50.000  
G23  18066546.866    94940327.320        -899.034          47.000  
G16  18980987.328    99745764.478       -2190.010          44.000  
G 9  19002969.908    99861284.006         887.493          47.000  
G26  20708472.000   108823726.924       -2422.870          38.000  
G 7  21113435.329   110951813.598        2655.311          40.000  
G11  21412678.957   112524377.002        3108.311          38.000  
G18  21419769.486   112561596.948        2810.591          38.000  
G31  21842236.885   114781698.728       -2783.851          41.000  
G 3  22679834.947   119183346.121       -1892.136          32.000  
G 4  20111027.010   105684161.143        1865.541          40.000  
> 2019  3 22  6 38 42.9900000  0 12                     
G27  17369478.723    91277225.471       -1367.696          50.000  
G 8  17478344.489    91849318.031         868.542          50.000  
G23  18066632.494    94940776.891        -899.452          47.000  
G16  18981195.789    99746859.485       -2190.021          44.000  
G 9  19002885.362    99860840.361         886.959          47.000  
G26  20708702.395   108824938.401       -2422.974          38.000  
G 7  21113182.807   110950486.034        2654.646          40.000  
G11  21412383.228   112522822.837        3108.016          38.000  
G18  21419501.957   112560191.582        2810.662          38.000  
G31  21842501.657   114783090.618       -2783.828          41.000  
G 3  22680014.963   119184292.360       -1892.648          32.000  
G 4  20110849.612   105683228.618        1864.676          40.000  
> 2019  3 22  6 38 43.4900000  0 12                     
G27  17369608.937    91277909.542       -1368.281          50.000  
G 8  17478261.950    91848884.007         867.747          50.000  
G23  18066718.367    94941226.815        -899.977          47.000  
G16  18981404.388    99747954.706       -2190.682          44.000  
G 9  19002800.990    99860397.052         886.415          47.000  
G26  20708933.139   108826150.075       -2423.517          38.000  
G 7  21112930.180   110949158.606        2654.706          40.000  
G11  21412087.534   112521268.825        3107.815          38.000  
G18  21419234.725   112558786.371        2811.083          38.000  
G31  21842766.569   114784482.774       -2784.510          41.000  
G 3  22680195.014   119185238.720       -1893.767          32.000  
G 4  20110672.544   105682296.398        1864.204          40.000  
> 2019  3 22  6 38 43.9900000  0 12                     
G27  17369739.272    91278593.898       -1369.266          50.000  
G 8  17478179.567    91848450.260         867.019          50.000  
G23  18066804.030    94941677.037        -900.847          47.000  
G16  18981612.849    99749050.072       -2191.180          44.000  
G 9  19002716.810    99859954.030         885.594          47.000  
G26  20709163.604   108827361.861       -2423.608          38.000  
G 7  21112677.815   110947831.325        2654.423          40.000  
G11  21411792.015   112519714.944        3107.482          38.000  
G18  21418967.440   112557381.277        2809.829          38.000  
G31  21843031.620   114785875.106       -2785.122          41.000  
G 3  22680375.118   119186185.095       -1893.265          32.000  
G 4  20110495.215   105681364.441        1863.700          40.000  
> 2019  3 22  6 38 44.4900000  0 12                     
G27  17369869.573    91279278.534       -1369.645          50.000  
G 8  17478097.028    91848016.787         866.624          49.000  
G23  18066889.798    94942127.540        -901.436          46.000  
G16  18981821.239    99750145.562       -2191.230          44.000  
G 9  19002632.578    99859511.277         885.221          47.000  
G26  20709394.279   108828573.765       -2423.975          38.000  
G 7  21112425.206   110946504.121        2654.302          40.000  
G11  21411496.338   112518161.189        3107.507          38.000  
G18  21418700.120   112555976.251        2809.846          38.000  
G31  21843296.392   114787267.603       -2785.252          41.000  
G 3  22680554.960   119187131.501       -1893.027          31.000  
G 4  20110317.886   105680432.741        1862.918          40.000  
> 2019  3 22  6 38 44.9900000  0 12                     
G27  17369999.717    91279963.414       -1369.874          50.000  
G 8  17478014.628    91847583.574         866.309          50.000  
G23  18066975.426    94942578.288        -901.688          47.000  
G16  18982029.787    99751241.159       -2191.067          44.000  
G 9  19002548.346    99859068.769         884.914          47.000  
G26  20709625.093   108829785.739       -2423.431          38.000  
G 7  21112172.753   110945176.978        2654.648          40.000  
G11  21411200.540   112516607.510        3107.401          38.000  
G18  21418432.887   112554571.286        2810.173          38.000  
G31  21843561.356   114788660.254       -2785.338          41.000  
G 3  22680735.064   119188077.993       -1892.770          32.000  
G 4  20110140.574   105679501.258        1862.554          40.000  
> 2019  3 22  6 38 45.4900000  0 12                     
G27  17370130.105    91280648.503       -1370.689          50.000  
G 8  17477932.123    91847150.559         865.602          50.000  
G23  18067061.072    94943029.238        -902.346          47.000  
G16  18982238.142    99752336.822       -2191.695          44.000  
G 9  19002464.114    99858626.454         884.196          47.000  
G26  20709855.785   108830997.764       -2424.445          38.000  
G 7  21111920.249   110943849.936        2653.838          40.000  
G11  21410904.828   112515053.873        3107.030          38.000  
G18  21418165.707   112553166.334        2810.090          38.000  
G31  21843826.460   114790053.007       -2785.918          41.000  
G 3  22680915.045   119189024.420       -1893.427          32.000  
G 4  20109963.455   105678569.941        1862.035          40.000  
> 2019  3 22  6 38 45.9900000  0 12                     
G27  17370260.318    91281333.722       -1370.660          50.000  
G 8  17477849.584    91846717.689         865.612          50.000  
G23  18067146.944    94943480.331        -902.259          47.000  
G16  18982446.498    99753432.481       -2191.439          44.000  
G 9  19002379.812    99858184.286         884.153          47.000  
G26  20710086.494   108832209.760       -2424.292          38.000  
G 7  21111667.622   110942522.837        2653.891          39.000  
G11  21410608.873   112513500.213        3107.325          38.000  
G18  21417898.369   112551761.360        2809.868          38.000  
G31  21844091.407   114791445.790       -2785.730          41.000  
G 3  22681095.114   119189970.768       -1893.695          31.000  
G 4  20109786.160   105677638.728        1861.914          40.000  
> 2019  3 22  6 38 46.4900000  0 12                     
G27  17370390.776    91282019.069       -1370.961          50.000  
G 8  17477767.376    91846284.940         865.228          50.000  
G23  18067232.817    94943931.555        -902.756          47.000  
G16  18982654.993    99754528.113       -2191.517          44.000  
G 9  19002295.580    99857742.230         883.707          47.000  
G26  20710317.151   108833421.704       -2424.310          38.000  
G 7  21111415.379   110941195.652        2654.438          40.000  
G11  21410313.144   112511946.513        3107.021          38.000  
G18  21417631.224   112550356.291        2810.259          38.000  
G31  21844356.214   114792838.595       -2786.002          41.000  
G 3  22681274.991   119190917.034       -1893.323          32.000  
G 4  20109609.215   105676707.589        1861.727          40.000  
> 2019  3 22  6 38 46.9900000  0 12                     
G27  17370521.339    91282704.593       -1371.230          50.000  
G 8  17477685.342    91845852.353         865.001          50.000  
G23  18067318.654    94944382.937        -902.883          47.000  
G16  18982863.698    99755623.770       -2191.409          44.000  
G 9  19002211.819    99857300.331         883.714          47.000  
G26  20710547.773   108834633.633       -2423.706          38.000  
G 7  21111162.962   110939868.509        2654.175          39.000  
G11  21410017.624   112510392.822        3107.185          38.000  
G18  21417363.939   112548951.222        2810.304          39.000  
G31  21844621.300   114794231.454       -2785.805          41.000  
G 3  22681452.948   119191863.150       -1891.465          31.000  
G 4  20109431.869   105675776.605        1862.047          40.000  
> 2019  3 22  6 38 47.4900000  0 12                     
G27  17370651.535    91283390.303       -1371.625          50.000  
G 8  17477603.099    91845419.950         864.565          50.000  
G23  18067404.562    94944834.532        -903.440          47.000  
G16  18983072.263    99756719.477       -2191.726          45.000  
G 9  19002127.743    99856858.624         883.269          47.000  
G26  20710778.395   108835845.634       -2424.146          39.000  
G 7  21110910.439   110938541.360        2653.986          39.000  
G11  21409722.140   112508839.156        3106.812          38.000  
G18  21417096.584   112547546.185        2809.853          39.000  
G31  21844886.334   114795624.426       -2786.080          41.000  
G 3  22681630.417   119192809.401       -1893.203          31.000  
G 4  20109254.836   105674845.787        1861.138          40.000  
> 2019  3 22  6 38 47.9900000  0 12                     
G27  17370782.132    91284076.126       -1371.766          50.000  
G 8  17477520.891    91844987.660         864.415          50.000  
G23  18067490.713    94945286.231        -903.512          47.000  
G16  18983281.002    99757815.148       -2191.296          44.000  
G 9  19002043.668    99856417.031         883.052          47.000  
G26  20711008.895   108837057.541       -2423.871          38.000  
G 7  21110657.830   110937214.162        2654.164          39.000  
G11  21409426.446   112507285.436        3107.161          38.000  
G18  21416829.177   112546141.042        2810.051          38.000  
G31  21845151.420   114797017.388       -2785.811          41.000  
G 3  22681809.002   119193755.404       -1892.222          31.000  
G 4  20109077.926   105673915.018        1861.711          40.000  
> 2019  3 22  6 38 48.4900000  0 12                     
G27  17370912.869    91284762.129       -1372.245          50.000  
G 8  17477438.718    91844555.544         864.135          49.000  
G23  18067576.865    94945738.111        -903.969          46.000  
G16  18983489.515    99758910.845       -2191.353          44.000  
G 9  19001959.803    99855975.600         882.753          46.000  
G26  20711239.465   108838269.470       -2423.730          38.000  
G 7  21110405.134   110935886.942        2654.517          39.000  
G11  21409130.857   112505731.733        3107.271          38.000  
G18  21416561.648   112544735.886        2810.304          38.000  
G31  21845416.367   114798410.435       -2785.983          40.000  
G 3  22681991.584   119194701.427       -1893.239          31.000  
G 4  20108900.824   105672984.437        1860.857          40.000  
> 2019  3 22  6 38 48.9900000  0 12                     
G27  17371043.432    91285448.229       -1372.376          50.000  
G 8  17477356.720    91844123.538         863.755          50.000  
G23  18067662.947    94946190.094        -904.299          47.000  
G16  18983698.080    99760006.510       -2191.185          44.000  
G 9  19001875.832    99855534.282         882.448          47.000  
G26  20711469.860   108839481.331       -2423.401          39.000  
G 7  21110152.594   110934559.674        2654.689          39.000  
G11  21408835.058   112504177.937        3107.413          39.000  
G18  21416294.293   112543330.646        2810.543          38.000  
G31  21845681.418   114799803.478       -2786.239          40.000  
G 3  22682173.677   119195647.221       -1891.600          31.000  
G 4  20108723.634   105672053.915        1860.695          40.000  
> 2019  3 22  6 38 49.4900000  0 12                     
G27  17371174.186    91286134.338       -1372.242          50.000  
G 8  17477274.581    91843691.532         863.798          50.000  
G23  18067749.064    94946642.084        -904.140          46.000  
G16  18983906.610    99761102.038       -2191.087          44.000  
G 9  19001791.774    99855092.961         882.329          46.000  
G26  20711700.517   108840693.074       -2423.273          38.000  
G 7  21109900.037   110933232.211        2655.174          39.000  
G11  21408539.312   112502624.028        3107.883          37.000  
G18  21416026.851   112541925.238        2811.021          38.000  
G31  21845946.644   114801196.420       -2785.947          40.000  
G 3  22682351.774   119196592.880       -1891.213          31.000  
G 4  20108546.567   105671123.333        1861.098          40.000  
> 2019  3 22  6 38 49.9900000  0 12                     
G27  17371304.854    91286820.519       -1372.357          50.000  
G 8  17477192.583    91843259.592         863.805          50.000  
G23  18067835.355    94947094.147        -904.190          46.000  
G16  18984115.140    99762197.486       -2190.803          44.000  
G 9  19001707.769    99854651.690         882.476          47.000  
G26  20711931.087   108841904.687       -2423.273          38.000  
G 7  21109647.602   110931904.685        2655.264          39.000  
G11  21408243.635   112501070.000        3108.281          37.000  
G18  21415759.444   112540519.713        2811.609          38.000  
G31  21846211.591   114802589.328       -2785.770          40.000  
G 3  22682529.958   119197538.315       -1890.440          31.000  
G 4  20108369.604   105670192.824        1860.936          40.000  
> 2019  3 22  6 38 50.4900000  0 12                     
G27  17371435.521    91287506.957       -1372.906          50.000  
G 8  17477110.532    91842827.908         863.317          50.000  
G23  18067921.315    94947546.470        -904.768          47.000  
G16  18984323.723    99763293.037       -2190.852          44.000  
G 9  19001624.026    99854210.682         882.001          47.000  
G26  20712161.691   108843116.371       -2423.218          38.000  
G 7  21109395.080   110930577.230        2655.421          40.000  
G11  21407947.889   112499516.061        3108.268          37.000  
G18  21415492.054   112539114.266        2810.737          38.000  
G31  21846476.642   114803982.395       -2786.132          40.000  
G 3  22682711.406   119198483.845       -1890.793          31.000  
G 4  20108192.659   105669262.525        1860.547          40.000  
> 2019  3 22  6 38 50.9900000  0 12                     
G27  17371566.083    91288193.714       -1373.955          50.000  
G 8  17477028.533    91842396.548         862.284          50.000  
G23  18068007.537    94947999.110        -905.729          47.000  
G16  18984532.235    99764388.769       -2191.600          45.000  
G 9  19001540.073    99853769.984         880.868          47.000  
G26  20712392.244   108844328.240       -2424.237          38.000  
G 7  21109142.488   110929249.915        2654.497          40.000  
G11  21407652.108   112497962.298        3106.968          38.000  
G18  21415224.595   112537708.919        2810.654          38.000  
G31  21846741.728   114805375.674       -2786.935          40.000  
G 3  22682893.813   119199429.412       -1891.119          30.000  
G 4  20108015.783   105668332.517        1859.684          40.000  
> 2019  3 22  6 38 51.4900000  0 12                     
G27  17371696.681    91288880.722       -1374.454          50.000  
G 8  17476946.709    91841965.431         861.905          50.000  
G23  18068093.601    94948452.004        -906.124          47.000  
G16  18984740.730    99765484.612       -2191.847          45.000  
G 9  19001456.346    99853329.531         880.569          47.000  
G26  20712622.866   108845540.189       -2424.109          38.000  
G 7  21108889.809   110927922.703        2654.320          40.000  
G11  21407356.414   112496408.593        3107.308          38.000  
G18  21414957.188   112536303.650        2810.388          38.000  
G31  21847006.727   114806769.100       -2787.233          40.000  
G 3  22683072.311   119200375.046       -1891.229          30.000  
G 4  20107838.803   105667402.724        1859.031          40.000  
> 2019  3 22  6 38 51.9900000  0 12                     
G27  17371827.697    91289567.847       -1374.726          50.000  
G 8  17476864.815    91841534.433         861.527          50.000  
G23  18068179.857    94948905.023        -906.524          47.000  
G16  18984949.348    99766580.429       -2191.872          45.000  
G 9  19001372.568    99852889.194         880.158          47.000  
G26  20712853.435   108846752.064       -2424.042          38.000  
G 7  21108637.165   110926595.426        2654.002          40.000  
G11  21407060.790   112494854.895        3106.529          38.000  
G18  21414689.693   112534898.293        2810.819          38.000  
G31  21847271.831   114808162.533       -2787.193          40.000  
G 3  22683253.706   119201320.552       -1890.911          30.000  
G 4  20107661.876   105666473.019        1859.017          40.000  
> 2019  3 22  6 38 52.4900000  0 12                     
G27  17371958.521    91290255.160       -1374.621          50.000  
G 8  17476782.974    91841103.615         861.640          50.000  
G23  18068266.271    94949358.229        -906.510          46.000  
G16  18985158.192    99767676.286       -2191.593          45.000  
G 9  19001288.981    99852449.041         880.216          46.000  
G26  20713084.162   108847963.979       -2423.682          38.000  
G 7  21108384.887   110925268.133        2654.707          40.000  
G11  21406765.043   112493301.144        3107.688          38.000  
G18  21414422.408   112533492.981        2810.742          38.000  
G31  21847536.865   114809556.056       -2787.053          40.000  
G 3  22683433.845   119202266.015       -1890.276          30.000  
G 4  20107485.227   105665543.476        1858.912          40.000  
> 2019  3 22  6 38 52.9900000  0 12                     
G27  17372089.293    91290942.495       -1374.674          50.000  
G 8  17476700.836    91840672.832         861.539          50.000  
G23  18068352.580    94949811.456        -906.377          46.000  
G16  18985366.792    99768772.007       -2191.453          45.000  
G 9  19001205.238    99852008.906         880.319          47.000  
G26  20713314.959   108849175.724       -2423.047          38.000  
G 7  21108132.400   110923940.712        2655.323          40.000  
G11  21406469.314   112491747.293        3107.946          38.000  
G18  21414155.193   112532087.479        2811.659          38.000  
G31  21847801.864   114810949.495       -2786.885          40.000  
G 3  22683614.734   119203211.284       -1890.246          30.000  
G 4  20107308.386   105664613.919        1858.953          40.000  
> 2019  3 22  6 38 53.4900000  0 12                     
G27  17372219.891    91291629.919       -1374.901          50.000  
G 8  17476618.506    91840242.128         861.610          50.000  
G23  18068438.644    94950264.780        -906.490          46.000  
G16  18985575.339    99769867.690       -2191.143          45.000  
G 9  19001121.355    99851568.848         880.305          47.000  
G26  20713545.773   108850387.447       -2422.968          38.000  
G 7  21107879.878   110922613.212        2655.364          40.000  
G11  21406173.673   112490193.354        3108.387          38.000  
G18  21413887.908   112530681.883        2811.645          38.000  
G31  21848067.142   114812342.916       -2786.759          40.000  
G 3  22683793.912   119204156.434       -1890.121          30.000  
G 4  20107131.773   105663684.409        1859.063          40.000  
> 2019  3 22  6 38 53.9900000  0 12                     
G27  17372350.767    91292317.513       -1375.759          50.000  
G 8  17476536.716    91839811.598         860.494          50.000  
G23  18068524.918    94950718.282        -907.555          46.000  
G16  18985783.939    99770963.390       -2191.689          45.000  
G 9  19001037.838    99851128.964         879.350          47.000  
G26  20713776.604   108851599.146       -2423.798          39.000  
G 7  21107627.198   110921285.726        2654.501          40.000  
G11  21405877.927   112488639.445        3107.579          38.000  
G18  21413620.571   112529276.259        2811.512          38.000  
G31  21848332.368   114813736.406       -2787.225          40.000  
G 3  22683973.493   119205101.431       -1889.757          30.000  
G 4  20106954.758   105662755.059        1857.999          40.000  
> 2019  3 22  6 38 54.4900000  0 12                     
G27  17372481.435    91293005.274       -1375.946          50.000  
G 8  17476454.753    91839381.218         860.343          50.000  
G23  18068611.140    94951171.946        -907.612          46.000  
G16  18985992.330    99772059.126       -2191.644          45.000  
G 9  19000954.094    99850689.247         879.180          46.000  
G26  20714007.383   108852810.838       -2423.840          38.000  
G 7  21107374.519   110919958.211        2654.689          40.000  
G11  21405582.093   112487085.523        3107.406          37.000  
G18  21413353.076   112527870.660        2810.797          38.000  
G31  21848597.698   114815129.972       -2787.326          40.000  
G 3  22684152.584   119206046.505       -1890.173          30.000  
G 4  20106777.760   105661825.812        1858.621          40.000  
> 2019  3 22  6 38 54.9900000  0 12                     
G27  17372612.154    91293693.269       -1376.088          50.000  
G 8  17476372.702    91838951.062         860.222          50.000  
G23  18068697.379    94951625.845        -907.918          47.000  
G16  18986200.912    99773154.942       -2191.729          45.000  
G 9  19000870.298    99850249.751         878.925          47.000  
G26  20714238.005   108854022.599       -2423.456          39.000  
G 7  21107121.753   110918630.751        2654.740          40.000  
G11  21405286.155   112485531.651        3107.743          37.000  
G18  21413085.477   112526465.015        2811.945          38.000  
G31  21848862.977   114816523.650       -2787.310          40.000  
G 3  22684328.884   119206991.493       -1889.680          30.000  
G 4  20106600.832   105660896.779        1858.062          40.000  
> 2019  3 22  6 38 55.4900000  0 12                     
G27  17372743.153    91294381.341       -1376.053          50.000  
G 8  17476290.825    91838520.994         860.243          50.000  
G23  18068783.740    94952079.823        -907.885          46.000  
G16  18986409.460    99774250.674       -2191.017          45.000  
G 9  19000786.572    99849810.334         878.957          47.000  
G26  20714468.680   108855234.257       -2422.943          39.000  
G 7  21106868.829   110917303.209        2655.385          40.000  
G11  21404990.339   112483977.709        3108.124          37.000  
G18  21412817.896   112525059.337        2812.135          38.000  
G31  21849128.185   114817917.302       -2787.156          40.000  
G 3  22684509.232   119207936.340       -1889.348          30.000  
G 4  20106424.027   105659967.804        1858.051          40.000  
> 2019  3 22  6 38 55.9900000  0 12                     
G27  17372873.855    91295069.540       -1376.571          50.000  
G 8  17476209.193    91838091.047         859.678          50.000  
G23  18068870.136    94952533.928        -908.468          47.000  
G16  18986617.885    99775346.421       -2191.495          45.000  
G 9  19000703.230    99849371.028         878.455          47.000  
G26  20714699.127   108856445.908       -2423.126          39.000  
G 7  21106616.238   110915975.614        2655.354          40.000  
G11  21404694.557   112482423.728        3108.030          37.000  
G18  21412550.436   112523653.579        2811.357          38.000  
G31  21849393.428   114819310.985       -2787.589          40.000  
G 3  22684688.323   119208881.125       -1889.562          30.000  
G 4  20106247.326   105659038.911        1857.676          40.000  
