     3.02           OBSERVATION DATA    M: Mixed            RINEX VERSION / TYPE
RTKCONV 2.4.3 b33                       20200605 120401 UTC PGM / RUN BY / DATE 
log: C:\Users\204\Desktop\test\²âÊÔÊý¾Ý\base_202006050758.  COMMENT             
format: u-blox                                              COMMENT             
                                                            MARKER NAME         
                                                            MARKER NUMBER       
                                                            MARKER TYPE         
                                                            OBSERVER / AGENCY   
                                                            REC # / TYPE / VERS 
                                                            ANT # / TYPE        
 -2191133.4751  5198853.0764  2965380.4641                  APPROX POSITION XYZ 
        0.0000        0.0000        0.0000                  ANTENNA: DELTA H/E/N
G    4 C1C L1C D1C S1C                                      SYS / # / OBS TYPES 
C    4 C1I L1I D1I S1I                                      SYS / # / OBS TYPES 
  2020     6     5     7    58   58.0000000     GPS         TIME OF FIRST OBS   
  2020     6     5     8    27   58.0000000     GPS         TIME OF LAST OBS    
G                                                           SYS / PHASE SHIFT   
C                                                           SYS / PHASE SHIFT   
  0                                                         GLONASS SLOT / FRQ #
 C1C    0.000 C1P    0.000 C2C    0.000 C2P    0.000        GLONASS COD/PHS/BIS 
                                                            END OF HEADER       
> 2020  6  5  7 58 58.0000000  0 25                     
G12  23877918.368    -7490611.500        3297.402          38.750  
G 3  25096745.019    -7199568.239       -3253.359          36.000  
C13  36778408.211   -21820390.4372          6.855          45.000  
G17  20960554.949   -25394566.894         122.910          46.000  
C23  26068440.326   -11189616.4912      -2278.770          37.000  
C28  22299282.238   -23413144.9772        789.404          48.250  
G 5  23948849.594    -9955960.717        3954.902          36.500  
G 4  24315756.301    -8507060.005         753.389          36.000  
G19  20470292.372   -30642931.386         843.145          46.250  
G 2  22682362.070   -15057882.358        1294.180          43.250  
C 3  36203047.729   -20402992.7462        292.051          43.750  
C14  23202258.379   -10068507.9402      -1100.156          43.500  
C 2  37239449.071   -19745236.8692        324.229          39.750  
G23  23625152.557   -10958140.513        2198.574          40.250  
C 1  37666346.591   -20174941.5402        277.207          41.500  
C27  24448872.775   -11668085.0592       2213.252          42.000  
C 4  38584943.887   -20458855.6782        274.551          38.500  
C 5  39255836.459   -19870835.5713        313.164          36.000  
C11  25930623.445    -1861107.7412      -1427.607          36.000  
C 7  37049794.381   -40067447.1922      -1013.447          41.250  
G 9  23498250.839   -13735427.035        2063.438          39.000  
C10  36239205.679   -28965573.2112       -614.023          42.750  
G28  21937500.031   -23753432.318       -2613.984          41.750  
G 6  21043477.284   -23693773.993         157.871          46.750  
C 8  36761770.668   -21781513.6182       -131.680          43.500  
> 2020  6  5  7 58 59.0000000  0 25                     
G12  23877291.276    -7493908.553        3296.953          38.750  
G 3  25097364.293    -7196314.688       -3253.652          36.250  
C13  36778406.658   -21820397.2092          6.777          45.000  
G17  20960531.722   -25394689.485         122.480          46.000  
C23  26068878.100   -11187337.6522      -2278.818          37.000  
C28  22299130.736   -23413934.2152        789.199          48.250  
G 5  23948096.879    -9959915.368        3954.580          36.500  
G 4  24315613.157    -8507812.957         752.822          36.000  
G19  20470131.900   -30643774.186         842.705          46.250  
G 2  22682115.830   -15059176.324        1293.965          43.250  
C 3  36202991.853   -20403284.6902        291.943          43.750  
C14  23202469.771   -10067407.3372      -1100.762          43.500  
C 2  37239386.896   -19745560.9892        324.082          39.750  
G23  23624733.978   -10960338.877        2198.330          40.500  
C 1  37666293.473   -20175218.6352        277.070          41.500  
C27  24448447.984   -11670298.2382       2213.223          41.750  
C 4  38584891.275   -20459130.0522        274.375          38.500  
C 5  39255776.308   -19871148.5592        313.057          36.250  
C11  25930897.448    -1859680.0492      -1427.686          36.000  
C 7  37049989.091   -40066433.5732      -1013.652          41.250  
G 9  23497858.052   -13737490.097        2063.008          39.000  
C10  36239323.660   -28964959.0242       -614.209          42.750  
G28  21937997.450   -23750818.058       -2614.346          41.750  
G 6  21043447.078   -23693931.652         157.607          46.750  
C 8  36761795.988   -21781381.8612       -131.768          43.500  
> 2020  6  5  7 59  0.0000000  0 25                     
G12  23876664.133    -7497205.183        3296.533          39.000  
G 3  25097983.287    -7193061.033       -3253.770          36.250  
C13  36778405.297   -21820403.9782          6.729          45.000  
G17  20960508.217   -25394811.727         122.109          46.000  
C23  26069315.682   -11185058.9332      -2278.662          37.000  
C28  22298979.111   -23414723.3302        789.043          48.250  
G 5  23947344.425    -9963869.835        3954.434          36.750  
G 4  24315470.362    -8508565.366         752.207          36.250  
G19  20469971.550   -30644616.642         842.324          46.250  
G 2  22681869.642   -15060470.112        1293.770          43.250  
C 3  36202935.716   -20403576.6002        291.865          43.750  
C14  23202681.354   -10066306.2032      -1101.348          43.750  
C 2  37239324.826   -19745885.0612        324.072          39.750  
G23  23624315.749   -10962537.089        2198.213          40.250  
C 1  37666240.389   -20175495.7012        276.963          41.500  
C27  24448022.949   -11672511.4082       2213.125          41.750  
C 4  38584838.575   -20459404.4232        274.355          38.500  
C 5  39255716.175   -19871461.5392        312.939          36.000  
C11  25931171.696    -1858252.2322      -1427.930          36.000  
C 7  37050183.783   -40065419.8302      -1013.740          41.250  
G 9  23497465.527   -13739552.867        2062.637          39.000  
C10  36239441.694   -28964344.6382       -614.492          42.750  
G28  21938495.130   -23748203.426       -2614.727          41.750  
G 6  21043417.220   -23694089.066         157.324          46.750  
C 8  36761821.291   -21781250.1592       -131.768          43.500  
> 2020  6  5  7 59  1.0000000  0 25                     
G12  23876036.745    -7500501.381        3296.211          39.000  
G 3  25098602.403    -7189807.151       -3253.838          36.250  
C13  36778404.093   -21820410.6782          6.787          45.000  
G17  20960485.148   -25394933.566         121.826          46.000  
C23  26069753.019   -11182780.2442      -2278.662          36.750  
C28  22298827.678   -23415512.2222        788.955          48.250  
G 5  23946592.024    -9967824.031        3954.229          36.750  
G 4  24315327.323    -8509317.244         751.768          36.250  
G19  20469811.479   -30645458.671         842.031          46.500  
G 2  22681623.419   -15061763.674        1293.633          43.250  
C 3  36202879.945   -20403868.4002        291.807          43.750  
C14  23202892.956   -10065204.4812      -1101.807          43.500  
C 2  37239262.406   -19746209.0482        324.033          39.750  
G23  23623897.642   -10964735.004        2197.910          40.250  
C 1  37666187.079   -20175772.6712        276.992          41.500  
C27  24447597.932   -11674724.5212       2213.154          41.750  
C 4  38584785.963   -20459678.6552        274.268          38.500  
C 5  39255655.989   -19871774.3842        312.900          36.250  
C11  25931445.926    -1856824.1672      -1428.018          36.000  
C 7  37050378.283   -40064405.8512      -1013.975          41.250  
G 9  23497073.229   -13741615.211        2062.334          39.000  
C10  36239559.762   -28963730.0142       -614.619          42.750  
G28  21938992.845   -23745588.339       -2615.098          41.750  
G 6  21043387.101   -23694246.196         157.158          46.750  
C 8  36761846.524   -21781118.4042       -131.699          43.500  
> 2020  6  5  7 59  2.0000000  0 25                     
G12  23875409.602    -7503797.387        3295.850          39.000  
G 3  25099221.711    -7186553.359       -3253.867          36.250  
C13  36778402.994   -21820417.5522          6.855          45.000  
G17  20960462.131   -25395055.280         121.572          46.000  
C23  26070190.671   -11180501.9042      -2278.320          36.750  
C28  22298676.245   -23416301.2042        788.887          48.250  
G 5  23945839.309    -9971778.283        3954.170          36.500  
G 4  24315184.353    -8510068.864         751.475          36.250  
G19  20469651.234   -30646300.583         841.768          46.250  
G 2  22681377.493   -15063057.288        1293.516          43.250  
C 3  36202823.720   -20404160.4012        291.934          43.750  
C14  23203104.540   -10064102.4512      -1102.227          43.500  
C 2  37239200.179   -19746533.2142        324.141          39.750  
G23  23623479.168   -10966933.002        2197.949          40.250  
C 1  37666133.943   -20176049.8202        277.021          41.500  
C27  24447172.897   -11676937.8682       2213.330          41.750  
C 4  38584733.263   -20459953.0952        274.365          38.500  
C 5  39255595.891   -19872087.4302        312.871          36.250  
C11  25931720.191    -1855396.1642      -1428.076          36.000  
C 7  37050572.975   -40063391.9732      -1013.945          41.250  
G 9  23496680.738   -13743677.464        2062.070          38.750  
C10  36239677.725   -28963115.4222       -614.678          42.750  
G28  21939490.560   -23742973.133       -2615.391          41.750  
G 6  21043357.331   -23694403.337         157.031          46.750  
C 8  36761871.931   -21780986.8952       -131.572          43.500  
> 2020  6  5  7 59  3.0000000  0 25                     
G12  23874782.633    -7507092.928        3295.430          39.000  
G 3  25099840.775    -7183299.359       -3254.102          36.250  
C13  36778401.755   -21820424.3322          6.807          45.000  
G17  20960438.835   -25395176.581         121.230          46.000  
C23  26070628.531   -11178223.5892      -2278.301          36.750  
C28  22298524.707   -23417089.9742        788.721          48.250  
G 5  23945086.838    -9975732.255        3953.955          36.500  
G 4  24315041.279    -8510819.842         750.811          36.250  
G19  20469491.058   -30647142.045         841.357          46.500  
G 2  22681131.323   -15064350.649        1293.311          43.250  
C 3  36202767.566   -20404452.2922        291.875          43.750  
C14  23203316.211   -10062999.8322      -1102.764          43.500  
C 2  37239137.812   -19746857.2812        324.082          39.750  
G23  23623060.817   -10969130.709        2197.793          40.000  
C 1  37666080.545   -20176326.8802        277.100          41.500  
C27  24446747.827   -11679151.1362       2213.262          41.750  
C 4  38584680.651   -20460227.4382        274.287          38.500  
C 5  39255535.618   -19872400.3882        313.008          36.250  
C11  25931994.544    -1853967.9482      -1428.301          36.000  
C 7  37050767.667   -40062377.8852      -1014.111          41.250  
G 9  23496288.178   -13745739.328        2061.777          38.750  
C10  36239795.898   -28962500.5682       -614.922          42.750  
G28  21939988.380   -23740357.482       -2615.752          41.750  
G 6  21043327.788   -23694560.164         156.768          46.750  
C 8  36761897.234   -21780855.3422       -131.484          43.500  
> 2020  6  5  7 59  4.0000000  0 25                     
G12  23874155.542    -7510388.061        3295.068          39.000  
G 3  25100459.979    -7180045.192       -3254.268          36.250  
C13  36778400.376   -21820431.0492          6.699          45.000  
G17  20960416.027   -25395297.472         120.801          46.000  
C23  26071065.834   -11175945.3632      -2278.184          36.500  
C28  22298373.431   -23417878.5422        788.545          48.250  
G 5  23944334.245    -9979685.984        3953.613          36.750  
G 4  24314898.396    -8511570.293         750.283          36.250  
G19  20469330.935   -30647983.106         840.938          46.250  
G 2  22680885.188   -15065643.813        1293.135          43.250  
C 3  36202711.358   -20404744.0642        291.797          43.750  
C14  23203527.847   -10061896.6252      -1103.379          43.500  
C 2  37239075.724   -19747181.2712        323.965          39.750  
G23  23622642.709   -10971328.155        2197.412          40.250  
C 1  37666027.409   -20176603.8232        276.943          41.500  
C27  24446322.635   -11681364.3492       2213.213          41.750  
C 4  38584627.916   -20460501.6532        274.209          38.500  
C 5  39255475.414   -19872713.2082        312.773          36.250  
C11  25932268.948    -1852539.5062      -1428.467          36.000  
C 7  37050962.290   -40061363.5892      -1014.355          41.250  
G 9  23495895.810   -13747800.771        2061.328          39.000  
C10  36239914.036   -28961885.4542       -615.205          42.750  
G28  21940486.200   -23737741.410       -2616.201          41.750  
G 6  21043297.704   -23694716.724         156.484          46.750  
C 8  36761922.450   -21780723.7442       -131.562          43.500  
> 2020  6  5  7 59  5.0000000  0 25                     
G12  23873528.800    -7513682.853        3294.707          38.750  
G 3  25101079.304    -7176790.976       -3254.141          36.250  
C13  36778399.085   -21820437.8342          6.855          45.000  
G17  20960392.801   -25395418.117         120.605          46.000  
C23  26071503.189   -11173667.2992      -2278.008          36.500  
C28  22298222.033   -23418667.0582        788.574          48.250  
G 5  23943581.705    -9983639.613        3953.711          36.750  
G 4  24314755.828    -8512320.315         749.912          36.250  
G19  20469171.056   -30648823.896         840.781          46.250  
G 2  22680639.262   -15066936.862        1293.066          43.250  
C 3  36202655.483   -20405035.9112        291.953          43.750  
C14  23203739.780   -10060792.9902      -1103.682          43.500  
C 2  37239013.427   -19747505.2922        324.111          39.750  
G23  23622224.515   -10973525.525        2197.422          40.000  
C 1  37665974.343   -20176880.8332        277.070          41.500  
C27  24445897.757   -11683577.6582       2213.418          41.750  
C 4  38584575.461   -20460775.9512        274.385          38.500  
C 5  39255415.263   -19873026.1242        313.027          36.250  
C11  25932543.370    -1851111.0232      -1428.418          36.000  
C 7  37051156.964   -40060349.2492      -1014.297          41.250  
G 9  23495503.442   -13749862.013        2061.279          39.000  
C10  36240032.226   -28961270.2442       -615.166          42.750  
G28  21940984.002   -23735125.066       -2616.367          41.750  
G 6  21043267.846   -23694873.153         156.465          46.750  
C 8  36761947.735   -21780592.2562       -131.357          43.500  
> 2020  6  5  7 59  6.0000000  0 25                     
G12  23872901.936    -7516977.404        3294.492          39.000  
G 3  25101698.613    -7173536.745       -3254.219          36.500  
C13  36778397.636   -21820444.7112          7.002          45.000  
G17  20960369.906   -25395538.537         120.420          46.000  
C23  26071940.613   -11171389.4752      -2277.676          36.500  
C28  22298070.338   -23419455.5752        788.584          48.250  
G 5  23942829.513    -9987593.183        3953.584          36.750  
G 4  24314613.260    -8513069.985         749.609          36.250  
G19  20469011.003   -30649664.454         840.557          46.250  
G 2  22680392.952   -15068229.916        1293.135          43.250  
C 3  36202599.415   -20405327.8362        292.002          43.750  
C14  23203951.905   -10059688.9472      -1104.092          43.500  
C 2  37238951.042   -19747829.4092        324.248          39.750  
G23  23621806.321   -10975722.818        2197.363          40.000  
C 1  37665921.050   -20177157.9332        277.207          41.500  
C27  24445472.774   -11685791.1052       2213.545          41.750  
C 4  38584522.726   -20461050.3202        274.482          38.500  
C 5  39255355.200   -19873339.1092        313.027          36.250  
C11  25932817.845    -1849682.4912      -1428.496          35.750  
C 7  37051351.970   -40059334.8652      -1014.336          41.250  
G 9  23495111.283   -13751923.054        2061.016          39.000  
C10  36240150.347   -28960654.9812       -615.205          42.750  
G28  21941481.822   -23732508.479       -2616.611          41.500  
G 6  21043238.006   -23695029.477         156.377          46.750  
C 8  36761972.898   -21780460.8912       -131.260          43.500  
> 2020  6  5  7 59  7.0000000  0 25                     
G12  23872275.037    -7520271.587        3294.111          40.000  
G 3  25102317.816    -7170282.434       -3254.326          36.500  
C13  36778396.031   -21820451.6002          6.934          45.000  
G17  20960347.291   -25395658.665         120.146          46.250  
C23  26072377.951   -11169111.8332      -2277.480          36.500  
C28  22297919.010   -23420243.9892        788.447          48.250  
G 5  23942077.356    -9991546.648        3953.486          36.500  
G 4  24314470.726    -8513819.179         749.062          36.000  
G19  20468851.176   -30650504.715         840.254          46.500  
G 2  22680146.852   -15069522.824        1292.920          43.250  
C 3  36202543.452   -20405619.7782        291.982          43.750  
C14  23204164.082   -10058584.4352      -1104.600          43.500  
C 2  37238888.867   -19748153.5592        324.229          39.750  
G23  23621388.178   -10977920.004        2197.158          40.000  
C 1  37665867.810   -20177435.0462        277.188          41.500  
C27  24445047.635   -11688004.5812       2213.545          41.750  
C 4  38584470.062   -20461324.7102        274.395          38.500  
C 5  39255295.206   -19873652.1072        313.047          36.250  
C11  25933092.005    -1848253.8742      -1428.555          35.750  
C 7  37051546.697   -40058320.4102      -1014.443          41.250  
G 9  23494719.037   -13753983.798        2060.693          39.000  
C10  36240268.607   -28960039.5722       -615.391          42.750  
G28  21941979.747   -23729891.575       -2616.865          41.500  
G 6  21043208.341   -23695185.628         156.152          46.750  
C 8  36761998.236   -21780329.6132       -131.152          43.500  
> 2020  6  5  7 59  8.0000000  0 25                     
G12  23871648.295    -7523565.472        3293.789          39.250  
G 3  25102937.142    -7167028.050       -3254.316          36.500  
C13  36778394.391   -21820458.5442          6.992          45.000  
G17  20960324.571   -25395778.521         119.844          46.250  
C23  26072815.532   -11166834.3612      -2277.314          36.500  
C28  22297767.734   -23421032.3352        788.350          48.250  
G 5  23941324.903    -9995499.950        3953.252          36.750  
G 4  24314327.966    -8514567.940         748.564          36.000  
G19  20468691.298   -30651344.689         839.883          46.500  
G 2  22679901.118   -15070815.646        1292.842          43.250  
C 3  36202487.228   -20405911.7482        292.012          43.750  
C14  23204376.312   -10057479.4582      -1105.098          43.500  
C 2  37238826.587   -19748477.6912        324.258          39.750  
G23  23620970.473   -10980117.062        2197.109          40.000  
C 1  37665814.656   -20177712.2082        277.236          41.250  
C27  24444622.512   -11690218.1392       2213.604          41.750  
C 4  38584417.222   -20461599.1362        274.453          38.500  
C 5  39255234.811   -19873965.1582        313.096          36.000  
C11  25933366.427    -1846825.1732      -1428.662          35.750  
C 7  37051741.546   -40057305.9012      -1014.502          41.250  
G 9  23494327.018   -13756044.280        2060.391          39.000  
C10  36240386.919   -28959424.0362       -615.537          42.750  
G28  21942477.776   -23727274.378       -2617.285          41.500  
G 6  21043178.833   -23695341.628         155.967          46.750  
C 8  36762023.417   -21780198.4122       -131.123          43.500  
> 2020  6  5  7 59  9.0000000  0 25                     
G12  23871021.431    -7526858.947        3293.291          39.250  
G 3  25103556.468    -7163773.537       -3254.580          36.750  
C13  36778393.134   -21820465.4562          6.865          45.000  
G17  20960301.711   -25395898.027         119.434          46.250  
C23  26073252.957   -11164556.9842      -2277.373          36.250  
C28  22297616.284   -23421820.5472        788.174          48.250  
G 5  23940572.589    -9999453.085        3953.076          36.750  
G 4  24314185.660    -8515316.199         748.027          36.000  
G19  20468531.576   -30652184.316         839.531          46.500  
G 2  22679655.035   -15072108.303        1292.666          43.250  
C 3  36202431.317   -20406203.6962        292.012          43.750  
C14  23204588.559   -10056373.9782      -1105.605          43.500  
C 2  37238764.482   -19748801.8502        324.170          39.750  
G23  23620552.418   -10982313.915        2196.836          40.000  
C 1  37665761.433   -20177989.3112        277.119          41.250  
C27  24444197.547   -11692431.7162       2213.604          41.750  
C 4  38584364.400   -20461873.5192        274.326          38.500  
C 5  39255174.677   -19874278.1432        312.969          36.000  
C11  25933640.745    -1845396.3022      -1428.828          35.750  
C 7  37051936.361   -40056291.2072      -1014.727          41.250  
G 9  23493935.173   -13758104.421        2060.000          39.000  
C10  36240505.214   -28958808.3062       -615.811          42.750  
G28  21942975.945   -23724656.822       -2617.646          41.750  
G 6  21043149.080   -23695497.407         155.723          46.750  
C 8  36762048.737   -21780067.2312       -131.182          43.500  
> 2020  6  5  7 59 10.0000000  0 25                     
G12  23870394.444    -7530152.053        3293.115          39.250  
G 3  25104175.933    -7160518.902       -3254.658          36.500  
C13  36778391.895   -21820472.3562          6.914          45.000  
G17  20960279.340   -25396017.180         119.062          46.000  
C23  26073690.050   -11162279.7452      -2277.041          36.250  
C28  22297464.816   -23422608.6032        788.018          48.250  
G 5  23939820.607   -10003406.033        3952.891          36.750  
G 4  24314043.388    -8516063.948         747.598          35.750  
G19  20468371.662   -30653023.567         839.160          46.250  
G 2  22679409.126   -15073400.768        1292.383          43.250  
C 3  36202375.075   -20406495.5792        291.914          43.750  
C14  23204800.998   -10055267.9552      -1106.143          43.500  
C 2  37238702.167   -19749125.9172        324.053          39.750  
G23  23620134.398   -10984510.579        2196.680          39.750  
C 1  37665708.350   -20178266.3812        277.051          41.250  
C27  24443772.495   -11694645.2552       2213.574          41.750  
C 4  38584311.666   -20462147.8532        274.287          38.500  
C 5  39255114.491   -19874591.1212        312.959          36.000  
C11  25933915.062    -1843967.3142      -1428.857          35.500  
C 7  37052131.070   -40055276.3792      -1014.844          41.250  
G 9  23493543.381   -13760164.242        2059.717          39.250  
C10  36240623.492   -28958192.4082       -615.938          42.750  
G28  21943474.271   -23722038.878       -2618.027          41.750  
G 6  21043119.415   -23695652.958         155.518          46.750  
C 8  36762073.760   -21779936.0702       -131.094          43.500  
> 2020  6  5  7 59 11.0000000  0 25                     
G12  23869767.667    -7533444.714        3292.549          39.000  
G 3  25104795.346    -7157264.129       -3254.814          36.500  
C13  36778390.621   -21820479.2432          6.895          45.000  
G17  20960256.655   -25396135.986         118.691          46.000  
C23  26074127.178   -11160002.5792      -2277.080          36.500  
C28  22297313.592   -23423396.5242        787.881          48.250  
G 5  23939068.345   -10007358.764        3952.686          36.750  
G 4  24313900.977    -8516811.226         747.031          36.000  
G19  20468211.940   -30653862.470         838.779          46.250  
G 2  22679163.270   -15074693.072        1292.207          43.250  
C 3  36202319.252   -20406787.4262        291.826          43.750  
C14  23205013.454   -10054161.4122      -1106.719          43.250  
C 2  37238639.818   -19749449.9772        324.072          39.750  
G23  23619716.273   -10986707.034        2196.406          39.750  
C 1  37665655.301   -20178543.4252        276.963          41.500  
C27  24443347.495   -11696858.8422       2213.594          42.000  
C 4  38584259.158   -20462422.1442        274.238          38.500  
C 5  39255054.567   -19874904.0232        312.852          36.000  
C11  25934189.240    -1842538.1172      -1429.326          35.750  
C 7  37052325.832   -40054261.4292      -1015.068          41.250  
G 9  23493151.571   -13762223.737        2059.346          39.250  
C10  36240741.595   -28957576.3032       -616.172          42.750  
G28  21943972.579   -23719420.588       -2618.418          41.750  
G 6  21043089.767   -23695808.288         155.254          46.500  
C 8  36762098.976   -21779804.9402       -131.123          43.500  
> 2020  6  5  7 59 12.0000000  0 25                     
G12  23869141.013    -7536737.072        3292.412          39.000  
G 3  25105414.933    -7154009.225       -3254.902          36.750  
C13  36778389.278   -21820486.1392          6.992          45.000  
G17  20960234.109   -25396254.499         118.506          46.000  
C23  26074564.253   -11157725.5702      -2276.904          36.250  
C28  22297162.351   -23424184.3442        787.861          48.250  
G 5  23938316.468   -10011311.369        3952.568          36.750  
G 4  24313758.915    -8517557.991         746.719          36.250  
G19  20468052.463   -30654701.052         838.564          46.250  
G 2  22678917.135   -15075985.252        1292.188          43.250  
C 3  36202263.097   -20407079.2722        291.895          43.750  
C14  23205226.120   -10053054.3802      -1107.090          43.250  
C 2  37238577.677   -19749774.0172        324.150          39.750  
G23  23619298.323   -10988903.347        2196.328          40.000  
C 1  37665602.043   -20178820.4922        277.188          41.250  
C27  24442922.355   -11699072.4322       2213.711          42.000  
C 4  38584206.336   -20462696.4802        274.355          38.500  
C 5  39254994.626   -19875216.9242        312.891          36.000  
C11  25934463.680    -1841108.8262      -1429.229          35.750  
C 7  37052520.803   -40053246.3742      -1014.990          41.250  
G 9  23492759.797   -13764282.925        2059.170          39.000  
C10  36240860.169   -28956960.0612       -616.191          42.750  
G28  21944471.027   -23716801.969       -2618.652          41.750  
G 6  21043060.363   -23695963.426         155.176          46.750  
C 8  36762124.174   -21779673.8552       -131.025          43.500  
> 2020  6  5  7 59 13.0000000  0 25                     
G12  23868514.672    -7540029.125        3291.963          39.250  
G 3  25106034.433    -7150754.352       -3254.922          36.750  
C13  36778387.986   -21820493.1242          6.992          45.000  
G17  20960211.476   -25396372.778         118.184          46.000  
C23  26075001.259   -11155448.7792      -2276.729          36.250  
C28  22297011.005   -23424972.1322        787.754          48.250  
G 5  23937564.346   -10015263.927        3952.549          36.750  
G 4  24313616.940    -8518304.366         746.182          36.000  
G19  20467893.002   -30655539.394         838.271          46.500  
G 2  22678671.244   -15077277.389        1292.090          43.250  
C 3  36202207.187   -20407371.2032        291.885          43.750  
C14  23205438.681   -10051946.9262      -1107.617          43.250  
C 2  37238515.555   -19750098.1392        324.131          39.750  
G23  23618880.425   -10991099.588        2196.240          40.000  
C 1  37665548.890   -20179097.6122        277.139          41.500  
C27  24442497.530   -11701286.1382       2213.691          41.750  
C 4  38584153.567   -20462970.8592        274.316          38.250  
C 5  39254934.667   -19875529.9562        312.959          36.000  
C11  25934738.259    -1839679.4922      -1429.395          36.000  
C 7  37052715.792   -40052231.2712      -1015.146          41.250  
G 9  23492368.074   -13766341.912        2058.936          39.000  
C10  36240978.412   -28956343.7232       -616.377          42.750  
G28  21944969.370   -23714183.110       -2618.955          41.750  
G 6  21043030.803   -23696118.452         154.961          46.500  
C 8  36762149.302   -21779542.9232       -130.957          43.500  
> 2020  6  5  7 59 14.0000000  0 25                     
G12  23867888.279    -7543320.871        3291.562          39.000  
G 3  25106653.759    -7147499.386       -3255.107          37.000  
C13  36778386.695   -21820500.1522          6.904          45.000  
G17  20960189.000   -25396490.796         117.822          46.000  
C23  26075438.300   -11153172.2082      -2276.709          36.250  
C28  22296859.607   -23425759.8632        787.578          48.250  
G 5  23936812.085   -10019216.322        3952.178          36.750  
G 4  24313475.174    -8519050.340         745.811          36.000  
G19  20467733.525   -30656377.467         837.822          46.500  
G 2  22678425.510   -15078569.413        1291.885          43.250  
C 3  36202151.102   -20407663.1712        291.826          43.750  
C14  23205651.312   -10050839.0382      -1108.154          43.250  
C 2  37238453.379   -19750422.3082        324.072          39.750  
G23  23618462.597   -10993295.709        2195.947          40.000  
C 1  37665495.440   -20179374.7832        277.051          41.500  
C27  24442072.303   -11703499.9432       2213.682          41.750  
C 4  38584101.007   -20463245.2752        274.297          38.500  
C 5  39254874.481   -19875843.0082        312.910          36.250  
C11  25935012.908    -1838250.1162      -1429.434          36.000  
C 7  37052910.816   -40051216.1252      -1015.332          41.250  
G 9  23491976.072   -13768400.649        2058.584          39.000  
C10  36241096.777   -28955727.2932       -616.602          42.750  
G28  21945467.731   -23711563.958       -2619.365          41.500  
G 6  21043000.998   -23696273.348         154.717          46.500  
C 8  36762174.378   -21779412.0702       -130.947          43.500  
> 2020  6  5  7 59 15.0000000  0 25                     
G12  23867262.183    -7546612.216        3291.279          39.000  
G 3  25107273.155    -7144244.293       -3255.000          36.750  
C13  36778385.317   -21820507.1562          7.070          45.000  
G17  20960166.734   -25396608.445         117.607          46.000  
C23  26075875.323   -11150895.7012      -2276.387          36.500  
C28  22296708.506   -23426547.4352        787.598          48.000  
G 5  23936059.841   -10023168.534        3952.197          36.750  
G 4  24313333.374    -8519795.779         745.361          36.250  
G19  20467574.187   -30657215.165         837.646          46.500  
G 2  22678179.881   -15079861.269        1291.904          43.250  
C 3  36202095.069   -20407955.0882        291.982          43.750  
C14  23205864.222   -10049730.6102      -1108.516          43.250  
C 2  37238391.204   -19750746.4052        324.160          39.750  
G23  23618044.560   -10995491.623        2195.869          40.000  
C 1  37665442.269   -20179651.8962        277.178          41.500  
C27  24441647.006   -11705713.7232       2213.818          42.000  
C 4  38584048.377   -20463519.6872        274.570          38.500  
C 5  39254814.365   -19876156.0032        313.037          36.250  
C11  25935287.365    -1836820.5272      -1429.521          36.250  
C 7  37053105.857   -40050200.8022      -1015.293          41.500  
G 9  23491584.332   -13770459.032        2058.320          39.000  
C10  36241215.072   -28955110.6652       -616.631          42.750  
G28  21945965.795   -23708944.418       -2619.609          41.500  
G 6  21042971.751   -23696428.007         154.688          46.750  
C 8  36762199.542   -21779281.2182       -130.840          43.500  
> 2020  6  5  7 59 16.0000000  0 25                     
G12  23866635.894    -7549903.255        3291.045          39.250  
G 3  25107892.480    -7140989.165       -3255.234          37.000  
C13  36778383.921   -21820514.2172          7.090          45.000  
G17  20960144.258   -25396725.861         117.305          46.000  
C23  26076312.643   -11148619.4292      -2276.260          36.250  
C28  22296557.125   -23427334.9712        787.500          48.000  
G 5  23935307.684   -10027120.688        3952.119          36.750  
G 4  24313191.399    -8520540.836         744.951          36.000  
G19  20467414.779   -30658052.610         837.324          46.250  
G 2  22677934.077   -15081153.034        1291.748          43.250  
C 3  36202038.914   -20408247.0632        291.963          43.750  
C14  23206077.324   -10048621.7562      -1109.004          43.500  
C 2  37238328.855   -19751070.5842        324.180          39.750  
G23  23617626.540   -10997687.449        2195.771          39.750  
C 1  37665389.115   -20179929.0782        277.188          41.250  
C27  24441221.901   -11707927.6272       2213.896          41.750  
C 4  38583995.660   -20463794.0912        274.365          38.500  
C 5  39254754.197   -19876469.0792        313.027          36.000  
C11  25935562.101    -1835390.9152      -1429.648          36.250  
C 7  37053300.915   -40049185.4662      -1015.381          41.250  
G 9  23491192.575   -13772517.187        2058.125          39.000  
C10  36241333.454   -28954493.9332       -616.797          42.500  
G28  21946464.121   -23706324.623       -2619.932          41.500  
G 6  21042942.417   -23696582.528         154.492          46.750  
C 8  36762224.635   -21779150.4842       -130.791          43.500  
> 2020  6  5  7 59 17.0000000  0 25                     
G12  23866009.536    -7553193.764        3290.312          39.500  
G 3  25108512.068    -7137733.780       -3255.518          36.750  
C13  36778382.437   -21820521.1512          6.904          45.000  
G17  20960122.427   -25396842.809         116.855          46.000  
C23  26076749.946   -11146343.1542      -2276.289          36.500  
C28  22296405.989   -23428122.2422        787.197          48.000  
G 5  23934555.684   -10031072.501        3951.729          36.750  
G 4  24313049.965    -8521285.227         744.248          36.250  
G19  20467255.337   -30658889.579         836.846          46.250  
G 2  22677687.976   -15082444.539        1291.475          43.250  
C 3  36201983.091   -20408538.8922        291.777          43.750  
C14  23206290.408   -10047512.2582      -1109.717          43.250  
C 2  37238266.488   -19751394.6062        324.023          39.750  
G23  23617208.747   -10999882.961        2195.439          39.750  
C 1  37665335.962   -20180206.1102        277.002          41.500  
C27  24440796.831   -11710141.3992       2213.818          41.750  
C 4  38583942.856   -20464068.3942        274.229          38.500  
C 5  39254694.203   -19876781.9792        312.861          36.000  
C11  25935836.733    -1833961.0012      -1429.932          36.250  
C 7  37053495.974   -40048169.8642      -1015.684          41.250  
G 9  23490800.940   -13774574.884        2057.598          39.000  
C10  36241451.749   -28953876.9012       -617.090          42.500  
G28  21946962.569   -23703704.346       -2620.449          41.250  
G 6  21042913.083   -23696736.713         154.111          46.750  
C 8  36762249.641   -21779019.6622       -130.850          43.500  
> 2020  6  5  7 59 18.0000000  0 25                     
G12  23865383.806    -7556483.901        3290.098          39.500  
G 3  25109131.498    -7134478.255       -3255.557          36.500  
C13  36778381.251   -21820528.0472          6.904          45.000  
G17  20960100.126   -25396959.375         116.436          46.000  
C23  26077186.986   -11144066.9452      -2276.172          36.750  
C28  22296254.852   -23428909.3612        787.070          48.000  
G 5  23933803.894   -10035024.099        3951.543          37.000  
G 4  24312908.496    -8522029.106         743.789          36.250  
G19  20467096.208   -30659726.160         836.465          46.250  
G 2  22677442.173   -15083735.802        1291.162          43.250  
C 3  36201926.919   -20408830.6422        291.816          43.750  
C14  23206503.720   -10046402.2092      -1110.195          43.250  
C 2  37238203.998   -19751718.5442        323.916          39.750  
G23  23616790.831   -11002078.252        2195.234          39.750  
C 1  37665282.809   -20180483.0802        277.031          41.250  
C27  24440371.884   -11712355.1592       2213.779          41.750  
C 4  38583890.191   -20464342.6082        274.248          38.500  
C 5  39254634.192   -19877094.8192        312.852          36.000  
C11  25936111.242    -1832530.9222      -1430.078          36.000  
C 7  37053690.893   -40047154.0752      -1015.840          41.250  
G 9  23490409.601   -13776632.229        2057.305          39.000  
C10  36241570.341   -28953259.6602       -617.295          42.750  
G28  21947461.261   -23701083.657       -2620.781          41.250  
G 6  21042883.645   -23696890.641         153.887          46.750  
C 8  36762274.682   -21778888.8182       -130.840          43.250  
> 2020  6  5  7 59 19.0000000  0 25                     
G12  23864757.780    -7559773.774        3289.971          39.500  
G 3  25109751.173    -7131222.698       -3255.547          36.500  
C13  36778380.169   -21820535.0432          7.119          45.000  
G17  20960078.052   -25397075.754         116.426          46.250  
C23  26077623.957   -11141791.0052      -2275.811          36.500  
C28  22296103.594   -23429696.4622        787.178          48.250  
G 5  23933052.226   -10038975.641        3951.709          37.000  
G 4  24312767.166    -8522772.620         743.496          36.250  
G19  20466937.079   -30660562.540         836.406          46.500  
G 2  22677196.509   -15085027.094        1291.387          43.250  
C 3  36201870.869   -20409122.4912        291.982          43.750  
C14  23206716.997   -10045291.7742      -1110.449          43.500  
C 2  37238141.771   -19752042.6232        324.180          39.750  
G23  23616372.864   -11004273.502        2195.264          39.750  
C 1  37665229.690   -20180760.1562        277.207          41.500  
C27  24439946.814   -11714569.0312       2213.975          41.750  
C 4  38583837.526   -20464616.9512        274.443          38.500  
C 5  39254574.215   -19877407.7302        313.008          36.000  
C11  25936385.821    -1831100.8462      -1430.020          36.000  
C 7  37053886.178   -40046138.3272      -1015.596          41.250  
G 9  23490018.193   -13778689.391        2057.168          39.250  
C10  36241688.810   -28952642.3452       -617.246          42.750  
G28  21947959.971   -23698462.766       -2620.850          41.250  
G 6  21042854.765   -23697044.503         153.926          46.750  
C 8  36762299.880   -21778758.1372       -130.547          43.500  
> 2020  6  5  7 59 20.0000000  0 25                     
G12  23864131.840    -7563063.367        3289.648          39.500  
G 3  25110370.621    -7127967.188       -3255.439          36.500  
C13  36778378.668   -21820542.1862          7.305          44.750  
G17  20960056.012   -25397191.932         116.260          46.000  
C23  26078061.277   -11139515.3302      -2275.479          36.250  
C28  22295952.353   -23430483.5802        787.246          48.000  
G 5  23932300.470   -10042927.167        3951.699          37.000  
G 4  24312625.959    -8523515.770         743.135          36.250  
G19  20466778.003   -30661398.704         836.201          46.500  
G 2  22676950.862   -15086318.358        1291.416          43.500  
C 3  36201814.679   -20409414.4732        292.178          43.750  
C14  23206930.308   -10044180.9652      -1110.801          43.500  
C 2  37238079.631   -19752366.7952        324.424          39.750  
G23  23615955.071   -11006468.716        2195.361          39.750  
C 1  37665176.502   -20181037.3402        277.285          41.500  
C27  24439521.377   -11716783.0912       2214.248          41.750  
C 4  38583784.844   -20464891.3742        274.541          38.500  
C 5  39254514.099   -19877720.8192        313.184          36.000  
C11  25936660.330    -1829670.7532      -1429.961          36.250  
C 7  37054081.184   -40045122.5512      -1015.615          41.250  
G 9  23489626.610   -13780746.367        2057.070          39.500  
C10  36241807.681   -28952024.9832       -617.217          42.750  
G28  21948458.681   -23695841.658       -2621.074          41.500  
G 6  21042825.326   -23697198.292         153.887          46.750  
C 8  36762324.939   -21778627.6222       -130.361          43.500  
> 2020  6  5  7 59 21.0000000  0 25                     
G12  23863505.971    -7566352.730        3289.199          39.500  
G 3  25110990.208    -7124711.665       -3255.625          36.500  
C13  36778377.412   -21820549.4292          7.168          44.750  
G17  20960033.641   -25397307.881         115.781          46.250  
C23  26078498.353   -11137239.8692      -2275.371          36.250  
C28  22295801.374   -23431270.6782        787.002          48.000  
G 5  23931548.366   -10046878.609        3951.328          36.750  
G 4  24312484.455    -8524258.571         742.627          36.250  
G19  20466619.084   -30662234.640         835.771          46.500  
G 2  22676705.041   -15087609.561        1291.152          43.250  
C 3  36201758.699   -20409706.5182        292.021          43.750  
C14  23207143.724   -10043069.7622      -1111.416          43.500  
C 2  37238017.491   -19752691.0642        324.199          39.750  
G23  23615537.487   -11008663.850        2195.029          39.750  
C 1  37665123.157   -20181314.6162        277.217          41.250  
C27  24439096.116   -11718997.2442       2214.082          41.750  
C 4  38583732.214   -20465165.9032        274.424          38.500  
C 5  39254453.879   -19878033.9592        313.096          35.750  
C11  25936935.032    -1828240.6132      -1430.273          36.250  
C 7  37054276.330   -40044106.7622      -1015.850          41.250  
G 9  23489235.446   -13782803.127        2056.562          39.500  
C10  36241926.116   -28951407.5732       -617.520          42.750  
G28  21948957.495   -23693220.307       -2621.494          41.500  
G 6  21042796.045   -23697351.980         153.574          46.750  
C 8  36762350.032   -21778497.2542       -130.420          43.500  
> 2020  6  5  7 59 22.0000000  0 25                     
G12  23862879.944    -7569641.633        3288.857          39.500  
G 3  25111609.743    -7121455.983       -3255.693          36.500  
C13  36778376.120   -21820556.6262          7.227          45.000  
G17  20960011.776   -25397423.460         115.508          46.250  
C23  26078935.393   -11134964.5102      -2275.225          36.500  
C28  22295650.255   -23432057.6102        786.943          48.000  
G 5  23930796.925   -10050829.858        3951.309          36.750  
G 4  24312343.248    -8525000.814         742.197          36.250  
G19  20466459.746   -30663070.183         835.469          46.500  
G 2  22676459.324   -15088900.570        1291.006          43.250  
C 3  36201702.492   -20409998.5022        292.031          43.750  
C14  23207357.245   -10041957.9962      -1111.865          43.500  
C 2  37237955.123   -19753015.2332        324.189          39.750  
G23  23615119.729   -11010858.769        2194.863          39.750  
C 1  37665069.794   -20181591.8282        277.227          41.250  
C27  24438670.959   -11721211.3882       2214.150          41.750  
C 4  38583679.392   -20465440.3822        274.551          38.500  
C 5  39254393.867   -19878347.0302        313.086          36.250  
C11  25937209.646    -1826810.3072      -1430.342          36.250  
C 7  37054471.581   -40043090.7862      -1016.006          41.500  
G 9  23488843.898   -13784859.546        2056.387          39.500  
C10  36242044.568   -28950789.9502       -617.637          42.750  
G28  21949456.746   -23690598.554       -2621.816          41.500  
G 6  21042766.903   -23697505.408         153.359          46.750  
C 8  36762374.986   -21778366.8802       -130.332          43.500  
> 2020  6  5  7 59 23.0000000  0 25                     
G12  23862254.127    -7572930.172        3288.496          39.500  
G 3  25112229.051    -7118200.211       -3255.771          36.250  
C13  36778374.846   -21820563.8292          7.227          45.000  
G17  20959989.876   -25397538.725         115.186          46.000  
C23  26079372.190   -11132689.2732      -2275.137          36.500  
C28  22295499.206   -23432844.4332        786.816          48.000  
G 5  23930045.117   -10054780.884        3950.977          36.750  
G 4  24312201.954    -8525742.565         741.621          36.250  
G19  20466300.775   -30663905.409         835.127          46.500  
G 2  22676213.782   -15090191.457        1290.879          43.250  
C 3  36201646.546   -20410290.4862        291.982          43.750  
C14  23207570.679   -10040845.7452      -1112.373          43.500  
C 2  37237892.913   -19753339.4442        324.297          39.750  
G23  23614701.953   -11013053.528        2194.795          39.750  
C 1  37665016.640   -20181869.0522        277.207          41.500  
C27  24438245.627   -11723425.5792       2214.219          41.750  
C 4  38583626.658   -20465714.8212        274.443          38.500  
C 5  39254333.769   -19878660.1192        313.037          36.250  
C11  25937484.487    -1825379.8952      -1430.361          36.250  
C 7  37054666.639   -40042074.7262      -1016.104          41.500  
G 9  23488452.664   -13786915.648        2056.055          39.500  
C10  36242163.072   -28950172.1912       -617.764          42.750  
G28  21949955.665   -23687976.487       -2622.188          41.750  
G 6  21042737.552   -23697658.661         153.203          46.500  
C 8  36762400.114   -21778236.5542       -130.312          43.500  
> 2020  6  5  7 59 24.0000000  0 25                     
G12  23861628.502    -7576218.243        3288.057          39.750  
G 3  25112848.883    -7114944.198       -3256.055          36.500  
C13  36778373.590   -21820570.8972          7.109          45.000  
G17  20959968.220   -25397653.566         114.795          46.250  
C23  26079809.056   -11130414.0672      -2275.117          36.500  
C28  22295348.139   -23433631.0372        786.611          48.000  
G 5  23929292.786   -10058731.717        3950.918          36.750  
G 4  24312060.816    -8526483.752         741.104          36.250  
G19  20466142.030   -30664740.200         834.756          46.500  
G 2  22675968.048   -15091482.073        1290.625          43.000  
C 3  36201590.479   -20410582.3532        291.895          43.750  
C14  23207784.339   -10039732.8892      -1112.930          43.500  
C 2  37237830.529   -19753663.5242        324.150          39.750  
G23  23614284.352   -11015247.990        2194.521          39.750  
C 1  37664963.487   -20182146.1302        277.148          41.500  
C27  24437820.732   -11725639.6812       2214.180          41.750  
C 4  38583573.975   -20465989.1822        274.473          38.500  
C 5  39254273.635   -19878973.0852        313.076          36.000  
C11  25937759.328    -1823949.2412      -1430.615          36.500  
C 7  37054861.855   -40041058.4472      -1016.309          41.250  
G 9  23488061.482   -13788971.341        2055.615          39.500  
C10  36242281.873   -28949554.1172       -618.018          42.750  
G28  21950455.003   -23685353.988       -2622.578          41.750  
G 6  21042708.427   -23697811.611         152.939          46.750  
C 8  36762424.963   -21778106.1822       -130.303          43.500  
> 2020  6  5  7 59 25.0000000  0 25                     
G12  23861002.737    -7579505.983        3287.793          39.500  
G 3  25113468.575    -7111688.142       -3255.977          36.250  
C13  36778371.967   -21820578.0362          7.256          45.000  
G17  20959946.180   -25397768.137         114.629          46.250  
C23  26080245.922   -11128139.0582      -2274.883          36.500  
C28  22295196.916   -23434417.5652        786.621          48.000  
G 5  23928540.594   -10062682.375        3950.703          36.500  
G 4  24311919.731    -8527224.524         740.732          36.250  
G19  20465983.565   -30665574.706         834.561          46.500  
G 2  22675722.558   -15092772.609        1290.605          43.250  
C 3  36201534.516   -20410874.2472        292.021          43.750  
C14  23207998.157   -10038619.5712      -1113.301          43.500  
C 2  37237768.319   -19753987.6202        324.219          39.750  
G23  23613866.960   -11017442.342        2194.424          39.750  
C 1  37664910.107   -20182423.2802        277.256          41.500  
C27  24437395.540   -11727853.8512       2214.316          41.750  
C 4  38583521.572   -20466263.5602        274.521          38.500  
C 5  39254213.432   -19879286.0782        313.164          36.000  
C11  25938034.029    -1822518.4912      -1430.625          36.500  
C 7  37055057.070   -40040042.0852      -1016.250          41.250  
G 9  23487670.371   -13791026.791        2055.479          39.250  
C10  36242400.657   -28948935.9762       -618.105          42.750  
G28  21950954.463   -23682731.220       -2622.734          41.750  
G 6  21042679.408   -23697964.401         152.852          46.750  
C 8  36762449.900   -21777975.9002       -130.176          43.250  
> 2020  6  5  7 59 26.0000000  0 25                     
G12  23860377.077    -7582793.479        3287.549          39.750  
G 3  25114088.302    -7108432.086       -3255.986          36.250  
C13  36778370.693   -21820585.3222          7.441          45.000  
G17  20959924.455   -25397882.510         114.443          46.000  
C23  26080682.631   -11125864.3062      -2274.551          36.750  
C28  22295045.884   -23435204.1022        786.650          48.000  
G 5  23927788.647   -10066633.032        3950.752          36.500  
G 4  24311778.908    -8527964.909         740.420          36.250  
G19  20465824.803   -30666409.000         834.346          46.500  
G 2  22675477.086   -15094063.111        1290.596          43.250  
C 3  36201478.343   -20411166.2562        292.168          43.750  
C14  23208212.253   -10037505.8812      -1113.691          43.500  
C 2  37237706.161   -19754311.8762        324.434          39.750  
G23  23613449.516   -11019636.686        2194.492          40.000  
C 1  37664856.866   -20182700.5182        277.373          41.500  
C27  24436970.348   -11730068.1592       2214.473          42.000  
C 4  38583468.977   -20466538.0552        274.658          38.500  
C 5  39254153.281   -19879599.2112        313.311          36.000  
C11  25938308.940    -1821087.7492      -1430.586          36.500  
C 7  37055252.356   -40039025.7362      -1016.240          41.250  
G 9  23487279.486   -13793082.034        2055.195          39.000  
C10  36242519.545   -28948317.7562       -618.096          42.750  
G28  21951453.889   -23680108.215       -2622.910          41.750  
G 6  21042650.475   -23698117.127         152.842          46.750  
C 8  36762474.976   -21777845.7692       -129.971          43.500  
> 2020  6  5  7 59 27.0000000  0 25                     
G12  23859751.591    -7586080.629        3287.051          39.750  
G 3  25114707.785    -7105175.950       -3256.240          36.500  
C13  36778369.105   -21820592.6052          7.285          45.000  
G17  20959902.747   -25397996.564         113.896          46.000  
C23  26081119.742   -11123589.7282      -2274.580          36.500  
C28  22294895.027   -23435990.5302        786.367          48.000  
G 5  23927036.455   -10070583.475        3950.352          36.500  
G 4  24311638.102    -8528704.840         739.854          36.250  
G19  20465665.918   -30667242.974         833.828          46.500  
G 2  22675231.649   -15095353.498        1290.283          43.250  
C 3  36201422.293   -20411458.2662        291.982          43.750  
C14  23208426.298   -10036391.7062      -1114.326          43.500  
C 2  37237644.003   -19754636.0892        324.209          39.750  
G23  23613032.054   -11021830.851        2194.072          40.000  
C 1  37664803.556   -20182977.7662        277.178          41.500  
C27  24436544.999   -11732282.5302       2214.326          41.750  
C 4  38583416.225   -20466812.5452        274.531          38.500  
C 5  39254093.025   -19879912.2862        313.066          36.000  
C11  25938583.763    -1819656.9002      -1430.869          36.500  
C 7  37055447.362   -40038009.2852      -1016.562          41.250  
G 9  23486888.043   -13795136.999        2054.824          39.000  
C10  36242638.224   -28947699.4162       -618.379          42.750  
G28  21951953.017   -23677484.884       -2623.467          42.000  
G 6  21042621.403   -23698269.652         152.461          46.750  
C 8  36762500.052   -21777715.6932       -130.059          43.500  
> 2020  6  5  7 59 28.0000000  0 25                     
G12  23859125.931    -7589367.533        3286.855          39.500  
G 3  25115327.477    -7101919.838       -3256.104          36.500  
C13  36778367.814   -21820599.9872          7.441          45.000  
G17  20959880.951   -25398110.439         113.828          46.250  
C23  26081556.538   -11121315.3752      -2274.229          36.500  
C28  22294743.960   -23436776.9782        786.475          48.000  
G 5  23926284.246   -10074533.947        3950.605          36.000  
G 4  24311497.401    -8529444.398         739.473          36.250  
G19  20465507.278   -30668076.741         833.711          46.500  
G 2  22674985.897   -15096643.863        1290.371          43.250  
C 3  36201366.051   -20411750.3812        292.168          43.750  
C14  23208640.342   -10035277.1492      -1114.639          43.500  
C 2  37237581.776   -19754960.4182        324.365          39.750  
G23  23612614.628   -11024024.973        2194.092          40.000  
C 1  37664750.158   -20183255.1332        277.432          41.250  
C27  24436119.754   -11734497.0532       2214.580          41.750  
C 4  38583363.369   -20467087.1212        274.629          38.500  
C 5  39254032.997   -19880225.5242        313.271          36.000  
C11  25938858.552    -1818226.0212      -1430.859          36.500  
C 7  37055642.612   -40036992.8362      -1016.475          41.250  
G 9  23486496.878   -13797191.791        2054.707          39.000  
C10  36242757.130   -28947081.0272       -618.340          42.750  
G28  21952452.198   -23674861.349       -2623.545          41.750  
G 6  21042592.383   -23698422.112         152.480          46.750  
C 8  36762524.796   -21777585.7872       -129.824          43.250  
> 2020  6  5  7 59 29.0000000  0 25                     
G12  23858500.533    -7592653.931        3286.211          39.750  
G 3  25115946.820    -7098663.489       -3256.416          36.500  
C13  36778366.470   -21820607.2662          7.246          45.000  
G17  20959859.610   -25398223.851         113.262          46.250  
C23  26081993.370   -11119041.0352      -2274.346          36.500  
C28  22294592.911   -23437563.1652        786.113          48.000  
G 5  23925532.403   -10078484.072        3950.000          35.750  
G 4  24311356.683    -8530183.358         738.848          36.250  
G19  20465348.639   -30668910.038         833.125          46.500  
G 2  22674740.286   -15097933.954        1289.980          43.250  
C 3  36201310.071   -20412042.3612        291.914          43.750  
C14  23208854.596   -10034161.9652      -1115.352          43.500  
C 2  37237519.496   -19755284.6032        324.082          39.750  
G23  23612197.376   -11026218.822        2193.818          40.000  
C 1  37664696.953   -20183532.3572        277.139          41.500  
C27  24435694.580   -11736711.4502       2214.365          41.750  
C 4  38583310.582   -20467361.5642        274.375          38.500  
C 5  39253972.951   -19880538.5942        313.027          36.000  
C11  25939133.428    -1816794.9112      -1431.299          36.250  
C 7  37055837.811   -40035976.1512      -1016.807          41.500  
G 9  23486105.924   -13799246.127        2054.160          39.250  
C10  36242875.914   -28946462.3112       -618.867          42.750  
G28  21952951.484   -23672237.332       -2624.180          41.750  
G 6  21042563.294   -23698574.249         152.041          46.750  
C 8  36762549.715   -21777455.8092       -130.020          43.500  
> 2020  6  5  7 59 30.0000000  0 25                     
G12  23857875.431    -7595940.056        3286.123          39.500  
G 3  25116566.408    -7095407.055       -3256.455          36.750  
C13  36778365.127   -21820614.6092          7.402          44.750  
G17  20959837.971   -25398337.001         113.096          46.000  
C23  26082430.253   -11116766.9022      -2273.975          36.750  
C28  22294441.880   -23438349.2982        786.123          48.000  
G 5  23924780.718   -10082434.130        3949.990          35.750  
G 4  24311215.842    -8530921.853         738.398          36.500  
G19  20465190.033   -30669743.070         832.979          46.500  
G 2  22674495.040   -15099223.939        1289.932          43.250  
C 3  36201253.916   -20412334.3562        292.070          43.750  
C14  23209068.972   -10033046.3342      -1115.723          43.750  
C 2  37237457.164   -19755608.8552        324.268          39.750  
G23  23611780.089   -11028412.510        2193.652          40.000  
C 1  37664643.799   -20183809.6352        277.334          41.500  
C27  24435269.318   -11738925.9402       2214.570          41.750  
C 4  38583257.865   -20467636.0632        274.531          38.500  
C 5  39253912.643   -19880851.7032        313.232          36.000  
C11  25939408.269    -1815363.6792      -1431.309          36.500  
C 7  37056033.253   -40034959.3892      -1016.729          41.250  
G 9  23485715.039   -13801300.209        2054.033          39.250  
C10  36242994.697   -28945843.5112       -618.828          42.750  
G28  21953450.752   -23669613.035       -2624.365          41.750  
G 6  21042534.326   -23698726.221         151.943          46.750  
C 8  36762574.651   -21777325.8962       -129.854          43.500  
> 2020  6  5  7 59 31.0000000  0 25                     
G12  23857250.050    -7599225.673        3285.537          39.500  
G 3  25117186.239    -7092150.462       -3256.680          36.750  
C13  36778363.521   -21820621.8502          7.197          44.750  
G17  20959816.735   -25398449.742         112.627          46.250  
C23  26082866.997   -11114492.8172      -2274.004          36.750  
C28  22294291.092   -23439135.2352        785.859          48.000  
G 5  23924029.172   -10086383.900        3949.717          35.750  
G 4  24311075.455    -8531659.849         737.803          36.500  
G19  20465031.865   -30670575.686         832.510          46.500  
G 2  22674249.586   -15100513.732        1289.697          43.250  
C 3  36201197.936   -20412626.2772        291.836          43.750  
C14  23209283.313   -10031930.1302      -1116.387          43.500  
C 2  37237395.041   -19755932.9842        324.062          39.500  
G23  23611362.383   -11030605.973        2193.291          39.750  
C 1  37664590.611   -20184086.8102        277.129          41.500  
C27  24434844.004   -11741140.3702       2214.404          41.750  
C 4  38583205.043   -20467910.4552        274.346          38.500  
C 5  39253852.579   -19881164.7552        313.125          36.000  
C11  25939683.371    -1813932.2882      -1431.484          36.500  
C 7  37056228.504   -40033942.4212      -1017.041          41.500  
G 9  23485324.329   -13803353.894        2053.535          39.500  
C10  36243113.533   -28945224.4532       -619.102          42.750  
G28  21953950.177   -23666988.335       -2624.795          41.750  
G 6  21042505.673   -23698877.929         151.602          46.750  
C 8  36762599.588   -21777195.9802       -129.961          43.500  
> 2020  6  5  7 59 32.0000000  0 25                     
G12  23856624.896    -7602511.119        3285.420          39.500  
G 3  25117806.019    -7088893.949       -3256.562          36.750  
C13  36778362.055   -21820629.2612          7.363          44.750  
G17  20959795.201   -25398562.350         112.480          46.000  
C23  26083303.846   -11112219.0302      -2273.711          36.500  
C28  22294139.973   -23439921.2262        785.947          48.000  
G 5  23923277.416   -10090333.704        3949.805          36.000  
G 4  24310935.277    -8532397.477         737.432          36.750  
G19  20464873.487   -30671408.137         832.324          46.500  
G 2  22674003.991   -15101803.541        1289.727          43.500  
C 3  36201141.659   -20412918.3542        292.051          43.750  
C14  23209497.863   -10030813.5872      -1116.719          43.750  
C 2  37237332.814   -19756257.2952        324.258          39.750  
G23  23610945.008   -11032799.447        2193.340          40.000  
C 1  37664537.388   -20184364.1412        277.344          41.500  
C27  24434418.637   -11743354.9972       2214.580          41.750  
C 4  38583152.396   -20468185.0272        274.551          38.500  
C 5  39253792.445   -19881477.9442        313.193          36.000  
C11  25939958.230    -1812500.9152      -1431.426          36.750  
C 7  37056423.806   -40032925.5332      -1017.002          41.500  
G 9  23484933.566   -13805407.482        2053.438          39.500  
C10  36243232.387   -28944605.3972       -619.111          42.500  
G28  21954449.585   -23664363.436       -2625.029          41.500  
G 6  21042476.741   -23699029.625         151.611          46.750  
C 8  36762624.681   -21777066.2712       -129.746          43.500  
> 2020  6  5  7 59 33.0000000  0 25                     
G12  23855999.620    -7605796.196        3285.000          39.500  
G 3  25118425.589    -7085637.284       -3256.719          36.750  
C13  36778360.467   -21820636.6762          7.402          44.750  
G17  20959773.842   -25398674.610         112.148          46.000  
C23  26083740.433   -11109945.3742      -2273.633          36.250  
C28  22293989.221   -23440707.0982        785.830          48.000  
G 5  23922525.713   -10094283.279        3949.492          36.000  
G 4  24310795.100    -8533134.656         736.963          36.750  
G19  20464715.178   -30672240.244         832.002          46.500  
G 2  22673758.536   -15103093.188        1289.531          43.250  
C 3  36201085.661   -20413210.4232        292.070          43.750  
C14  23209712.553   -10029696.5452      -1117.178          43.750  
C 2  37237270.464   -19756581.5752        324.209          39.500  
G23  23610527.652   -11034992.774        2193.203          39.750  
C 1  37664483.973   -20184641.4742        277.334          41.500  
C27  24433993.497   -11745569.6622       2214.648          41.750  
C 4  38583099.661   -20468459.5652        274.551          38.500  
C 5  39253732.120   -19881791.0912        313.115          36.000  
C11  25940233.263    -1811069.3922      -1431.621          36.750  
C 7  37056619.179   -40031908.5162      -1017.090          41.500  
G 9  23484542.838   -13807460.707        2053.164          39.250  
C10  36243351.362   -28943986.1802       -619.258          42.750  
G28  21954948.940   -23661738.204       -2625.342          41.500  
G 6  21042447.861   -23699181.098         151.445          46.750  
C 8  36762649.652   -21776936.5932       -129.697          43.500  
> 2020  6  5  7 59 34.0000000  0 25                     
G12  23855374.571    -7609080.867        3284.639          39.500  
G 3  25119045.263    -7082380.513       -3256.768          36.500  
C13  36778358.810   -21820644.0762          7.383          45.000  
G17  20959752.814   -25398786.541         111.816          46.000  
C23  26084177.037   -11107671.8592      -2273.486          36.250  
C28  22293838.346   -23441492.8212        785.654          48.000  
G 5  23921774.307   -10098232.748        3949.414          36.250  
G 4  24310655.009    -8533871.325         736.533          36.750  
G19  20464556.713   -30673071.994         831.631          46.500  
G 2  22673513.221   -15104382.677        1289.395          43.250  
C 3  36201029.454   -20413502.4542        292.021          43.750  
C14  23209927.365   -10028578.9882      -1117.725          43.750  
C 2  37237208.254   -19756905.8442        324.248          39.750  
G23  23610110.260   -11037185.868        2193.066          40.000  
C 1  37664430.575   -20184918.7442        277.207          41.500  
C27  24433568.358   -11747784.3282       2214.648          41.750  
C 4  38583046.892   -20468734.0842        274.502          38.500  
C 5  39253672.091   -19882104.2532        313.125          36.000  
C11  25940508.121    -1809637.7172      -1431.787          37.000  
C 7  37056814.621   -40030891.3662      -1017.197          41.500  
G 9  23484152.302   -13809513.621        2052.783          39.250  
C10  36243470.198   -28943366.7952       -619.453          42.750  
G28  21955448.383   -23659112.607       -2625.703          41.500  
G 6  21042418.841   -23699332.360         151.191          46.750  
C 8  36762674.554   -21776806.9222       -129.658          43.500  
> 2020  6  5  7 59 35.0000000  0 25                     
G12  23854749.696    -7612365.231        3284.365          39.500  
G 3  25119665.235    -7079123.667       -3256.709          36.500  
C13  36778357.204   -21820651.5062          7.559          44.750  
G17  20959731.386   -25398898.184         111.689          46.250  
C23  26084613.433   -11105398.5002      -2273.203          36.500  
C28  22293687.437   -23442278.4792        785.732          48.000  
G 5  23921023.162   -10102182.026        3949.404          36.500  
G 4  24310514.884    -8534607.542         736.240          36.750  
G19  20464398.544   -30673903.461         831.504          46.500  
G 2  22673267.871   -15105672.062        1289.434          43.000  
C 3  36200973.421   -20413794.4892        292.188          43.750  
C14  23210141.951   -10027460.9682      -1118.057          43.750  
C 2  37237145.870   -19757230.1352        324.395          39.500  
G23  23609693.147   -11039378.858        2193.164          39.750  
C 1  37664377.491   -20185196.0862        277.500          41.500  
C27  24433142.817   -11749999.0552       2214.883          41.750  
C 4  38582994.035   -20469008.6192        274.688          38.500  
C 5  39253612.028   -19882417.4072        313.203          36.000  
C11  25940783.363    -1808205.9912      -1431.641          37.000  
C 7  37057009.994   -40029874.1512      -1017.090          41.500  
G 9  23483761.696   -13811566.285        2052.715          39.250  
C10  36243589.139   -28942747.2482       -619.424          42.750  
G28  21955948.070   -23656486.735       -2625.840          41.750  
G 6  21042390.310   -23699483.462         151.201          46.750  
C 8  36762699.229   -21776677.3592       -129.424          43.500  
> 2020  6  5  7 59 36.0000000  0 25                     
G12  23854124.612    -7615649.234        3283.867          39.500  
G 3  25120284.927    -7075866.754       -3256.973          36.500  
C13  36778355.930   -21820658.9562          7.393          44.750  
G17  20959710.271   -25399009.532         111.230          46.000  
C23  26085050.089   -11103125.3022      -2273.223          36.750  
C28  22293536.510   -23443064.0492        785.479          48.000  
G 5  23920271.843   -10106131.177        3949.111          36.500  
G 4  24310374.864    -8535343.319         735.664          36.500  
G19  20464240.480   -30674734.620         831.006          46.500  
G 2  22673022.591   -15106961.347        1289.150          43.000  
C 3  36200917.302   -20414086.5692        292.021          43.750  
C14  23210356.571   -10026342.4782      -1118.672          43.750  
C 2  37237083.485   -19757554.4382        324.258          39.750  
G23  23609275.808   -11041571.687        2192.725          39.750  
C 1  37664324.268   -20185473.4242        277.285          41.500  
C27  24432717.660   -11752213.8662       2214.785          41.750  
C 4  38582941.283   -20469283.1842        274.434          38.500  
C 5  39253551.807   -19882730.6032        313.086          36.000  
C11  25941058.431    -1806774.1402      -1431.963          37.000  
C 7  37057205.279   -40028856.8242      -1017.383          41.500  
G 9  23483371.318   -13813618.651        2052.266          39.250  
C10  36243708.097   -28942127.6212       -619.717          42.750  
G28  21956447.879   -23653860.528       -2626.367          41.750  
G 6  21042361.587   -23699634.403         150.840          46.750  
C 8  36762724.252   -21776547.8442       -129.561          43.500  
> 2020  6  5  7 59 37.0000000  0 25                     
G12  23853499.702    -7618932.763        3283.359          39.500  
G 3  25120904.811    -7072609.631       -3257.109          36.750  
C13  36778354.552   -21820666.3312          7.412          44.750  
G17  20959688.790   -25399120.453         110.850          46.000  
C23  26085486.554   -11100852.1492      -2273.154          36.750  
C28  22293385.688   -23443849.3852        785.322          48.000  
G 5  23919520.367   -10110080.067        3948.799          36.500  
G 4  24310235.018    -8536078.498         735.020          36.750  
G19  20464082.363   -30675565.332         830.645          46.500  
G 2  22672777.014   -15108250.352        1288.955          43.000  
C 3  36200861.391   -20414378.5022        291.943          43.750  
C14  23210571.401   -10025223.3842      -1119.238          43.750  
C 2  37237021.066   -19757878.6062        324.229          39.500  
G23  23608858.748   -11043764.252        2192.568          39.750  
C 1  37664270.923   -20185750.6352        277.236          41.250  
C27  24432292.398   -11754428.5282       2214.678          41.750  
C 4  38582888.566   -20469557.6372        274.473          38.750  
C 5  39253491.516   -19883043.6832        313.154          36.000  
C11  25941333.621    -1805342.0762      -1432.109          37.000  
C 7  37057400.914   -40027839.2772      -1017.559          41.500  
G 9  23482980.660   -13815670.613        2051.826          39.000  
C10  36243827.282   -28941507.6732       -619.971          42.750  
G28  21956947.898   -23651233.899       -2626.709          41.750  
G 6  21042332.968   -23699785.030         150.576          46.750  
C 8  36762749.101   -21776418.2552       -129.561          43.500  
> 2020  6  5  7 59 38.0000000  0 25                     
G12  23852875.054    -7622216.039        3283.154          39.750  
G 3  25121524.712    -7069352.525       -3257.090          36.750  
C13  36778353.051   -21820673.8172          7.520          45.000  
G17  20959667.884   -25399231.189         110.654          46.250  
C23  26085922.914   -11098579.2512      -2272.842          36.750  
C28  22293234.900   -23444634.7432        785.332          48.000  
G 5  23918769.065   -10114028.899        3948.926          36.750  
G 4  24310094.962    -8536813.336         734.785          37.000  
G19  20463924.177   -30676395.846         830.430          46.500  
G 2  22672531.873   -15109539.385        1289.004          43.250  
C 3  36200805.271   -20414670.5562        292.090          43.750  
C14  23210786.457   -10024103.9042      -1119.619          43.750  
C 2  37236958.646   -19758202.8992        324.287          39.750  
G23  23608441.478   -11045956.745        2192.432          39.750  
C 1  37664217.822   -20186027.9842        277.354          41.500  
C27  24431867.066   -11756643.4122       2214.912          41.750  
C 4  38582835.831   -20469832.1792        274.580          38.500  
C 5  39253431.209   -19883356.8452        313.193          36.000  
C11  25941608.619    -1803909.9922      -1432.158          36.750  
C 7  37057596.252   -40026821.7362      -1017.529          41.500  
G 9  23482590.054   -13817722.387        2051.748          39.000  
C10  36243946.537   -28940887.7032       -619.951          42.750  
G28  21957447.742   -23648607.041       -2626.914          41.750  
G 6  21042304.420   -23699935.588         150.508          46.750  
C 8  36762773.846   -21776288.8852       -129.375          43.500  
> 2020  6  5  7 59 39.0000000  0 25                     
G12  23852250.301    -7625498.949        3282.822          39.750  
G 3  25122144.509    -7066095.288       -3257.266          36.500  
C13  36778351.550   -21820681.3372          7.490          45.000  
G17  20959646.787   -25399341.596         110.273          46.250  
C23  26086359.414   -11096306.5172      -2272.705          36.750  
C28  22293084.043   -23445419.9892        785.195          48.000  
G 5  23918017.764   -10117977.605        3948.652          36.750  
G 4  24309955.169    -8537547.679         734.268          37.000  
G19  20463766.166   -30677226.028         830.039          46.500  
G 2  22672286.645   -15110828.254        1288.848          43.000  
C 3  36200749.308   -20414962.6072        292.051          43.750  
C14  23211001.531   -10022983.9462      -1120.117          43.750  
C 2  37236896.576   -19758527.1882        324.297          39.500  
G23  23608024.156   -11048149.122        2192.295          39.750  
C 1  37664164.546   -20186305.3172        277.305          41.500  
C27  24431441.804   -11758858.2982       2214.863          41.500  
C 4  38582782.992   -20470106.7322        274.453          38.500  
C 5  39253371.110   -19883670.0182        313.135          36.000  
C11  25941883.739    -1802477.7902      -1432.295          36.500  
C 7  37057791.869   -40025804.0822      -1017.686          41.500  
G 9  23482199.727   -13819773.862        2051.348          39.000  
C10  36244065.530   -28940267.5912       -620.205          42.750  
G28  21957947.935   -23645979.858       -2627.305          41.750  
G 6  21042275.924   -23700085.956         150.254          46.500  
C 8  36762798.904   -21776159.5272       -129.395          43.250  
> 2020  6  5  7 59 40.0000000  0 25                     
G12  23851625.950    -7628781.597        3282.441          39.750  
G 3  25122764.201    -7062838.077       -3257.207          36.750  
C13  36778350.329   -21820688.9552          7.656          45.000  
G17  20959625.742   -25399451.774         110.127          46.250  
C23  26086795.739   -11094033.9852      -2272.480          36.750  
C28  22292933.326   -23446205.2002        785.186          48.250  
G 5  23917266.445   -10121926.200        3948.594          36.500  
G 4  24309815.619    -8538281.641         733.740          37.000  
G19  20463608.398   -30678055.981         829.834          46.500  
G 2  22672041.261   -15112117.086        1288.799          43.000  
C 3  36200693.223   -20415254.7172        292.080          43.750  
C14  23211216.762   -10021863.5782      -1120.547          43.750  
C 2  37236834.331   -19758851.5572        324.375          39.500  
G23  23607606.956   -11050341.377        2192.217          39.750  
C 1  37664111.515   -20186582.7362        277.393          41.500  
C27  24431016.455   -11761073.3042       2215.059          41.500  
C 4  38582730.327   -20470381.3772        274.541          38.500  
C 5  39253310.785   -19883983.2622        313.154          36.000  
C11  25942158.388    -1801045.5352      -1432.227          36.250  
C 7  37057987.224   -40024786.4222      -1017.725          41.500  
G 9  23481809.226   -13821825.105        2051.152          39.000  
C10  36244184.663   -28939647.3802       -620.254          42.750  
G28  21958447.761   -23643352.426       -2627.549          41.750  
G 6  21042247.375   -23700236.237         150.215          46.500  
C 8  36762823.561   -21776030.3262       -129.170          43.250  
> 2020  6  5  7 59 41.0000000  0 25                     
G12  23851001.337    -7632063.887        3282.314          39.750  
G 3  25123384.103    -7059580.746       -3257.285          36.750  
C13  36778348.828   -21820696.5792          7.676          45.000  
G17  20959604.837   -25399561.627         109.766          46.250  
C23  26087231.785   -11091761.6032      -2272.305          36.500  
C28  22292782.643   -23446990.3002        785.107          48.000  
G 5  23916514.759   -10125874.617        3948.340          36.250  
G 4  24309676.122    -8539015.109         733.359          36.750  
G19  20463450.875   -30678885.593         829.541          46.500  
G 2  22671795.858   -15113405.756        1288.721          43.000  
C 3  36200637.173   -20415546.8262        292.139          43.750  
C14  23211432.150   -10020742.6992      -1120.977          43.750  
C 2  37236772.226   -19759175.8962        324.355          39.750  
G23  23607189.669   -11052533.488        2192.129          39.750  
C 1  37664058.309   -20186860.1422        277.490          41.500  
C27  24430591.106   -11763288.3412       2215.127          41.500  
C 4  38582677.837   -20470655.9992        274.648          38.500  
C 5  39253250.738   -19884296.5312        313.379          36.000  
C11  25942433.246    -1799613.1212      -1432.393          36.250  
C 7  37058182.579   -40023768.6002      -1017.803          41.500  
G 9  23481418.743   -13823876.044        2050.908          39.250  
C10  36244303.656   -28939027.0142       -620.312          42.750  
G28  21958947.658   -23640724.647       -2627.832          41.750  
G 6  21042218.582   -23700386.298         150.059          46.500  
C 8  36762848.271   -21775901.1672       -129.111          43.250  
> 2020  6  5  7 59 42.0000000  0 25                     
G12  23850376.671    -7635345.615        3281.602          39.750  
G 3  25124003.900    -7056323.151       -3257.627          36.750  
C13  36778347.415   -21820704.0382          7.461          44.750  
G17  20959583.774   -25399671.003         109.248          46.250  
C23  26087668.058   -11089489.1992      -2272.354          36.250  
C28  22292632.100   -23447775.1272        784.775          48.250  
G 5  23915763.231   -10129822.737        3947.988          36.250  
G 4  24309536.730    -8539747.954         732.646          36.750  
G19  20463292.881   -30679714.722         828.994          46.500  
G 2  22671550.700   -15114694.123        1288.291          43.000  
C 3  36200580.949   -20415838.7752        291.914          43.750  
C14  23211647.660   -10019621.1792      -1121.670          43.750  
C 2  37236709.946   -19759500.0972        324.062          39.750  
G23  23606772.522   -11054725.270        2191.729          39.750  
C 1  37664004.842   -20187137.3772        277.217          41.500  
C27  24430165.653   -11765503.2362       2214.912          41.500  
C 4  38582625.085   -20470930.4302        274.414          38.500  
C 5  39253190.587   -19884609.5882        313.057          36.250  
C11  25942708.454    -1798180.4742      -1432.725          36.000  
C 7  37058378.074   -40022750.5412      -1018.135          41.500  
G 9  23481028.748   -13825926.529        2050.312          39.250  
C10  36244422.911   -28938406.3162       -620.771          42.750  
G28  21959447.607   -23638096.363       -2628.379          41.500  
G 6  21042190.173   -23700536.001         149.619          46.750  
C 8  36762873.277   -21775771.9012       -129.268          43.500  
> 2020  6  5  7 59 43.0000000  0 25                     
G12  23849752.006    -7638627.167        3281.602          39.750  
G 3  25124623.749    -7053065.620       -3257.490          36.500  
C13  36778345.774   -21820711.6572          7.764          45.000  
G17  20959563.165   -25399780.240         109.248          46.000  
C23  26088104.244   -11087217.0982      -2271.982          36.000  
C28  22292481.191   -23448560.0082        784.902          48.250  
G 5  23915011.911   -10133770.852        3948.076          36.250  
G 4  24309397.582    -8540480.477         732.412          37.000  
G19  20463135.078   -30680543.691         828.975          46.500  
G 2  22671305.681   -15115982.541        1288.379          43.000  
C 3  36200524.933   -20416130.8802        292.217          43.750  
C14  23211863.101   -10018499.3272      -1121.924          44.000  
C 2  37236647.771   -19759824.4542        324.434          39.750  
G23  23606355.514   -11056917.065        2191.797          39.750  
C 1  37663951.601   -20187414.7672        277.480          41.500  
C27  24429740.094   -11767718.3512       2215.195          41.500  
C 4  38582572.420   -20471205.0332        274.717          38.500  
C 5  39253130.559   -19884922.8192        313.301          36.000  
C11  25942983.399    -1796747.8492      -1432.529          36.250  
C 7  37058573.499   -40021732.5352      -1017.930          41.500  
G 9  23480638.561   -13827976.870        2050.391          39.500  
C10  36244541.956   -28937785.6502       -620.635          42.750  
G28  21959947.747   -23635467.928       -2628.418          41.500  
G 6  21042161.607   -23700685.699         149.707          46.750  
C 8  36762897.987   -21775642.8452       -129.004          43.500  
> 2020  6  5  7 59 44.0000000  0 25                     
G12  23849127.463    -7641908.246        3280.820          39.750  
G 3  25125243.616    -7049807.807       -3257.920          36.500  
C13  36778344.396   -21820719.1592          7.461          44.750  
G17  20959542.243   -25399889.007         108.623          46.000  
C23  26088540.377   -11084944.9962      -2272.100          35.500  
C28  22292330.490   -23449344.6332        784.521          48.250  
G 5  23914260.540   -10137718.655        3947.715          36.250  
G 4  24309258.312    -8541212.375         731.582          37.000  
G19  20462977.555   -30681372.181         828.301          46.250  
G 2  22671060.506   -15117270.683        1288.008          42.750  
C 3  36200468.639   -20416422.8372        291.865          43.750  
C14  23212078.541   -10017376.8342      -1122.705          43.750  
C 2  37236585.526   -19760148.6562        324.111          39.500  
G23  23605938.541   -11059108.538        2191.367          39.750  
C 1  37663898.256   -20187692.0242        277.217          41.500  
C27  24429314.640   -11769933.3322       2214.932          41.500  
C 4  38582519.860   -20471479.5052        274.443          38.500  
C 5  39253070.355   -19885235.8902        312.988          36.000  
C11  25943258.432    -1795314.9512      -1433.135          36.250  
C 7  37058769.063   -40020714.2612      -1018.379          41.500  
G 9  23480248.409   -13830026.772        2049.697          39.500  
C10  36244661.350   -28937164.6712       -621.064          42.500  
G28  21960447.958   -23632839.005       -2629.102          41.500  
G 6  21042133.355   -23700835.051         149.209          46.750  
C 8  36762922.871   -21775513.6982       -129.209          43.250  
> 2020  6  5  7 59 45.0000000  0 25                     
G12  23848503.513    -7645188.949        3280.615          40.000  
G 3  25125863.447    -7046550.017       -3257.910          36.250  
C13  36778342.965   -21820726.7102          7.529          44.750  
G17  20959521.826   -25399997.518         108.359          46.250  
C23  26088976.371   -11082673.0762      -2271.943          35.500  
C28  22292179.878   -23450129.2132        784.521          48.250  
G 5  23913509.186   -10141666.381        3947.510          36.250  
G 4  24309119.321    -8541943.881         731.338          37.000  
G19  20462819.753   -30682200.396         828.047          46.500  
G 2  22670815.069   -15118558.747        1287.959          43.000  
C 3  36200412.571   -20416714.8322        291.963          43.750  
C14  23212294.173   -10016253.9202      -1123.105          43.750  
C 2  37236523.333   -19760472.9182        324.229          39.750  
G23  23605521.638   -11061299.902        2191.250          39.750  
C 1  37663845.120   -20187969.3232        277.227          41.500  
C27  24428889.344   -11772148.4042       2215.078          41.500  
C 4  38582467.073   -20471754.0262        274.473          38.500  
C 5  39253010.309   -19885549.0672        313.193          36.000  
C11  25943533.692    -1793882.0082      -1432.959          36.250  
C 7  37058964.645   -40019695.9662      -1018.369          41.250  
G 9  23479858.379   -13832076.431        2049.521          39.500  
C10  36244780.640   -28936543.5862       -621.123          42.750  
G28  21960948.238   -23630209.833       -2629.287          41.500  
G 6  21042104.999   -23700984.274         149.111          46.750  
C 8  36762947.772   -21775384.6642       -129.072          43.250  
> 2020  6  5  7 59 46.0000000  0 25                     
G12  23847879.388    -7648469.254        3280.254          40.000  
G 3  25126483.576    -7043292.046       -3257.861          36.250  
C13  36778341.516   -21820734.2162          7.637          44.750  
G17  20959501.357   -25400105.652         108.145          46.250  
C23  26089412.557   -11080401.2782      -2271.670          35.750  
C28  22292029.212   -23450913.6202        784.482          48.250  
G 5  23912758.006   -10145613.848        3947.451          36.500  
G 4  24308980.190    -8542674.851         730.957          37.000  
G19  20462662.352   -30683028.230         827.822          46.500  
G 2  22670569.945   -15119846.600        1287.891          43.000  
C 3  36200356.486   -20417006.7562        292.012          43.750  
C14  23212509.945   -10015130.4362      -1123.574          43.750  
C 2  37236461.106   -19760797.1032        324.258          39.750  
G23  23605104.630   -11063491.041        2191.182          39.750  
C 1  37663791.757   -20188246.5742        277.354          41.500  
C27  24428464.030   -11774363.4732       2215.137          41.500  
C 4  38582414.251   -20472028.4662        274.512          38.250  
C 5  39252950.193   -19885862.1172        313.154          35.750  
C11  25943809.144    -1792448.8542      -1433.115          36.500  
C 7  37059160.315   -40018677.4982      -1018.428          41.250  
G 9  23479468.699   -13834125.725        2049.355          39.250  
C10  36244899.877   -28935922.2772       -621.270          42.500  
G28  21961449.007   -23627580.258       -2629.551          41.750  
G 6  21042076.537   -23701133.255         149.004          46.750  
C 8  36762972.447   -21775255.5942       -128.945          43.500  
> 2020  6  5  7 59 47.0000000  0 25                     
G12  23847255.456    -7651749.208        3279.814          40.000  
G 3  25127103.373    -7040033.976       -3258.096          36.250  
C13  36778340.278   -21820741.7542          7.549          44.750  
G17  20959480.923   -25400213.481         107.705          46.250  
C23  26089848.777   -11078129.6482      -2271.699          35.750  
C28  22291878.739   -23451697.9252        784.277          48.250  
G 5  23912007.158   -10149561.191        3947.324          36.750  
G 4  24308841.478    -8543405.335         730.254          37.000  
G19  20462504.881   -30683855.747         827.393          46.500  
G 2  22670324.997   -15121134.344        1287.705          43.000  
C 3  36200300.611   -20417298.7042        291.914          43.750  
C14  23212725.700   -10014006.4912      -1124.131          44.000  
C 2  37236398.651   -19761121.2952        324.180          39.750  
G23  23604687.744   -11065682.040        2190.918          40.000  
C 1  37663738.447   -20188523.8262        277.197          41.500  
C27  24428038.576   -11776578.5632       2215.068          41.500  
C 4  38582361.534   -20472302.8892        274.365          38.500  
C 5  39252890.130   -19886175.2042        313.018          36.000  
C11  25944084.491    -1791015.6122      -1433.291          36.500  
C 7  37059355.792   -40017658.9042      -1018.643          41.250  
G 9  23479078.651   -13836174.728        2048.896          39.250  
C10  36245019.202   -28935300.8332       -621.504          42.500  
G28  21961949.689   -23624950.360       -2629.980          41.750  
G 6  21042048.320   -23701282.062         148.760          46.750  
C 8  36762997.488   -21775126.6022       -129.033          43.250  
> 2020  6  5  7 59 48.0000000  0 25                     
G12  23846631.244    -7655028.573        3279.170          40.000  
G 3  25127723.204    -7036775.546       -3258.564          36.000  
C13  36778339.004   -21820749.0682          7.246          44.750  
G17  20959460.436   -25400320.757         107.129          46.250  
C23  26090285.172   -11075857.8792      -2271.846          36.000  
C28  22291728.318   -23452481.8892        783.926          48.250  
G 5  23911256.450   -10153508.131        3946.914          37.000  
G 4  24308702.260    -8544135.106         729.561          36.750  
G19  20462347.393   -30684682.702         826.797          46.500  
G 2  22670079.961   -15122421.705        1287.275          43.000  
C 3  36200244.735   -20417590.4052        291.660          43.500  
C14  23212941.873   -10012881.8052      -1124.893          43.750  
C 2  37236336.476   -19761445.2672        323.975          39.750  
G23  23604271.085   -11067872.635        2190.488          40.000  
C 1  37663685.241   -20188800.8422        277.002          41.250  
C27  24427613.122   -11778793.4712       2214.834          41.500  
C 4  38582308.887   -20472577.1302        274.160          38.250  
C 5  39252830.188   -19886488.0352        312.773          36.000  
C11  25944359.768    -1789582.0112      -1433.730          36.500  
C 7  37059551.461   -40016639.9792      -1019.033          41.250  
G 9  23478688.988   -13838223.176        2048.301          39.000  
C10  36245138.439   -28934678.9982       -621.943          42.500  
G28  21962450.527   -23622319.895       -2630.596          41.750  
G 6  21042020.208   -23701430.420         148.281          46.750  
C 8  36763022.145   -21774997.4282       -129.199          43.250  
> 2020  6  5  7 59 49.0000000  0 25                     
G12  23846007.276    -7658307.579        3278.828          40.000  
G 3  25128343.333    -7033517.069       -3258.594          36.000  
C13  36778337.730   -21820756.3862          7.256          44.750  
G17  20959440.141   -25400427.715         106.797          46.250  
C23  26090721.410   -11073586.2742      -2271.650          36.250  
C28  22291577.706   -23453265.7332        783.809          48.250  
G 5  23910505.794   -10157454.895        3946.680          37.250  
G 4  24308563.217    -8544864.422         729.121          36.500  
G19  20462190.027   -30685509.332         826.475          46.250  
G 2  22669834.942   -15123708.936        1287.148          43.000  
C 3  36200188.825   -20417882.0962        291.641          43.750  
C14  23213157.924   -10011756.6112      -1125.420          43.750  
C 2  37236274.284   -19761769.1972        323.926          39.500  
G23  23603854.339   -11070063.056        2190.332          40.000  
C 1  37663632.123   -20189077.8512        276.992          41.250  
C27  24427187.546   -11781008.3892       2214.844          41.500  
C 4  38582255.873   -20472851.3242        274.170          38.500  
C 5  39252770.072   -19886800.8602        312.764          36.000  
C11  25944634.975    -1788148.2992      -1433.760          36.500  
C 7  37059747.026   -40015620.9432      -1019.160          41.250  
G 9  23478299.063   -13840271.335        2047.979          39.000  
C10  36245258.235   -28934056.9972       -622.051          42.750  
G28  21962951.209   -23619689.098       -2630.869          42.000  
G 6  21041991.799   -23701578.586         148.057          46.500  
C 8  36763046.819   -21774868.3002       -129.160          43.250  
> 2020  6  5  7 59 50.0000000  0 25                     
G12  23845383.431    -7661586.447        3278.770          40.000  
G 3  25128963.304    -7030258.729       -3258.359          36.000  
C13  36778336.473   -21820763.9792          7.598          44.750  
G17  20959419.934   -25400534.618         106.797          46.250  
C23  26091157.892   -11071315.0762      -2271.201          36.500  
C28  22291427.145   -23454049.7102        783.926          48.250  
G 5  23909755.156   -10161401.743        3946.826          37.500  
G 4  24308424.313    -8545593.483         728.916          36.500  
G19  20462032.713   -30686335.889         826.445          46.250  
G 2  22669589.959   -15124996.272        1287.275          43.000  
C 3  36200132.844   -20418174.0232        291.904          43.750  
C14  23213374.028   -10010631.1952      -1125.576          43.750  
C 2  37236211.934   -19762093.4042        324.229          39.500  
G23  23603437.122   -11072253.590        2190.605          39.750  
C 1  37663578.795   -20189355.0922        277.227          41.250  
C27  24426761.988   -11783223.6122       2215.234          41.500  
C 4  38582203.226   -20473125.7702        274.443          38.250  
C 5  39252709.869   -19887113.9682        313.105          36.000  
C11  25944910.322    -1786714.7142      -1433.643          36.250  
C 7  37059942.643   -40014602.0482      -1018.926          41.000  
G 9  23477909.260   -13842319.450        2047.988          39.000  
C10  36245377.786   -28933435.0732       -622.002          42.500  
G28  21963452.065   -23617058.217       -2630.986          42.000  
G 6  21041963.477   -23701726.829         148.164          46.500  
C 8  36763071.494   -21774739.4632       -128.828          43.250  
> 2020  6  5  7 59 51.0000000  0 25                     
G12  23844759.743    -7664865.024        3278.584          40.000  
G 3  25129583.589    -7027000.309       -3258.379          36.000  
C13  36778334.868   -21820771.6032          7.715          44.750  
G17  20959399.482   -25400641.221         106.562          46.250  
C23  26091594.113   -11069044.0692      -2270.908          36.750  
C28  22291276.602   -23454833.6182        783.945          48.250  
G 5  23909004.342   -10165348.465        3946.738          37.250  
G 4  24308285.689    -8546322.120         728.584          36.500  
G19  20461875.626   -30687162.138         826.230          46.250  
G 2  22669345.184   -15126283.521        1287.285          42.750  
C 3  36200076.672   -20418465.9792        292.021          43.750  
C14  23213590.480   -10009505.3192      -1125.967          43.750  
C 2  37236149.497   -19762417.6042        324.307          39.500  
G23  23603020.428   -11074443.985        2190.449          39.750  
C 1  37663525.676   -20189632.3792        277.363          41.250  
C27  24426336.604   -11785438.8892       2215.391          41.500  
C 4  38582150.561   -20473400.2302        274.521          38.500  
C 5  39252649.770   -19887427.0432        313.174          36.000  
C11  25945185.669    -1785281.0142      -1433.701          36.250  
C 7  37060138.417   -40013583.0782      -1018.896          41.250  
G 9  23477519.544   -13844367.276        2047.842          39.250  
C10  36245497.128   -28932813.0442       -622.002          42.500  
G28  21963952.869   -23614427.042       -2631.182          41.750  
G 6  21041935.452   -23701874.902         148.125          46.500  
C 8  36763096.413   -21774610.7192       -128.633          43.250  
> 2020  6  5  7 59 52.0000000  0 25                     
G12  23844135.688    -7668143.113        3278.047          40.000  
G 3  25130203.508    -7023741.725       -3258.525          36.000  
C13  36778333.175   -21820779.1492          7.598          44.750  
G17  20959379.624   -25400747.457         106.191          46.250  
C23  26092030.595   -11066773.1342      -2270.801          36.750  
C28  22291126.111   -23455617.3532        783.750          48.250  
G 5  23908253.547   -10169294.951        3946.445          37.250  
G 4  24308147.204    -8547050.215         727.969          36.500  
G19  20461718.260   -30687988.009         825.859          46.250  
G 2  22669099.957   -15127570.560        1287.080          43.000  
C 3  36200020.517   -20418757.8632        291.953          43.500  
C14  23213806.845   -10008378.8892      -1126.514          43.750  
C 2  37236087.270   -19762741.7522        324.229          39.500  
G23  23602603.682   -11076634.122        2190.107          40.000  
C 1  37663472.453   -20189909.5942        277.285          41.250  
C27  24425911.499   -11787654.1412       2215.342          41.500  
C 4  38582097.984   -20473674.6302        274.424          38.500  
C 5  39252589.724   -19887740.0822        313.037          36.250  
C11  25945460.946    -1783847.1492      -1433.740          36.250  
C 7  37060333.999   -40012563.9152      -1019.092          41.250  
G 9  23477130.090   -13846414.750        2047.451          39.250  
C10  36245616.697   -28932190.7942       -622.236          42.500  
G28  21964453.690   -23611795.475       -2631.582          41.750  
G 6  21041907.480   -23702022.722         147.793          46.750  
C 8  36763121.280   -21774481.9592       -128.682          43.500  
> 2020  6  5  7 59 53.0000000  0 25                     
G12  23843511.843    -7671420.985        3277.646          40.000  
G 3  25130823.742    -7020483.168       -3258.730          36.000  
C13  36778331.622   -21820786.8292          7.520          44.750  
G17  20959359.434   -25400853.500         105.791          46.250  
C23  26092466.833   -11064502.4552      -2270.771          36.750  
C28  22290975.656   -23456401.0972        783.564          48.250  
G 5  23907502.472   -10173241.440        3946.289          37.000  
G 4  24308008.632    -8547777.951         727.402          36.500  
G19  20461561.156   -30688813.672         825.430          46.250  
G 2  22668855.147   -15128857.573        1286.836          42.750  
C 3  36199964.520   -20419049.8702        291.846          43.750  
C14  23214023.228   -10007252.0852      -1127.100          43.750  
C 2  37236025.129   -19763066.0162        324.072          39.500  
G23  23602186.901   -11078824.237        2189.961          40.000  
C 1  37663419.038   -20190186.9372        277.227          41.250  
C27  24425486.010   -11789869.5392       2215.303          41.500  
C 4  38582045.144   -20473949.1522        274.346          38.250  
C 5  39252529.643   -19888053.2322        313.086          36.000  
C11  25945736.241    -1782413.2332      -1434.072          36.250  
C 7  37060529.546   -40011544.7522      -1019.326          41.250  
G 9  23476740.392   -13848462.033        2047.051          39.250  
C10  36245736.249   -28931568.5102       -622.441          42.500  
G28  21964954.337   -23609163.699       -2632.012          41.750  
G 6  21041879.018   -23702170.481         147.568          46.500  
C 8  36763146.129   -21774353.3772       -128.643          43.250  
> 2020  6  5  7 59 54.0000000  0 25                     
G12  23842888.207    -7674698.427        3277.373          40.000  
G 3  25131443.695    -7017224.434       -3258.730          36.250  
C13  36778330.104   -21820794.4472          7.656          45.000  
G17  20959339.523   -25400959.150         105.615          46.250  
C23  26092902.949   -11062231.8612      -2270.430          36.750  
C28  22290825.078   -23457184.6762        783.584          48.250  
G 5  23906751.624   -10177187.669        3946.182          37.000  
G 4  24307870.216    -8548505.159         727.129          36.500  
G19  20461404.052   -30689638.943         825.225          46.250  
G 2  22668610.408   -15130144.408        1286.816          43.000  
C 3  36199908.365   -20419341.7932        291.963          43.750  
C14  23214239.820   -10006124.7362      -1127.412          43.750  
C 2  37235962.884   -19763390.1922        324.199          39.750  
G23  23601770.068   -11081014.133        2189.844          40.000  
C 1  37663366.007   -20190464.1892        277.334          41.250  
C27  24425060.522   -11792084.9132       2215.420          41.500  
C 4  38581992.707   -20474223.6072        274.531          38.500  
C 5  39252469.475   -19888366.3292        313.184          36.000  
C11  25946011.361    -1780979.1822      -1434.043          36.250  
C 7  37060725.390   -40010525.4692      -1019.258          41.250  
G 9  23476351.078   -13850508.946        2046.846          39.000  
C10  36245855.818   -28930946.0002       -622.480          42.500  
G28  21965455.141   -23606531.527       -2632.207          41.750  
G 6  21041850.924   -23702317.991         147.490          46.500  
C 8  36763170.838   -21774224.7962       -128.418          43.500  
> 2020  6  5  7 59 55.0000000  0 25                     
G12  23842264.693    -7677975.557        3277.100          40.000  
G 3  25132063.894    -7013965.691       -3258.857          36.250  
C13  36778328.708   -21820802.1362          7.705          44.750  
G17  20959319.246   -25401064.548         105.352          46.250  
C23  26093339.013   -11059961.4672      -2270.322          36.750  
C28  22290674.622   -23457968.1902        783.535          48.250  
G 5  23906000.619   -10181133.788        3946.123          36.750  
G 4  24307731.871    -8549231.950         726.631          36.750  
G19  20461247.192   -30690463.949         824.951          46.250  
G 2  22668365.390   -15131431.172        1286.816          43.000  
C 3  36199852.158   -20419633.7862        292.031          43.750  
C14  23214456.203   -10004996.9242      -1127.930          43.750  
C 2  37235900.657   -19763714.4512        324.209          39.750  
G23  23601353.688   -11083203.934        2189.766          40.000  
C 1  37663312.731   -20190741.4972        277.285          41.250  
C27  24424635.190   -11794300.3742       2215.488          41.500  
C 4  38581939.989   -20474498.1262        274.492          38.250  
C 5  39252409.516   -19888679.4572        313.115          36.000  
C11  25946286.795    -1779545.0492      -1434.111          36.250  
C 7  37060921.251   -40009506.0912      -1019.395          41.250  
G 9  23475961.432   -13852555.615        2046.572          39.000  
C10  36245975.317   -28930323.3982       -622.637          42.500  
G28  21965955.683   -23603899.084       -2632.461          41.750  
G 6  21041823.160   -23702465.355         147.334          46.500  
C 8  36763195.478   -21774096.2962       -128.447          43.500  
> 2020  6  5  7 59 56.0000000  0 25                     
G12  23841641.145    -7681252.471        3276.699          40.000  
G 3  25132683.952    -7010707.022       -3258.779          36.500  
C13  36778327.207   -21820810.0042          7.734          44.750  
G17  20959299.248   -25401169.802         105.049          46.250  
C23  26093774.867   -11057691.3782      -2270.166          36.250  
C28  22290524.201   -23458751.7652        783.447          48.250  
G 5  23905249.527   -10185079.910        3945.850          36.750  
G 4  24307593.770    -8549958.399         726.191          36.750  
G19  20461090.314   -30691288.792         824.629          46.250  
G 2  22668120.389   -15132717.931        1286.631          43.000  
C 3  36199796.003   -20419925.9122        292.031          43.500  
C14  23214672.760   -10003868.8122      -1128.369          43.750  
C 2  37235838.115   -19764038.8712        324.336          39.500  
G23  23600936.959   -11085393.721        2189.629          40.000  
C 1  37663259.177   -20191018.9772        277.344          41.250  
C27  24424209.684   -11796516.0412       2215.596          41.250  
C 4  38581887.150   -20474772.7992        274.570          38.250  
C 5  39252349.243   -19888992.7482        313.135          36.000  
C11  25946562.108    -1778110.9772      -1434.180          36.250  
C 7  37061117.147   -40008486.7862      -1019.482          41.250  
G 9  23475572.170   -13854602.153        2046.309          39.000  
C10  36246094.711   -28929700.8152       -622.695          42.500  
G28  21966456.591   -23601266.475       -2632.881          41.750  
G 6  21041795.065   -23702612.703         147.178          46.500  
C 8  36763219.734   -21773968.0232       -128.398          43.500  
> 2020  6  5  7 59 57.0000000  0 25                     
G12  23841017.718    -7684528.947        3276.436          40.000  
G 3  25133303.871    -7007448.135       -3258.848          36.250  
C13  36778325.672   -21820817.8052          7.871          44.750  
G17  20959279.076   -25401274.651         104.824          46.250  
C23  26094210.686   -11055421.3362      -2269.951          36.250  
C28  22290373.955   -23459535.1352        783.408          48.250  
G 5  23904498.365   -10189025.803        3945.898          36.500  
G 4  24307455.809    -8550684.314         725.820          36.750  
G19  20460933.227   -30692113.216         824.414          46.250  
G 2  22667875.632   -15134004.486        1286.631          43.000  
C 3  36199740.005   -20420217.9392        292.119          43.750  
C14  23214889.666   -10002740.0972      -1128.779          43.750  
C 2  37235775.905   -19764363.1732        324.355          39.500  
G23  23600520.475   -11087583.234        2189.512          40.000  
C 1  37663205.884   -20191296.3742        277.451          41.250  
C27  24423784.160   -11798731.6622       2215.723          41.250  
C 4  38581834.555   -20475047.3392        274.570          38.500  
C 5  39252288.970   -19889305.9392        313.301          36.000  
C11  25946837.559    -1776676.6602      -1434.326          36.250  
C 7  37061313.235   -40007467.2662      -1019.531          41.250  
G 9  23475182.873   -13856648.303        2046.162          39.000  
C10  36246214.315   -28929077.9642       -622.812          42.500  
G28  21966957.517   -23598633.462       -2633.037          41.750  
G 6  21041767.005   -23702759.770         147.070          46.500  
C 8  36763244.478   -21773839.7212       -128.262          43.500  
> 2020  6  5  7 59 58.0000000  0 25                     
G12  23840394.292    -7687805.091        3275.977          40.000  
G 3  25133924.087    -7004189.198       -3259.082          36.500  
C13  36778324.136   -21820825.6462          7.773          44.750  
G17  20959259.235   -25401379.210         104.395          46.250  
C23  26094646.435   -11053151.4732      -2269.971          36.000  
C28  22290223.446   -23460318.4252        783.184          48.500  
G 5  23903747.046   -10192971.573        3945.645          36.250  
G 4  24307317.725    -8551409.768         725.322          36.750  
G19  20460776.158   -30692937.337         823.945          46.250  
G 2  22667630.753   -15135290.929        1286.348          43.000  
C 3  36199684.042   -20420510.0112        291.973          43.750  
C14  23215106.328   -10001610.9322      -1129.385          43.750  
C 2  37235713.660   -19764687.5242        324.346          39.500  
G23  23600103.729   -11089772.638        2189.258          40.000  
C 1  37663152.504   -20191573.7932        277.373          41.250  
C27  24423358.515   -11800947.3112       2215.645          41.250  
C 4  38581781.733   -20475321.9532        274.531          38.500  
C 5  39252228.976   -19889619.1702        313.184          36.250  
C11  25947113.151    -1775242.2662      -1434.463          36.250  
C 7  37061509.009   -40006447.6842      -1019.707          41.500  
G 9  23474793.541   -13858694.167        2045.752          39.000  
C10  36246333.797   -28928454.9662       -623.125          42.500  
G28  21967458.565   -23596000.127       -2633.516          41.750  
G 6  21041738.980   -23702906.682         146.787          46.500  
C 8  36763269.222   -21773711.4872       -128.291          43.500  
> 2020  6  5  7 59 59.0000000  0 25                     
G12  23839770.743    -7691080.896        3275.674          40.000  
G 3  25134544.285    -7000930.184       -3259.043          36.500  
C13  36778322.356   -21820833.4932          7.783          45.000  
G17  20959239.394   -25401483.465         104.121          46.250  
C23  26095081.923   -11050881.7912      -2269.727          35.500  
C28  22290073.043   -23461101.6182        783.096          48.250  
G 5  23902995.796   -10196917.167        3945.430          36.000  
G 4  24307179.886    -8552134.739         724.736          37.000  
G19  20460619.507   -30693761.149         823.652          46.250  
G 2  22667386.048   -15136577.251        1286.221          43.000  
C 3  36199627.940   -20420802.0882        292.051          43.750  
C14  23215323.182   -10000481.2842      -1129.873          43.750  
C 2  37235651.660   -19765011.8692        324.326          39.500  
G23  23599687.192   -11091961.873        2189.150          40.000  
C 1  37663099.176   -20191851.1952        277.344          41.500  
C27  24422933.061   -11803163.0272       2215.693          41.250  
C 4  38581728.981   -20475596.5672        274.551          38.250  
C 5  39252168.738   -19889932.4252        313.232          36.000  
C11  25947388.602    -1773807.7342      -1434.717          36.250  
C 7  37061704.748   -40005427.9872      -1019.746          41.500  
G 9  23474404.157   -13860739.749        2045.449          39.000  
C10  36246453.400   -28927831.8422       -623.213          42.500  
G28  21967959.788   -23593366.490       -2633.760          41.750  
G 6  21041711.008   -23703053.412         146.660          46.500  
C 8  36763293.845   -21773583.3102       -128.184          43.500  
> 2020  6  5  8  0  0.0000000  0 25                     
G12  23839147.544    -7694356.246        3275.244          40.000  
G 3  25135164.466    -6997670.988       -3259.258          36.500  
C13  36778320.821   -21820841.3052          7.783          45.000  
G17  20959219.675   -25401587.348         103.760          46.500  
C23  26095517.707   -11048612.1722      -2269.561          35.000  
C28  22289922.675   -23461884.6502        782.988          48.500  
G 5  23902245.053   -10200862.556        3945.264          36.250  
G 4  24307042.012    -8552859.203         724.258          36.750  
G19  20460462.979   -30694584.582         823.311          46.250  
G 2  22667140.995   -15137863.385        1286.104          43.000  
C 3  36199571.872   -20421094.0912        292.002          43.750  
C14  23215540.211    -9999351.0932      -1130.361          43.750  
C 2  37235589.380   -19765336.1482        324.268          39.500  
G23  23599270.638   -11094150.890        2188.896          40.250  
C 1  37663046.092   -20192128.5702        277.334          41.500  
C27  24422507.607   -11805378.7202       2215.654          41.500  
C 4  38581676.317   -20475871.0862        274.551          38.500  
C 5  39252108.657   -19890245.5702        313.125          36.000  
C11  25947663.879    -1772373.0892      -1434.717          36.250  
C 7  37061900.644   -40004408.1312      -1019.893          41.500  
G 9  23474014.930   -13862784.950        2045.156          38.750  
C10  36246572.969   -28927208.5122       -623.408          42.500  
G28  21968460.923   -23590732.464       -2634.121          41.750  
G 6  21041683.122   -23703199.900         146.426          46.500  
C 8  36763318.310   -21773455.1322       -128.174          43.500  
> 2020  6  5  8  0  1.0000000  0 25                     
G12  23838524.309    -7697631.044        3274.658          39.750  
G 3  25135784.612    -6994411.505       -3259.678          36.500  
C13  36778319.215   -21820848.8982          7.490          44.750  
G17  20959200.009   -25401690.721         103.154          46.250  
C23  26095953.299   -11046342.5352      -2269.697          35.000  
C28  22289772.393   -23462667.3792        782.598          48.500  
G 5  23901494.030   -10204807.588        3944.883          36.250  
G 4  24306904.312    -8553583.007         723.467          36.750  
G19  20460306.363   -30695407.494         822.705          46.250  
G 2  22666896.448   -15139149.199        1285.654          43.000  
C 3  36199515.770   -20421385.9082        291.719          43.750  
C14  23215757.344    -9998220.2262      -1131.143          43.750  
C 2  37235527.048   -19765660.2572        324.033          39.500  
G23  23598854.293   -11096339.569        2188.525          40.250  
C 1  37662992.974   -20192405.7452        277.061          41.500  
C27  24422082.188   -11807594.2522       2215.459          41.250  
C 4  38581623.530   -20476145.4362        274.277          38.500  
C 5  39252048.541   -19890558.5622        312.900          36.250  
C11  25947939.645    -1770938.0812      -1435.156          36.000  
C 7  37062096.436   -40003387.9752      -1020.312          41.500  
G 9  23473625.895   -13864829.682        2044.561          39.000  
C10  36246692.922   -28926584.8362       -623.779          42.500  
G28  21968962.373   -23588097.922       -2634.697          41.750  
G 6  21041655.376   -23703346.006         145.928          46.250  
C 8  36763342.862   -21773326.8102       -128.418          43.500  
> 2020  6  5  8  0  2.0000000  0 25                     
G12  23837901.022    -7700905.481        3274.307          39.750  
G 3  25136404.740    -6991151.960       -3259.639          36.500  
C13  36778317.749   -21820856.5332          7.637          45.000  
G17  20959180.500   -25401793.796         102.998          46.250  
C23  26096388.927   -11044073.0582      -2269.395          35.000  
C28  22289622.025   -23463450.0122        782.607          48.500  
G 5  23900743.078   -10208752.499        3944.824          36.250  
G 4  24306766.420    -8554306.331         723.184          37.000  
G19  20460149.747   -30696230.096         822.520          46.000  
G 2  22666651.743   -15140434.871        1285.625          43.000  
C 3  36199459.632   -20421677.7182        291.807          43.750  
C14  23215974.721    -9997088.8792      -1131.475          43.750  
C 2  37235464.716   -19765984.3642        324.102          39.500  
G23  23598437.600   -11098528.087        2188.506          40.250  
C 1  37662939.908   -20192682.9142        277.139          41.500  
C27  24421656.612   -11809809.8342       2215.605          41.250  
C 4  38581570.830   -20476419.7802        274.297          38.500  
C 5  39251988.425   -19890871.5502        313.027          36.000  
C11  25948215.516    -1769502.9742      -1435.176          36.250  
C 7  37062292.594   -40002367.7372      -1020.254          41.500  
G 9  23473237.051   -13866874.105        2044.346          39.000  
C10  36246812.718   -28925961.0052       -623.838          42.500  
G28  21969463.909   -23585463.054       -2634.971          41.750  
G 6  21041627.474   -23703491.933         145.879          46.250  
C 8  36763367.746   -21773198.5582       -128.242          43.500  
> 2020  6  5  8  0  3.0000000  0 25                     
G12  23837277.788    -7704179.639        3274.092          39.750  
G 3  25137025.025    -6987892.375       -3259.609          36.250  
C13  36778316.423   -21820864.2362          7.744          44.750  
G17  20959160.955   -25401896.606         102.803          46.250  
C23  26096824.554   -11041803.7372      -2269.219          34.750  
C28  22289471.726   -23464232.5842        782.578          48.500  
G 5  23899992.492   -10212697.265        3944.668          36.250  
G 4  24306628.983    -8555029.240         722.793          37.000  
G19  20459993.202   -30697052.431         822.295          46.000  
G 2  22666407.074   -15141720.486        1285.654          43.000  
C 3  36199403.443   -20421969.5902        291.943          43.750  
C14  23216192.168    -9995957.1022      -1131.875          43.750  
C 2  37235402.436   -19766308.5172        324.238          39.500  
G23  23598021.080   -11100716.485        2188.428          40.250  
C 1  37662886.841   -20192960.1602        277.305          41.250  
C27  24421231.333   -11812025.5052       2215.732          41.250  
C 4  38581518.026   -20476694.1772        274.424          38.500  
C 5  39251928.309   -19891184.5912        313.086          36.000  
C11  25948491.281    -1768067.8192      -1435.156          36.250  
C 7  37062488.455   -40001347.4432      -1020.244          41.500  
G 9  23472848.103   -13868918.284        2044.092          38.750  
C10  36246932.461   -28925337.0872       -623.867          42.500  
G28  21969965.516   -23582827.926       -2635.176          41.750  
G 6  21041599.658   -23703637.731         145.840          46.250  
C 8  36763392.246   -21773070.4072       -128.076          43.500  
> 2020  6  5  8  0  4.0000000  0 25                     
G12  23836654.797    -7707453.522        3273.662          40.000  
G 3  25137645.154    -6984632.791       -3259.678          36.250  
C13  36778314.992   -21820872.0762          7.852          45.000  
G17  20959141.690   -25401999.217         102.500          46.250  
C23  26097260.024   -11039534.7162      -2268.945          34.750  
C28  22289321.515   -23465015.1672        782.520          48.500  
G 5  23899242.028   -10216642.021        3944.756          36.500  
G 4  24306491.562    -8555751.783         722.305          36.750  
G19  20459836.691   -30697874.549         821.992          46.000  
G 2  22666162.718   -15143006.070        1285.537          43.000  
C 3  36199347.358   -20422261.5672        291.953          43.750  
C14  23216409.476    -9994824.9512      -1132.344          43.750  
C 2  37235340.226   -19766632.7702        324.219          39.750  
G23  23597604.614   -11102904.859        2188.291          40.250  
C 1  37662833.618   -20193237.5102        277.373          41.500  
C27  24420805.618   -11814241.3472       2215.840          41.250  
C 4  38581465.117   -20476968.6962        274.502          38.250  
C 5  39251868.245   -19891497.7422        313.057          36.250  
C11  25948767.152    -1766632.6412      -1435.205          36.250  
C 7  37062684.299   -40000327.1472      -1020.352          41.500  
G 9  23472458.998   -13870962.289        2043.857          38.750  
C10  36247052.344   -28924713.1182       -624.053          42.500  
G28  21970467.349   -23580192.581       -2635.459          42.000  
G 6  21041571.877   -23703783.446         145.596          46.250  
C 8  36763416.816   -21772942.4292       -127.998          43.500  
> 2020  6  5  8  0  5.0000000  0 25                     
G12  23836032.139    -7710727.025        3273.379          40.000  
G 3  25138265.369    -6981373.092       -3259.775          36.250  
C13  36778313.666   -21820879.9042          7.861          45.000  
G17  20959122.268   -25402101.471         102.168          46.500  
C23  26097695.721   -11037265.8022      -2268.857          34.750  
C28  22289171.181   -23465797.5872        782.393          48.500  
G 5  23898491.529   -10220586.517        3944.502          36.750  
G 4  24306354.037    -8556473.827         721.982          37.000  
G19  20459680.145   -30698696.301         821.650          46.000  
G 2  22665918.066   -15144291.492        1285.391          43.000  
C 3  36199291.377   -20422553.4962        291.953          43.750  
C14  23216627.010    -9993692.2522      -1132.832          43.750  
C 2  37235278.033   -19766956.9982        324.307          39.500  
G23  23597188.461   -11105093.003        2188.086          40.250  
C 1  37662780.081   -20193514.8062        277.354          41.500  
C27  24420379.972   -11816457.1502       2215.840          41.250  
C 4  38581412.487   -20477243.1682        274.570          38.500  
C 5  39251808.094   -19891810.8602        313.135          36.000  
C11  25949042.988    -1765197.2922      -1435.273          36.250  
C 7  37062880.265   -39999306.7072      -1020.459          41.500  
G 9  23472069.859   -13873005.935        2043.574          38.750  
C10  36247172.210   -28924088.9612       -624.209          42.500  
G28  21970969.043   -23577556.866       -2635.811          42.000  
G 6  21041543.870   -23703928.943         145.449          46.250  
C 8  36763441.404   -21772814.4702       -127.930          43.500  
> 2020  6  5  8  0  6.0000000  0 25                     
G12  23835409.410    -7713999.967        3272.852          40.250  
G 3  25138885.969    -6978113.107       -3259.990          36.500  
C13  36778312.375   -21820887.5472          7.607          45.000  
G17  20959102.846   -25402203.245         101.631          46.500  
C23  26098131.226   -11034996.8572      -2268.926          35.000  
C28  22289020.952   -23466579.7402        782.061          48.250  
G 5  23897741.466   -10224530.736        3944.072          36.750  
G 4  24306216.442    -8557195.214         721.162          37.000  
G19  20459523.808   -30699517.558         821.123          46.000  
G 2  22665673.502   -15145576.607        1285.059          43.250  
C 3  36199235.484   -20422845.2522        291.709          43.750  
C14  23216844.579    -9992558.9062      -1133.545          43.750  
C 2  37235215.875   -19767281.0292        323.965          39.500  
G23  23596772.046   -11107280.839        2187.715          40.250  
C 1  37662726.875   -20193791.9342        277.109          41.250  
C27  24419954.762   -11818672.8252       2215.635          41.250  
C 4  38581359.805   -20477517.4722        274.307          38.500  
C 5  39251747.978   -19892123.7792        312.900          36.000  
C11  25949318.753    -1763761.6502      -1435.791          36.250  
C 7  37063076.405   -39998286.0042      -1020.723          41.500  
G 9  23471680.789   -13875049.108        2043.066          38.750  
C10  36247292.040   -28923464.4652       -624.600          42.500  
G28  21971470.772   -23574920.643       -2636.406          42.000  
G 6  21041516.420   -23704074.078         145.078          46.250  
C 8  36763466.148   -21772686.3992       -128.086          43.500  
> 2020  6  5  8  0  7.0000000  0 25                     
G12  23834786.507    -7717272.682        3272.705          40.250  
G 3  25139506.481    -6974853.162       -3259.854          36.500  
C13  36778310.839   -21820895.3452          7.881          45.000  
G17  20959083.494   -25402304.825         101.611          46.500  
C23  26098566.644   -11032728.1592      -2268.652          35.000  
C28  22288870.653   -23467361.9072        782.236          48.250  
G 5  23896991.124   -10228474.887        3944.248          37.000  
G 4  24306079.126    -8557916.239         721.016          37.000  
G19  20459367.559   -30700338.614         821.055          46.000  
G 2  22665429.094   -15146861.695        1285.205          43.250  
C 3  36199179.382   -20423137.1302        292.002          43.750  
C14  23217062.253    -9991425.1892      -1133.711          43.750  
C 2  37235153.648   -19767605.1772        324.248          39.500  
G23  23596355.841   -11109468.590        2187.793          40.500  
C 1  37662673.722   -20194069.1712        277.334          41.250  
C27  24419529.134   -11820888.6562       2215.957          41.250  
C 4  38581307.105   -20477791.8682        274.434          38.250  
C 5  39251687.827   -19892436.8622        313.213          36.000  
C11  25949594.380    -1762326.0272      -1435.576          36.250  
C 7  37063272.476   -39997265.2822      -1020.674          41.500  
G 9  23471292.033   -13877092.126        2043.047          38.750  
C10  36247412.046   -28922839.9422       -624.473          42.500  
G28  21971972.518   -23572284.232       -2636.387          42.000  
G 6  21041489.076   -23704219.143         145.146          46.500  
C 8  36763490.788   -21772558.5032       -127.783          43.500  
> 2020  6  5  8  0  8.0000000  0 25                     
G12  23834163.709    -7720544.982        3272.119          40.000  
G 3  25140126.906    -6971593.059       -3260.176          36.250  
C13  36778309.111   -21820903.0842          7.676          45.000  
G17  20959064.316   -25402406.038         101.084          46.500  
C23  26099002.236   -11030459.5762      -2268.633          35.000  
C28  22288720.459   -23468143.9112        781.904          48.500  
G 5  23896240.520   -10232418.826        3943.867          36.500  
G 4  24305941.898    -8558636.752         720.312          37.000  
G19  20459211.362   -30701159.291         820.508          46.000  
G 2  22665184.913   -15148146.600        1284.785          43.000  
C 3  36199123.349   -20423428.9392        291.748          43.750  
C14  23217280.050    -9990290.9402      -1134.482          43.750  
C 2  37235091.298   -19767929.2822        324.053          39.500  
G23  23595939.409   -11111656.149        2187.432          40.250  
C 1  37662620.586   -20194346.3742        277.129          41.500  
C27  24419103.349   -11823104.4742       2215.771          41.000  
C 4  38581254.510   -20478066.2482        274.297          38.250  
C 5  39251627.886   -19892749.8352        312.891          36.000  
C11  25949870.023    -1760890.2302      -1435.879          36.250  
C 7  37063468.424   -39996244.4342      -1020.947          41.500  
G 9  23470903.416   -13879134.749        2042.393          38.500  
C10  36247532.068   -28922215.2062       -624.844          42.500  
G28  21972473.967   -23569647.432       -2636.963          41.750  
G 6  21041461.470   -23704363.983         144.756          46.250  
C 8  36763515.480   -21772430.5882       -127.949          43.500  
> 2020  6  5  8  0  9.0000000  0 24                     
G12  23833540.981    -7723817.007        3271.992          40.000  
G 3  25140747.419    -6968332.991       -3260.010          36.250  
C13  36778307.785   -21820910.9362          7.910          45.000  
G17  20959045.034   -25402507.036         100.986          46.250  
C23  26099437.881   -11028191.2772      -2268.242          35.250  
C28  22288570.475   -23468925.9042        782.002          48.500  
G 5  23895489.952   -10236362.727        3943.975          36.500  
G 4  24305804.739    -8559356.892         720.049          37.000  
G19  20459055.340   -30701979.743         820.439          46.000  
G 2  22664940.575   -15149431.485        1284.922          43.000  
C 3  36199067.386   -20423720.8652        292.031          43.750  
C14  23217497.916    -9989156.3022      -1134.717          43.750  
C 2  37235029.071   -19768253.5022        324.277          39.500  
G23  23595522.890   -11113843.665        2187.578          40.250  
C 1  37662567.223   -20194623.6872        277.402          41.250  
C27  24418677.686   -11825320.4432       2216.084          41.250  
C 4  38581202.002   -20478340.7112        274.512          38.250  
C11  25950145.806    -1759454.3842      -1435.889          36.500  
C 7  37063664.321   -39995223.5632      -1020.840          41.500  
G 9  23470514.573   -13881177.195        2042.432          38.750  
C10  36247652.265   -28921590.4282       -624.727          42.500  
G28  21972975.469   -23567010.413       -2637.051          41.750  
G 6  21041433.828   -23704508.736         144.795          46.250  
C 8  36763540.155   -21772302.8282       -127.686          43.500  
> 2020  6  5  8  0 10.0000000  0 25                     
G12  23832918.374    -7727088.827        3271.709          40.000  
G 3  25141367.791    -6965072.942       -3260.068          36.250  
C13  36778306.162   -21820918.9722          8.018          44.750  
G17  20959025.594   -25402607.872         100.762          46.500  
C23  26099873.508   -11025923.2622      -2267.988          35.250  
C28  22288420.211   -23469707.9422        781.992          48.500  
G 5  23894739.278   -10240306.616        3943.857          36.250  
G 4  24305667.947    -8560076.697         719.688          37.000  
G19  20458899.213   -30702800.027         820.195          46.000  
G 2  22664695.975   -15150716.397        1284.912          43.000  
C 3  36199011.179   -20424012.9302        292.051          43.750  
C14  23217715.904    -9988021.3132      -1135.137          43.750  
C 2  37234966.686   -19768577.8722        324.375          39.500  
G23  23595106.493   -11116031.121        2187.451          40.250  
C 1  37662513.948   -20194901.1422        277.480          41.500  
C27  24418252.023   -11827536.5582       2216.123          41.250  
C 4  38581149.355   -20478615.3112        274.551          38.500  
C 5  39251507.427   -19893376.1823        313.262          36.000  
C11  25950421.502    -1758018.6102      -1435.732          36.500  
C 7  37063860.269   -39994202.7302      -1020.918          41.500  
G 9  23470126.236   -13883219.481        2042.119          38.750  
C10  36247772.288   -28920965.6572       -624.795          42.500  
G28  21973477.250   -23564373.203       -2637.295          41.750  
G 6  21041406.118   -23704653.451         144.658          46.500  
C 8  36763564.602   -21772175.2872       -127.500          43.500  
> 2020  6  5  8  0 11.0000000  0 25                     
G12  23832295.820    -7730360.198        3271.250          40.000  
G 3  25141988.129    -6961812.748       -3260.225          36.250  
C13  36778304.662   -21820926.9212          7.900          44.750  
G17  20959006.765   -25402708.318         100.312          46.250  
C23  26100309.432   -11023655.2982      -2267.910          35.500  
C28  22288270.087   -23470489.8012        781.787          48.500  
G 5  23893988.779   -10244250.262        3943.564          36.250  
G 4  24305531.451    -8560795.966         719.102          37.000  
G19  20458743.208   -30703619.909         819.736          46.000  
G 2  22664451.463   -15152001.092        1284.639          43.000  
C 3  36198955.042   -20424304.9032        291.934          43.500  
C14  23217933.996    -9986885.7742      -1135.752          43.750  
C 2  37234904.250   -19768902.1342        324.219          39.500  
G23  23594690.253   -11118218.364        2187.188          40.250  
C 1  37662460.759   -20195178.5082        277.295          41.250  
C27  24417826.621   -11829752.6822       2216.113          41.000  
C 4  38581096.725   -20478889.8382        274.473          38.250  
C 5  39251447.049   -19893689.3672        313.271          36.000  
C11  25950697.094    -1756582.5942      -1436.143          36.250  
C 7  37064056.340   -39993181.7332      -1021.045          41.250  
G 9  23469737.637   -13885261.396        2041.797          38.750  
C10  36247892.328   -28920340.6362       -625.137          42.500  
G28  21973979.258   -23561735.605       -2637.754          41.750  
G 6  21041378.860   -23704797.893         144.336          46.500  
C 8  36763589.102   -21772047.7062       -127.607          43.500  
> 2020  6  5  8  0 12.0000000  0 25                     
G12  23831673.057    -7733630.994        3270.703          39.750  
G 3  25142608.868    -6958552.213       -3260.557          36.250  
C13  36778303.161   -21820934.6852          7.812          44.750  
G17  20958987.762   -25402808.221          99.824          46.500  
C23  26100744.955   -11021387.2742      -2268.008          35.500  
C28  22288120.172   -23471271.3172        781.504          48.500  
G 5  23893238.228   -10248193.518        3943.203          36.250  
G 4  24305394.921    -8561514.502         718.389          37.250  
G19  20458587.342   -30704439.238         819.287          46.000  
G 2  22664207.160   -15153285.426        1284.326          43.250  
C 3  36198899.219   -20424596.6602        291.797          43.750  
C14  23218152.037    -9985749.5172      -1136.377          43.750  
C 2  37234842.057   -19769226.1922        324.160          39.500  
G23  23594273.838   -11120405.214        2186.836          40.250  
C 1  37662407.466   -20195455.6412        277.139          41.250  
C27  24417400.853   -11831968.5832       2215.918          41.000  
C 4  38581043.956   -20479164.1302        274.297          38.500  
C 5  39251387.003   -19894002.2882        312.930          36.250  
C11  25950972.790    -1755146.2522      -1436.289          36.250  
C 7  37064252.463   -39992160.4082      -1021.299          41.250  
G 9  23469349.160   -13887302.779        2041.338          38.750  
C10  36248012.246   -28919715.2402       -625.439          42.500  
G28  21974481.196   -23559097.468       -2638.203          41.750  
G 6  21041351.394   -23704941.930         144.004          46.250  
C 8  36763613.515   -21771919.9522       -127.705          43.500  
> 2020  6  5  8  0 13.0000000  0 25                     
G12  23831050.590    -7736901.591        3270.566          39.750  
G 3  25143229.346    -6955291.763       -3260.430          36.250  
C13  36778301.660   -21820942.6232          8.057          45.000  
G17  20958968.916   -25402908.008          99.834          46.500  
C23  26101180.652   -11019119.5762      -2267.461          35.250  
C28  22287969.786   -23472052.9112        781.670          48.500  
G 5  23892487.484   -10252136.804        3943.359          36.250  
G 4  24305258.198    -8562232.791         718.242          37.250  
G19  20458431.425   -30705258.426         819.209          46.000  
G 2  22663962.630   -15154569.821        1284.482          43.250  
C 3  36198843.169   -20424888.5722        292.041          43.750  
C14  23218370.339    -9984612.9562      -1136.572          43.750  
C 2  37234779.969   -19769550.4132        324.297          39.500  
G23  23593857.965   -11122592.084        2186.924          40.250  
C 1  37662354.156   -20195732.9842        277.471          41.250  
C27  24416975.260   -11834184.7222       2216.279          41.000  
C 4  38580991.204   -20479438.6002        274.590          38.500  
C 5  39251326.904   -19894315.4222        313.301          36.000  
C11  25951248.625    -1753709.9672      -1436.240          36.000  
C 7  37064448.324   -39991139.1182      -1021.201          41.250  
G 9  23468960.753   -13889344.053        2041.230          39.000  
C10  36248132.338   -28919089.8752       -625.303          42.500  
G28  21974983.378   -23556459.171       -2638.242          41.750  
G 6  21041323.857   -23705085.956         144.072          46.250  
C 8  36763637.928   -21771792.4522       -127.393          43.500  
> 2020  6  5  8  0 14.0000000  0 25                     
G12  23830428.507    -7740171.807        3270.020          40.000  
G 3  25143849.736    -6952031.187       -3260.664          36.250  
C13  36778300.229   -21820950.5452          7.812          45.000  
G17  20958949.825   -25403007.421          99.219          46.250  
C23  26101616.157   -11016851.9662      -2267.705          35.500  
C28  22287819.871   -23472834.3442        781.279          48.500  
G 5  23891736.828   -10256079.876        3942.910          36.250  
G 4  24305121.580    -8562950.522         717.441          37.250  
G19  20458275.507   -30706077.240         818.594          46.000  
G 2  22663718.257   -15155854.039        1284.111          43.000  
C 3  36198787.066   -20425180.4572        291.758          43.750  
C14  23218588.798    -9983475.8522      -1137.354          43.750  
C 2  37234717.654   -19769874.5952        324.082          39.500  
G23  23593441.759   -11124778.752        2186.523          40.250  
C 1  37662301.073   -20196010.2442        277.090          41.250  
C27  24416549.824   -11836400.8492       2215.996          41.000  
C 4  38580938.574   -20479713.0472        274.346          38.500  
C 5  39251266.649   -19894628.4672        312.979          36.250  
C11  25951524.339    -1752273.5182      -1436.582          36.000  
C 7  37064644.552   -39990117.6982      -1021.592          41.250  
G 9  23468572.224   -13891384.955        2040.674          39.000  
C10  36248252.343   -28918464.3112       -625.703          42.500  
G28  21975485.491   -23553820.504       -2638.916          42.000  
G 6  21041296.670   -23705229.754         143.594          46.500  
C 8  36763662.289   -21771664.9592       -127.617          43.500  
> 2020  6  5  8  0 15.0000000  0 25                     
G12  23829806.198    -7743441.471        3269.590          39.750  
G 3  25144470.074    -6948770.401       -3260.830          36.250  
C13  36778299.112   -21820958.3092          7.783          45.000  
G17  20958931.031   -25403106.365          98.877          46.250  
C23  26102051.871   -11014584.3792      -2267.490          35.500  
C28  22287669.939   -23473615.5272        781.172          48.500  
G 5  23890986.731   -10260022.625        3942.744          36.500  
G 4  24304985.120    -8563667.632         717.002          37.250  
G19  20458119.799   -30706895.574         818.271          46.000  
G 2  22663473.937   -15157137.949        1283.848          43.000  
C 3  36198730.807   -20425472.1742        291.787          43.750  
C14  23218807.310    -9982338.1192      -1137.881          43.750  
C 2  37234655.462   -19770198.6192        324.111          39.500  
G23  23593025.781   -11126965.105        2186.338          40.250  
C 1  37662247.692   -20196287.3802        277.109          41.250  
C27  24416123.951   -11838616.8432       2216.025          41.000  
C 4  38580885.839   -20479987.3162        274.287          38.250  
C 5  39251206.498   -19894941.3972        312.861          36.250  
C11  25951800.209    -1750836.8152      -1436.748          36.250  
C 7  37064840.779   -39989096.0162      -1021.670          41.000  
G 9  23468183.887   -13893425.409        2040.391          38.750  
C10  36248372.628   -28917838.4212       -625.908          42.500  
G28  21975987.708   -23551181.359       -2639.238          41.750  
G 6  21041269.500   -23705373.227         143.428          46.500  
C 8  36763686.684   -21771537.3422       -127.568          43.750  
> 2020  6  5  8  0 16.0000000  0 25                     
G12  23829184.028    -7746710.966        3269.316          40.000  
G 3  25145090.656    -6945509.663       -3260.840          36.250  
C13  36778297.647   -21820966.2842          7.969          45.000  
G17  20958911.906   -25403205.201          98.711          46.500  
C23  26102487.342   -11012317.1392      -2267.227          35.750  
C28  22287520.024   -23474396.7982        781.201          48.500  
G 5  23890236.703   -10263965.395        3942.607          36.750  
G 4  24304848.729    -8564384.479         716.738          37.250  
G19  20457964.230   -30707713.781         818.076          46.250  
G 2  22663229.546   -15158421.950        1283.916          43.250  
C 3  36198674.809   -20425764.0872        291.885          43.750  
C14  23219025.874    -9981200.0982      -1138.203          43.750  
C 2  37234593.269   -19770522.8432        324.170          39.750  
G23  23592609.367   -11129151.485        2186.260          40.000  
C 1  37662194.487   -20196564.7302        277.334          41.250  
C27  24415698.515   -11840833.0812       2216.230          41.000  
C 4  38580832.982   -20480261.7922        274.404          38.250  
C 5  39251146.521   -19895254.5102        313.145          36.000  
C11  25952076.080    -1749400.1592      -1436.738          36.500  
C 7  37065037.059   -39988074.4062      -1021.660          41.250  
G 9  23467795.445   -13895465.781        2040.234          38.500  
C10  36248492.772   -28917212.5882       -625.918          42.500  
G28  21976490.083   -23548542.103       -2639.385          41.750  
G 6  21041242.103   -23705516.696         143.350          46.500  
C 8  36763711.202   -21771410.0142       -127.314          43.750  
> 2020  6  5  8  0 17.0000000  0 25                     
G12  23828562.015    -7749980.206        3269.121          40.000  
G 3  25145711.185    -6942248.974       -3260.645          36.250  
C13  36778295.762   -21820974.3902          8.193          45.000  
G17  20958893.286   -25403303.818          98.594          46.500  
C23  26102922.812   -11010050.1592      -2266.826          36.000  
C28  22287369.952   -23475178.0482        781.289          48.750  
G 5  23889486.571   -10267908.159        3942.783          36.750  
G 4  24304712.425    -8565100.934         716.406          37.250  
G19  20457808.452   -30708531.757         817.969          46.250  
G 2  22662985.261   -15159705.911        1284.033          43.250  
C 3  36198618.794   -20426056.1012        292.129          43.750  
C14  23219244.595    -9980061.6702      -1138.486          43.750  
C 2  37234530.815   -19770847.1652        324.453          39.750  
G23  23592193.284   -11131337.809        2186.406          40.000  
C 1  37662141.211   -20196842.1492        277.510          41.250  
C27  24415272.852   -11843049.4482       2216.455          41.000  
C 4  38580780.196   -20480536.3562        274.648          38.250  
C 5  39251086.353   -19895567.7342        313.311          36.000  
C11  25952351.863    -1747963.5162      -1436.533          36.250  
C 7  37065233.392   -39987052.8092      -1021.562          41.250  
G 9  23467407.213   -13897505.927        2040.146          38.250  
C10  36248613.004   -28916586.6732       -625.830          42.500  
G28  21976992.404   -23545902.609       -2639.541          41.500  
G 6  21041214.741   -23705660.083         143.428          46.500  
C 8  36763735.580   -21771282.8352       -127.070          43.750  
> 2020  6  5  8  0 18.0000000  0 25                     
G12  23827939.967    -7753249.034        3268.711          40.000  
G 3  25146331.698    -6938988.116       -3260.811          36.500  
C13  36778294.157   -21820982.4462          8.057          44.750  
G17  20958874.301   -25403402.085          98.203          46.250  
C23  26103358.456   -11007783.2432      -2266.885          36.000  
C28  22287219.863   -23475959.1602        781.074          48.750  
G 5  23888736.735   -10271850.674        3942.441          37.000  
G 4  24304576.244    -8565816.898         715.752          37.250  
G19  20457652.813   -30709349.370         817.510          46.000  
G 2  22662741.097   -15160989.702        1283.779          43.250  
C 3  36198562.796   -20426348.0652        291.934          43.750  
C14  23219463.264    -9978922.7262      -1139.111          43.750  
C 2  37234468.727   -19771171.4342        324.277          39.750  
G23  23591777.515   -11133523.941        2186.016          40.000  
C 1  37662087.831   -20197119.5162        277.402          41.250  
C27  24414847.223   -11845265.8342       2216.416          41.000  
C 4  38580727.583   -20480810.9212        274.648          38.500  
C 5  39251026.272   -19895880.8892        313.213          36.000  
C11  25952627.768    -1746526.6952      -1436.855          36.500  
C 7  37065429.602   -39986031.0592      -1021.758          41.250  
G 9  23467018.893   -13899545.736        2039.697          38.250  
C10  36248733.219   -28915960.5802       -626.162          42.500  
G28  21977494.517   -23543262.744       -2640.039          41.500  
G 6  21041187.641   -23705803.237         143.096          46.500  
C 8  36763760.306   -21771155.6442       -127.168          43.500  
> 2020  6  5  8  0 19.0000000  0 25                     
G12  23827318.058    -7756517.513        3268.438          39.750  
G 3  25146952.088    -6935727.157       -3260.996          36.500  
C13  36778292.726   -21820990.4942          8.086          44.750  
G17  20958855.751   -25403500.026          97.900          46.250  
C23  26103793.770   -11005516.4762      -2266.729          35.750  
C28  22287069.913   -23476740.1512        780.977          48.750  
G 5  23887986.707   -10275793.004        3942.314          37.250  
G 4  24304440.341    -8566532.375         715.361          37.250  
G19  20457497.227   -30710166.667         817.285          46.000  
G 2  22662496.829   -15162273.336        1283.643          43.500  
C 3  36198506.432   -20426640.0202        291.982          43.750  
C14  23219682.159    -9977783.2772      -1139.541          43.750  
C 2  37234406.342   -19771495.6852        324.307          39.750  
G23  23591361.414   -11135709.886        2185.918          40.000  
C 1  37662034.503   -20197396.8732        277.432          41.250  
C27  24414421.508   -11847482.2142       2216.484          41.000  
C 4  38580675.023   -20481085.4012        274.561          38.500  
C 5  39250966.034   -19896194.0252        313.154          36.000  
C11  25952903.744    -1745089.7632      -1436.924          36.500  
C 7  37065625.812   -39985009.2042      -1021.895          41.250  
G 9  23466630.888   -13901585.241        2039.434          38.500  
C10  36248853.521   -28915334.3462       -626.270          42.500  
G28  21977996.612   -23540622.556       -2640.293          41.500  
G 6  21041160.471   -23705946.207         142.959          46.250  
C 8  36763784.737   -21771028.4922       -127.119          43.500  
> 2020  6  5  8  0 20.0000000  0 25                     
G12  23826695.958    -7759785.658        3268.008          39.750  
G 3  25147572.844    -6932466.158       -3261.113          36.750  
C13  36778290.946   -21820998.6052          8.018          44.750  
G17  20958836.992   -25403597.674          97.500          46.250  
C23  26104229.222   -11003249.9262      -2266.504          35.500  
C28  22286920.033   -23477521.0642        780.820          48.750  
G 5  23887236.068   -10279735.219        3942.031          37.000  
G 4  24304304.613    -8567247.380         714.795          37.250  
G19  20457341.955   -30710983.649         816.826          46.250  
G 2  22662252.631   -15163556.878        1283.398          43.500  
C 3  36198450.364   -20426931.9782        291.895          43.750  
C14  23219900.863    -9976643.3702      -1140.098          43.750  
C 2  37234343.975   -19771819.9532        324.248          39.750  
G23  23590945.366   -11137895.706        2185.713          40.000  
C 1  37661981.332   -20197674.2672        277.275          41.250  
C27  24413995.705   -11849698.6772       2216.406          41.000  
C 4  38580622.393   -20481359.9292        274.453          38.500  
C 5  39250905.865   -19896507.2242        313.086          36.000  
C11  25953179.806    -1743652.7122      -1437.178          36.500  
C 7  37065822.110   -39983987.2722      -1022.012          41.250  
G 9  23466242.812   -13903624.460        2039.043          38.750  
C10  36248973.683   -28914707.9652       -626.514          42.500  
G28  21978499.056   -23537982.063       -2640.684          41.500  
G 6  21041133.144   -23706089.007         142.676          46.250  
C 8  36763809.097   -21770901.4342       -127.148          43.500  
> 2020  6  5  8  0 21.0000000  0 25                     
G12  23826074.469    -7763053.243        3267.500          40.000  
G 3  25148193.426    -6929204.882       -3261.318          36.750  
C13  36778289.445   -21821006.6012          7.979          44.750  
G17  20958818.687   -25403694.870          97.090          46.250  
C23  26104664.501   -11000983.3422      -2266.572          35.750  
C28  22286769.996   -23478301.7042        780.566          48.750  
G 5  23886485.831   -10283677.127        3941.836          37.000  
G 4  24304168.868    -8567961.751         714.160          37.250  
G19  20457186.491   -30711800.147         816.338          46.000  
G 2  22662008.520   -15164840.139        1283.174          43.250  
C 3  36198394.401   -20427223.8012        291.777          43.750  
C14  23220119.950    -9975502.8212      -1140.703          43.750  
C 2  37234281.818   -19772144.0842        324.082          39.500  
G23  23590529.685   -11140081.182        2185.371          40.250  
C 1  37661927.969   -20197951.5052        277.129          41.250  
C27  24413570.199   -11851915.0072       2216.338          41.000  
C 4  38580569.729   -20481634.3162        274.385          38.250  
C 5  39250845.941   -19896820.2132        312.988          36.000  
C11  25953455.851    -1742215.3812      -1437.393          36.500  
C 7  37066018.337   -39982965.0622      -1022.246          41.250  
G 9  23465855.121   -13905663.211        2038.564          38.750  
C10  36249093.845   -28914081.2972       -626.748          42.500  
G28  21979001.570   -23535341.092       -2641.084          41.750  
G 6  21041106.061   -23706231.468         142.354          46.250  
C 8  36763833.423   -21770774.2832       -127.178          43.500  
> 2020  6  5  8  0 22.0000000  0 25                     
G12  23825452.543    -7766320.500        3267.158          40.000  
G 3  25148814.026    -6925943.563       -3261.348          37.000  
C13  36778287.962   -21821014.6072          7.969          44.750  
G17  20958800.015   -25403791.755          96.768          46.250  
C23  26105099.604   -10998716.9322      -2266.367          35.750  
C28  22286620.256   -23479082.2722        780.508          48.750  
G 5  23885735.873   -10287618.872        3941.641          36.750  
G 4  24304032.896    -8568675.727         713.789          37.250  
G19  20457031.411   -30712616.347         816.074          46.250  
G 2  22661764.234   -15166123.281        1283.057          43.250  
C 3  36198338.177   -20427515.6282        291.787          43.750  
C14  23220338.968    -9974361.8172      -1141.172          43.750  
C 2  37234219.712   -19772468.2282        324.141          39.500  
G23  23590113.863   -11142266.549        2185.283          40.000  
C 1  37661874.554   -20198228.7782        277.217          41.500  
C27  24413144.693   -11854131.4002       2216.377          40.750  
C 4  38580517.064   -20481908.7162        274.326          38.500  
C 5  39250785.895   -19897133.2932        313.057          36.250  
C11  25953731.983    -1740777.9862      -1437.568          36.500  
C 7  37066214.705   -39981942.7732      -1022.363          41.250  
G 9  23465467.307   -13907701.696        2038.291          39.000  
C10  36249214.356   -28913454.4712       -626.885          42.250  
G28  21979504.067   -23532699.825       -2641.387          41.500  
G 6  21041079.100   -23706373.780         142.217          46.250  
C 8  36763857.975   -21770647.1882       -127.100          43.500  
> 2020  6  5  8  0 23.0000000  0 25                     
G12  23824831.053    -7769587.481        3266.875          39.750  
G 3  25149434.905    -6922682.240       -3261.348          37.250  
C13  36778286.182   -21821022.7162          8.096          44.750  
G17  20958781.692   -25403888.433          96.572          46.250  
C23  26105534.743   -10996450.7852      -2266.084          35.750  
C28  22286470.393   -23479862.8202        780.518          48.750  
G 5  23884985.653   -10291560.605        3941.709          36.500  
G 4  24303897.064    -8569389.268         713.408          37.250  
G19  20456876.122   -30713432.334         815.889          46.250  
G 2  22661520.175   -15167406.412        1283.135          43.250  
C 3  36198282.266   -20427807.5762        291.963          43.750  
C14  23220557.986    -9973220.4302      -1141.553          43.750  
C 2  37234157.241   -19772792.4982        324.258          39.500  
G23  23589697.972   -11144451.843        2185.234          40.000  
C 1  37661821.261   -20198506.1422        277.393          41.500  
C27  24412718.960   -11856347.9432       2216.562          40.750  
C 4  38580464.224   -20482183.2262        274.580          38.250  
C 5  39250725.692   -19897446.4232        313.223          36.000  
C11  25954008.011    -1739340.5522      -1437.510          36.500  
C 7  37066411.002   -39980920.4952      -1022.295          41.250  
G 9  23465079.511   -13909739.971        2038.223          39.000  
C10  36249334.711   -28912827.6042       -626.924          42.250  
G28  21980007.017   -23530058.337       -2641.592          41.750  
G 6  21041051.878   -23706515.998         142.168          46.250  
C 8  36763882.231   -21770520.2662       -126.875          43.750  
> 2020  6  5  8  0 24.0000000  0 25                     
G12  23824209.459    -7772853.903        3266.348          39.750  
G 3  25150055.592    -6919420.624       -3261.562          37.250  
C13  36778284.419   -21821030.6262          7.939          44.750  
G17  20958763.300   -25403984.590          96.113          46.250  
C23  26105969.969   -10994184.5502      -2266.201          35.750  
C28  22286320.548   -23480643.0612        780.234          48.750  
G 5  23884235.643   -10295501.928        3941.357          36.500  
G 4  24303761.353    -8570102.146         712.803          37.000  
G19  20456720.762   -30714247.774         815.381          46.250  
G 2  22661275.872   -15168689.189        1282.793          43.250  
C 3  36198226.338   -20428099.2912        291.758          43.750  
C14  23220777.370    -9972078.3432      -1142.168          43.750  
C 2  37234094.821   -19773116.5132        324.053          39.500  
G23  23589282.168   -11146636.757        2184.922          40.000  
C 1  37661767.986   -20198783.3192        277.217          41.500  
C27  24412293.297   -11858564.2922       2216.406          40.750  
C 4  38580411.507   -20482457.5212        274.326          38.500  
C 5  39250665.401   -19897759.3632        312.998          35.750  
C11  25954284.213    -1737902.7772      -1437.822          36.500  
C 7  37066607.492   -39979897.8792      -1022.598          41.250  
G 9  23464691.767   -13911777.741        2037.646          39.000  
C10  36249455.187   -28912200.3612       -627.236          42.250  
G28  21980510.037   -23527416.324       -2642.051          41.750  
G 6  21041024.673   -23706657.829         141.826          46.250  
C 8  36763906.679   -21770393.1832       -127.012          43.500  
> 2020  6  5  8  0 25.0000000  0 25                     
G12  23823587.900    -7776120.136        3266.221          40.000  
G 3  25150675.929    -6916159.054       -3261.572          37.250  
C13  36778282.936   -21821038.7352          8.125          45.000  
G17  20958745.029   -25404080.582          95.967          46.250  
C23  26106405.107   -10991918.6962      -2265.742          35.500  
C28  22286170.825   -23481423.3482        780.273          48.750  
G 5  23883485.545   -10299443.247        3941.377          36.500  
G 4  24303625.678    -8570814.707         712.393          37.000  
G19  20456565.769   -30715063.044         815.225          46.250  
G 2  22661031.796   -15169971.987        1282.783          43.250  
C 3  36198170.585   -20428391.1682        291.904          43.750  
C14  23220996.702    -9970935.9182      -1142.568          43.750  
C 2  37234032.541   -19773440.7032        324.219          39.500  
G23  23588866.225   -11148821.641        2184.883          40.000  
C 1  37661714.763   -20199060.6182        277.305          41.500  
C27  24411867.511   -11860780.8512       2216.611          40.500  
C 4  38580358.860   -20482731.9602        274.482          38.500  
C 5  39250605.216   -19898072.4572        313.115          36.000  
C11  25954560.432    -1736465.0482      -1437.812          36.750  
C 7  37066804.016   -39978875.3472      -1022.480          41.500  
G 9  23464304.023   -13913815.371        2037.588          38.750  
C10  36249575.698   -28911573.1222       -627.236          42.500  
G28  21981013.196   -23524774.146       -2642.207          42.000  
G 6  21040997.695   -23706799.620         141.768          46.250  
C 8  36763931.092   -21770266.3112       -126.836          43.500  
> 2020  6  5  8  0 26.0000000  0 25                     
G12  23822965.974    -7779385.930        3265.664          39.750  
G 3  25151296.511    -6912897.350       -3261.738          37.250  
C13  36778281.104   -21821046.7822          8.066          45.000  
G17  20958726.864   -25404176.206          95.518          46.250  
C23  26106840.194   -10989652.8432      -2265.771          35.500  
C28  22286020.876   -23482203.4672        780.068          48.750  
G 5  23882735.256   -10303384.368        3941.064          36.250  
G 4  24303490.090    -8571526.740         711.885          37.000  
G19  20456410.794   -30715877.930         814.785          46.250  
G 2  22660787.720   -15171254.610        1282.588          43.250  
C 3  36198114.849   -20428682.9812        291.865          43.750  
C14  23221216.260    -9969792.9552      -1143.096          43.750  
C 2  37233970.349   -19773764.8132        324.111          39.750  
G23  23588450.334   -11151006.365        2184.648          40.000  
C 1  37661661.627   -20199337.8632        277.217          41.250  
C27  24411441.935   -11862997.3832       2216.543          40.750  
C 4  38580306.230   -20483006.3392        274.375          38.500  
C 5  39250545.030   -19898385.4702        312.979          36.000  
C11  25954836.722    -1735027.1572      -1437.939          36.750  
C 7  37067000.610   -39977852.6192      -1022.744          41.500  
G 9  23463916.489   -13915852.615        2037.188          38.500  
C10  36249696.105   -28910945.6722       -627.529          42.250  
G28  21981516.391   -23522131.574       -2642.686          42.000  
G 6  21040970.822   -23706941.178         141.514          46.250  
C 8  36763955.505   -21770139.4352       -126.846          43.500  
> 2020  6  5  8  0 27.0000000  0 25                     
G12  23822344.642    -7782651.435        3265.469          39.750  
G 3  25151916.797    -6909635.644       -3261.680          37.250  
C13  36778279.638   -21821054.9462          8.213          45.000  
G17  20958708.628   -25404271.603          95.381          46.000  
C23  26107275.245   -10987387.2792      -2265.420          35.500  
C28  22285871.257   -23482983.5742        780.137          48.750  
G 5  23881985.071   -10307325.432        3941.104          36.000  
G 4  24303354.484    -8572238.375         711.572          36.750  
G19  20456255.871   -30716692.584         814.639          46.250  
G 2  22660543.539   -15172537.198        1282.676          43.250  
C 3  36198058.624   -20428974.8892        291.943          43.750  
C14  23221435.924    -9968649.5922      -1143.457          43.750  
C 2  37233907.999   -19774089.0422        324.258          39.750  
G23  23588034.391   -11153190.986        2184.521          40.000  
C 1  37661608.089   -20199615.2252        277.432          41.500  
C27  24411016.115   -11865214.0392       2216.729          40.750  
C 4  38580253.548   -20483280.8142        274.492          38.500  
C 5  39250484.879   -19898698.5942        313.232          36.000  
C11  25955113.011    -1733589.2272      -1437.861          36.750  
C 7  37067196.786   -39976829.8882      -1022.695          41.500  
G 9  23463528.675   -13917889.674        2037.012          38.500  
C10  36249816.476   -28910318.1672       -627.480          42.500  
G28  21982019.289   -23519488.782       -2642.812          42.000  
G 6  21040943.774   -23707082.634         141.475          46.250  
C 8  36763979.708   -21770012.7192       -126.660          43.500  
> 2020  6  5  8  0 28.0000000  0 25                     
G12  23821723.082    -7785916.603        3265.127          39.750  
G 3  25152537.745    -6906373.839       -3261.855          37.000  
C13  36778278.137   -21821063.1042          8.203          45.000  
G17  20958690.428   -25404366.709          95.068          46.000  
C23  26107710.174   -10985121.8592      -2265.391          35.250  
C28  22285721.465   -23483763.5832        780.010          48.750  
G 5  23881234.973   -10311266.312        3940.850          35.750  
G 4  24303219.070    -8572949.556         711.113          36.750  
G19  20456100.896   -30717506.921         814.258          46.250  
G 2  22660299.445   -15173819.643        1282.461          43.250  
C 3  36198002.504   -20429266.7842        291.973          43.750  
C14  23221655.343    -9967505.7442      -1143.936          43.750  
C 2  37233845.615   -19774413.2812        324.316          39.500  
G23  23587618.587   -11155375.467        2184.482          40.000  
C 1  37661554.971   -20199892.5942        277.471          41.250  
C27  24410590.295   -11867430.7582       2216.777          40.750  
C 4  38580200.587   -20483555.3102        274.502          38.500  
C 5  39250424.833   -19899011.6982        313.145          36.250  
C11  25955389.091    -1732151.2032      -1438.018          36.500  
C 7  37067393.118   -39975807.0602      -1022.812          41.500  
G 9  23463140.984   -13919926.430        2036.729          38.500  
C10  36249936.900   -28909690.5152       -627.666          42.250  
G28  21982522.274   -23516845.672       -2643.164          41.750  
G 6  21040916.883   -23707223.920         141.299          46.250  
C 8  36764004.191   -21769886.0732       -126.592          43.500  
> 2020  6  5  8  0 29.0000000  0 25                     
G12  23821101.349    -7789181.484        3264.717          39.500  
G 3  25153158.380    -6903112.055       -3261.758          37.000  
C13  36778276.514   -21821071.3832          8.311          45.000  
G17  20958672.367   -25404461.589          94.824          46.250  
C23  26108144.946   -10982856.7192      -2265.020          35.250  
C28  22285571.724   -23484543.5752        780.000          48.750  
G 5  23880484.806   -10315207.168        3940.869          35.750  
G 4  24303083.866    -8573660.379         710.732          36.750  
G19  20455946.042   -30718321.032         814.062          46.250  
G 2  22660055.596   -15175102.075        1282.402          43.250  
C 3  36197946.245   -20429558.7782        291.992          43.750  
C14  23221875.006    -9966361.5232      -1144.355          43.750  
C 2  37233783.422   -19774737.5712        324.326          39.500  
G23  23587203.045   -11157559.852        2184.365          40.000  
C 1  37661501.713   -20200170.0312        277.500          41.250  
C27  24410164.684   -11869647.5762       2216.875          40.750  
C 4  38580147.887   -20483829.8572        274.531          38.500  
C 5  39250364.647   -19899324.9672        313.301          36.000  
C11  25955665.136    -1730713.1222      -1437.979          36.500  
C 7  37067589.415   -39974784.2212      -1022.861          41.500  
G 9  23462753.257   -13921963.004        2036.562          38.500  
C10  36250057.481   -28909062.7932       -627.744          42.250  
G28  21983025.119   -23514202.334       -2643.408          42.000  
G 6  21040890.080   -23707365.114         141.172          46.250  
C 8  36764028.604   -21769759.5632       -126.494          43.500  
> 2020  6  5  8  0 30.0000000  0 25                     
G12  23820480.068    -7792446.017        3264.346          39.750  
G 3  25153779.067    -6899850.178       -3261.924          37.000  
C13  36778275.049   -21821079.6492          8.223          45.000  
G17  20958654.463   -25404556.151          94.434          46.250  
C23  26108579.771   -10980591.6892      -2265.029          35.250  
C28  22285422.019   -23485323.4552        779.805          48.750  
G 5  23879734.830   -10319147.803        3940.586          36.000  
G 4  24302948.540    -8574370.698         710.176          36.750  
G19  20455790.927   -30719134.808         813.633          46.250  
G 2  22659811.642   -15176384.380        1282.217          43.250  
C 3  36197890.160   -20429850.7812        291.982          43.750  
C14  23222094.791    -9965216.8032      -1144.932          43.500  
C 2  37233721.177   -19775061.9042        324.297          39.500  
G23  23586787.258   -11159744.100        2184.160          40.000  
C 1  37661448.577   -20200447.4762        277.412          41.250  
C27  24409738.812   -11871864.4632       2216.846          40.750  
C 4  38580095.275   -20484104.4222        274.482          38.500  
C 5  39250304.705   -19899638.1502        313.193          36.250  
C11  25955941.338    -1729274.9422      -1438.135          36.500  
C 7  37067785.992   -39973761.2772      -1023.037          41.500  
G 9  23462366.054   -13923999.227        2036.035          38.750  
C10  36250178.202   -28908434.9002       -627.979          42.250  
G28  21983528.488   -23511558.674       -2643.809          42.000  
G 6  21040863.311   -23707506.115         140.928          46.250  
C 8  36764052.877   -21769633.1122       -126.475          43.500  
> 2020  6  5  8  0 31.0000000  0 25                     
G12  23819859.033    -7795710.120        3263.916          39.750  
G 3  25154399.876    -6896588.153       -3262.070          36.750  
C13  36778273.461   -21821087.9042          8.252          44.750  
G17  20958636.419   -25404650.348          94.053          46.000  
C23  26109014.857   -10978326.8032      -2264.873          35.250  
C28  22285272.122   -23486103.1842        779.658          48.750  
G 5  23878985.030   -10323088.303        3940.400          36.000  
G 4  24302813.632    -8575080.520         709.678          36.750  
G19  20455636.249   -30719948.224         813.281          46.250  
G 2  22659567.775   -15177666.495        1282.051          43.250  
C 3  36197833.900   -20430142.7232        291.924          43.750  
C14  23222314.664    -9964071.5502      -1145.430          43.500  
C 2  37233659.037   -19775386.2042        324.297          39.500  
G23  23586371.682   -11161928.141        2183.945          40.000  
C 1  37661395.302   -20200724.8772        277.363          41.250  
C27  24409313.096   -11874081.3172       2216.816          40.750  
C 4  38580042.557   -20484378.9592        274.473          38.500  
C 5  39250244.781   -19899951.3112        313.115          36.000  
C11  25956217.400    -1727836.5572      -1438.496          36.500  
C 7  37067982.377   -39972738.1782      -1023.154          41.500  
G 9  23461979.043   -13926035.107        2035.723          39.000  
C10  36250298.748   -28907806.8672       -628.135          42.500  
G28  21984031.491   -23508914.645       -2644.150          42.000  
G 6  21040836.490   -23707646.894         140.684          46.250  
C 8  36764076.993   -21769506.6692       -126.475          43.500  
> 2020  6  5  8  0 32.0000000  0 25                     
G12  23819238.189    -7798973.940        3263.779          39.750  
G 3  25155020.807    -6893326.111       -3262.002          36.500  
C13  36778271.995   -21821096.2342          8.369          45.000  
G17  20958618.515   -25404744.310          93.926          46.000  
C23  26109449.769   -10976062.1112      -2264.561          35.250  
C28  22285122.364   -23486882.8782        779.736          48.750  
G 5  23878235.490   -10327028.665        3940.352          36.500  
G 4  24302678.655    -8575789.904         709.346          36.750  
G19  20455481.622   -30720761.377         813.135          46.250  
G 2  22659323.821   -15178948.571        1282.139          43.250  
C 3  36197778.077   -20430434.7272        292.061          43.750  
C14  23222534.659    -9962925.8972      -1145.703          43.500  
C 2  37233596.705   -19775710.5492        324.404          39.750  
G23  23585956.017   -11164112.051        2183.975          40.000  
C 1  37661342.148   -20201002.3532        277.549          41.500  
C27  24408887.503   -11876298.2952       2217.061          40.750  
C 4  38579989.980   -20484653.5432        274.678          38.500  
C 5  39250184.543   -19900264.5572        313.340          36.000  
C11  25956493.655    -1726398.1412      -1438.457          36.250  
C 7  37068178.866   -39971715.0532      -1023.145          41.500  
G 9  23461591.666   -13928070.768        2035.664          39.250  
C10  36250419.346   -28907178.7042       -628.125          42.500  
G28  21984534.581   -23506270.370       -2644.297          41.750  
G 6  21040809.529   -23707787.567         140.664          46.250  
C 8  36764101.354   -21769380.3492       -126.260          43.500  
> 2020  6  5  8  0 33.0000000  0 25                     
G12  23818617.258    -7802237.442        3263.555          39.750  
G 3  25155641.459    -6890064.085       -3261.895          36.500  
C13  36778270.442   -21821104.6652          8.613          45.000  
G17  20958600.646   -25404838.038          93.799          46.000  
C23  26109884.576   -10973797.6762      -2264.180          35.250  
C28  22284972.641   -23487662.5362        779.766          48.750  
G 5  23877486.230   -10330968.970        3940.479          36.750  
G 4  24302543.625    -8576498.887         708.984          37.000  
G19  20455327.083   -30721574.286         812.988          46.250  
G 2  22659079.867   -15180230.568        1282.139          43.250  
C 3  36197721.905   -20430726.8232        292.275          43.750  
C14  23222754.654    -9961779.8252      -1145.996          43.500  
C 2  37233534.285   -19776034.9622        324.541          39.750  
G23  23585540.353   -11166295.921        2183.994          40.000  
C 1  37661288.908   -20201279.9112        277.734          41.500  
C27  24408461.787   -11878515.3872       2217.256          40.500  
C 4  38579937.158   -20484928.2022        274.902          38.500  
C 5  39250124.322   -19900577.8722        313.496          36.000  
C11  25956769.944    -1724959.7012      -1438.271          36.250  
C 7  37068375.460   -39970691.9002      -1022.969          41.500  
G 9  23461204.550   -13930106.201        2035.508          39.500  
C10  36250539.997   -28906550.5032       -628.066          42.250  
G28  21985037.356   -23503625.848       -2644.463          41.750  
G 6  21040782.953   -23707928.123         140.645          46.250  
C 8  36764125.592   -21769254.1642       -125.967          43.750  
> 2020  6  5  8  0 34.0000000  0 25                     
G12  23817996.309    -7805500.590        3263.008          40.000  
G 3  25156262.302    -6886801.919       -3262.266          36.250  
C13  36778268.819   -21821113.1072          8.418          45.000  
G17  20958582.987   -25404931.442          93.311          46.000  
C23  26110319.470   -10971533.3762      -2264.238          35.000  
C28  22284823.058   -23488442.0842        779.492          49.000  
G 5  23876736.866   -10334909.070        3940.020          37.000  
G 4  24302408.595    -8577207.422         708.320          37.000  
G19  20455172.788   -30722386.863         812.471          46.000  
G 2  22658836.122   -15181512.443        1281.836          43.250  
C 3  36197665.907   -20431018.8932        292.061          43.750  
C14  23222974.841    -9960633.2592      -1146.738          43.500  
C 2  37233472.005   -19776359.3682        324.385          39.750  
G23  23585124.794   -11168479.609        2183.594          40.000  
C 1  37661235.440   -20201557.4632        277.529          41.500  
C27  24408036.072   -11880732.4892       2217.090          40.500  
C 4  38579884.424   -20485202.8792        274.678          38.500  
C 5  39250064.137   -19900891.1762        313.242          36.000  
C11  25957046.059    -1723521.1342      -1438.623          36.000  
C 7  37068572.124   -39969668.6142      -1023.350          41.500  
G 9  23460817.505   -13932141.325        2034.990          39.500  
C10  36250660.473   -28905922.1232       -628.477          42.250  
G28  21985540.463   -23500980.993       -2645.010          41.750  
G 6  21040756.376   -23708068.487         140.244          46.250  
C 8  36764149.743   -21769128.0342       -126.143          43.750  
> 2020  6  5  8  0 35.0000000  0 25                     
G12  23817375.343    -7808763.325        3262.646          39.750  
G 3  25156882.902    -6883539.640       -3262.314          36.250  
C13  36778267.283   -21821121.4992          8.447          45.000  
G17  20958565.327   -25405024.476          92.979          46.000  
C23  26110754.173   -10969269.1622      -2264.072          35.000  
C28  22284673.283   -23489221.4482        779.355          49.000  
G 5  23875987.309   -10338848.951        3939.824          37.000  
G 4  24302273.705    -8577915.417         707.891          37.000  
G19  20455018.057   -30723199.044         812.109          46.250  
G 2  22658591.994   -15182794.108        1281.641          43.250  
C 3  36197609.578   -20431310.8942        292.012          43.750  
C14  23223195.289    -9959486.1492      -1147.197          43.500  
C 2  37233409.935   -19776683.7182        324.316          39.750  
G23  23584709.321   -11170663.062        2183.438          40.000  
C 1  37661182.147   -20201834.9382        277.480          41.500  
C27  24407610.182   -11882949.5892       2217.109          40.750  
C 4  38579831.654   -20485477.4912        274.736          38.500  
C 5  39250003.916   -19901204.4162        313.232          36.000  
C11  25957322.261    -1722082.3762      -1438.779          36.250  
C 7  37068768.614   -39968645.1942      -1023.486          41.500  
G 9  23460430.284   -13934176.079        2034.746          39.250  
C10  36250781.072   -28905293.5252       -628.594          42.250  
G28  21986043.693   -23498335.733       -2645.312          41.500  
G 6  21040729.346   -23708208.608         140.107          46.250  
C 8  36764173.929   -21769001.8892       -126.055          43.500  
> 2020  6  5  8  0 36.0000000  0 25                     
G12  23816754.761    -7812025.586        3262.236          40.000  
G 3  25157503.641    -6880277.136       -3262.510          36.000  
C13  36778265.835   -21821129.7792          8.350          45.000  
G17  20958547.737   -25405117.074          92.578          46.000  
C23  26111188.823   -10967004.9512      -2264.150          35.000  
C28  22284523.926   -23490000.6102        779.189          49.000  
G 5  23875237.857   -10342788.588        3939.658          36.750  
G 4  24302139.041    -8578622.828         707.275          36.750  
G19  20454863.536   -30724010.793         811.719          46.250  
G 2  22658347.900   -15184075.512        1281.396          43.250  
C 3  36197553.755   -20431602.7972        291.953          43.750  
C14  23223415.459    -9958338.4342      -1147.803          43.500  
C 2  37233347.516   -19777007.9642        324.346          39.750  
G23  23584293.727   -11172846.250        2183.164          40.000  
C 1  37661128.872   -20202112.3042        277.432          41.500  
C27  24407184.274   -11885166.6002       2217.090          40.500  
C 4  38579778.902   -20485751.9422        274.502          38.500  
C 5  39249944.114   -19901517.5902        313.242          36.250  
C11  25957598.498    -1720643.3682      -1439.062          36.500  
C 7  37068965.243   -39967621.5512      -1023.594          41.500  
G 9  23460043.046   -13936210.429        2034.326          39.000  
C10  36250901.792   -28904664.6942       -628.848          42.250  
G28  21986547.306   -23495690.062       -2645.723          41.750  
G 6  21040703.136   -23708348.443         139.854          46.250  
C 8  36764197.906   -21768875.6902       -126.094          43.500  
> 2020  6  5  8  0 37.0000000  0 25                     
G12  23816134.127    -7815287.419        3261.562          40.000  
G 3  25158124.485    -6877014.500       -3262.754          36.250  
C13  36778264.352   -21821138.0522          8.115          45.000  
G17  20958529.903   -25405209.332          92.012          46.250  
C23  26111623.438   -10964740.9202      -2264.238          34.750  
C28  22284374.291   -23490779.6262        778.838          49.000  
G 5  23874488.213   -10346728.005        3939.258          36.750  
G 4  24302004.640    -8579329.713         706.602          36.750  
G19  20454709.276   -30724822.178         811.133          46.250  
G 2  22658104.033   -15185356.758        1281.064          43.250  
C 3  36197497.547   -20431894.6572        291.709          43.750  
C14  23223636.065    -9957190.2072      -1148.535          43.500  
C 2  37233285.166   -19777332.1662        324.092          39.750  
G23  23583878.429   -11175029.231        2182.734          40.250  
C 1  37661075.701   -20202389.6442        277.197          41.250  
C27  24406758.541   -11887383.6032       2216.836          40.500  
C 4  38579726.010   -20486026.3962        274.326          38.500  
C 5  39249884.015   -19901830.6512        312.910          36.250  
C11  25957874.979    -1719204.2202      -1439.375          36.500  
C 7  37069161.994   -39966597.7372      -1023.965          41.500  
G 9  23459655.756   -13938244.432        2033.789          38.750  
C10  36251022.670   -28904035.6212       -629.277          42.500  
G28  21987051.111   -23493044.044       -2646.250          42.000  
G 6  21040676.524   -23708488.034         139.375          46.250  
C 8  36764222.249   -21768749.5132       -126.289          43.500  
> 2020  6  5  8  0 38.0000000  0 25                     
G12  23815513.440    -7818549.076        3261.582          40.000  
G 3  25158745.381    -6873751.955       -3262.549          36.250  
C13  36778262.903   -21821146.5042          8.477          45.000  
G17  20958512.697   -25405301.443          92.031          46.000  
C23  26112058.158   -10962477.1792      -2263.613          34.750  
C28  22284224.620   -23491558.6972        779.072          49.000  
G 5  23873738.482   -10350667.438        3939.355          36.750  
G 4  24301870.029    -8580036.312         706.504          36.750  
G19  20454554.684   -30725633.397         811.143          46.250  
G 2  22657860.428   -15186638.027        1281.289          43.000  
C 3  36197441.654   -20432186.6922        292.051          43.750  
C14  23223856.531    -9956041.6582      -1148.633          43.500  
C 2  37233222.938   -19777656.5372        324.404          39.500  
G23  23583463.149   -11177212.234        2182.988          40.250  
C 1  37661022.443   -20202667.1562        277.559          41.500  
C27  24406332.616   -11889600.8262       2217.207          40.500  
C 4  38579673.224   -20486301.0102        274.658          38.500  
C 5  39249823.882   -19902143.8942        313.242          36.000  
C11  25958151.373    -1717765.1342      -1439.062          36.500  
C 7  37069358.623   -39965574.0032      -1023.760          41.500  
G 9  23459268.728   -13940278.291        2033.857          38.750  
C10  36251143.391   -28903406.6012       -629.023          42.250  
G28  21987554.829   -23490397.853       -2646.240          42.000  
G 6  21040649.685   -23708627.633         139.590          46.250  
C 8  36764246.295   -21768623.5402       -125.928          43.750  
> 2020  6  5  8  0 39.0000000  0 25                     
G12  23814892.666    -7821810.298        3261.191          40.000  
G 3  25159366.208    -6870489.245       -3262.715          36.250  
C13  36778261.490   -21821154.9232          8.516          45.000  
G17  20958495.264   -25405393.183          91.777          46.000  
C23  26112492.895   -10960213.5192      -2263.555          34.750  
C28  22284075.037   -23492337.6062        778.975          49.000  
G 5  23872989.013   -10354606.628        3939.248          36.750  
G 4  24301735.575    -8580742.360         705.986          37.000  
G19  20454400.407   -30726444.233         810.820          46.250  
G 2  22657616.614   -15187919.113        1281.133          43.000  
C 3  36197385.412   -20432478.6602        292.090          43.750  
C14  23224077.206    -9954892.5662      -1149.131          43.500  
C 2  37233160.502   -19777980.8572        324.434          39.500  
G23  23583047.729   -11179394.969        2182.773          40.250  
C 1  37660969.132   -20202944.6212        277.568          41.500  
C27  24405906.744   -11891818.0422       2217.285          40.250  
C 4  38579620.384   -20486575.5692        274.658          38.500  
C 5  39249763.557   -19902457.0992        313.311          36.250  
C11  25958427.750    -1716325.8482      -1439.199          36.500  
C 7  37069555.235   -39964550.1032      -1023.818          41.500  
G 9  23458881.682   -13942311.802        2033.545          38.750  
C10  36251264.199   -28902777.3652       -629.189          42.250  
G28  21988058.478   -23487751.290       -2646.543          42.000  
G 6  21040623.144   -23708766.971         139.375          46.250  
C 8  36764270.656   -21768497.5622       -125.869          43.750  
> 2020  6  5  8  0 40.0000000  0 25                     
G12  23814272.101    -7825071.125        3260.654          40.000  
G 3  25159987.069    -6867226.423       -3262.939          36.000  
C13  36778259.797   -21821163.3062          8.301          45.000  
G17  20958478.111   -25405484.577          91.211          46.000  
C23  26112927.667   -10957950.0052      -2263.594          34.750  
C28  22283925.436   -23493116.3742        778.662          49.000  
G 5  23872239.665   -10358545.683        3939.053          36.750  
G 4  24301601.348    -8581447.905         705.371          36.750  
G19  20454246.182   -30727254.716         810.352          46.250  
G 2  22657373.026   -15189200.051        1280.820          43.000  
C 3  36197329.397   -20432770.5732        291.895          43.750  
C14  23224297.829    -9953742.9452      -1149.824          43.500  
C 2  37233098.222   -19778305.1192        324.238          39.750  
G23  23582632.222   -11181577.548        2182.520          40.000  
C 1  37660915.979   -20203222.0132        277.285          41.500  
C27  24405480.924   -11894035.2382       2217.119          40.250  
C 4  38579567.685   -20486850.0742        274.473          38.500  
C 5  39249703.336   -19902770.2862        313.184          36.250  
C11  25958704.056    -1714886.4222      -1439.639          36.500  
C 7  37069751.986   -39963526.0582      -1024.170          41.500  
G 9  23458494.636   -13944344.961        2033.008          38.750  
C10  36251385.198   -28902147.9122       -629.609          42.250  
G28  21988562.545   -23485104.378       -2647.080          42.000  
G 6  21040596.759   -23708906.107         139.043          46.250  
C 8  36764294.754   -21768371.6152       -125.957          43.750  
> 2020  6  5  8  0 41.0000000  0 25                     
G12  23813651.798    -7828331.413        3260.088          39.750  
G 3  25160608.017    -6863963.328       -3263.252          36.000  
C13  36778258.017   -21821171.5132          8.086          45.000  
G17  20958460.591   -25405575.478          90.732          46.000  
C23  26113362.247   -10955686.4112      -2263.672          34.500  
C28  22283776.080   -23493894.8592        778.389          49.000  
G 5  23871490.091   -10362484.338        3938.555          36.750  
G 4  24301467.243    -8582152.772         704.619          36.750  
G19  20454091.922   -30728064.681         809.795          46.250  
G 2  22657129.142   -15190480.669        1280.488          43.250  
C 3  36197273.190   -20433062.3222        291.709          43.750  
C14  23224518.941    -9952592.6652      -1150.518          43.500  
C 2  37233036.012   -19778629.2012        324.092          39.750  
G23  23582216.820   -11183759.768        2182.139          40.000  
C 1  37660862.738   -20203499.2562        277.188          41.500  
C27  24405055.156   -11896252.3062       2217.031          40.500  
C 4  38579514.968   -20487124.4272        274.277          38.500  
C 5  39249643.237   -19903083.2882        312.959          36.250  
C11  25958980.276    -1713446.6952      -1439.805          36.500  
C 7  37069948.493   -39962501.7572      -1024.395          41.500  
G 9  23458107.713   -13946377.659        2032.539          39.000  
C10  36251506.233   -28901518.1402       -629.912          42.250  
G28  21989066.385   -23482456.962       -2647.568          42.000  
G 6  21040570.584   -23709044.877         138.652          46.250  
C 8  36764318.993   -21768245.5632       -126.084          43.750  
> 2020  6  5  8  0 42.0000000  0 25                     
G12  23813031.356    -7831591.485        3260.078          40.000  
G 3  25161229.245    -6860700.302       -3262.979          36.250  
C13  36778256.133   -21821179.8922          8.486          45.000  
G17  20958443.385   -25405666.212          90.732          46.250  
C23  26113796.932   -10953423.2072      -2263.057          34.500  
C28  22283626.636   -23494673.3802        778.574          49.000  
G 5  23870740.657   -10366422.982        3938.740          37.000  
G 4  24301333.051    -8582857.372         704.580          37.000  
G19  20453937.767   -30728874.471         809.785          46.250  
G 2  22656885.432   -15191761.317        1280.674          43.250  
C 3  36197217.175   -20433354.2082        292.031          43.750  
C14  23224739.983    -9951442.0682      -1150.635          43.500  
C 2  37232973.802   -19778953.4562        324.365          39.750  
G23  23581801.592   -11185941.980        2182.314          40.000  
C 1  37660809.585   -20203776.6522        277.480          41.500  
C27  24404629.301   -11898469.5582       2217.383          40.500  
C 4  38579462.320   -20487398.9042        274.648          38.500  
C 5  39249582.825   -19903396.4212        313.213          36.000  
C11  25959256.652    -1712007.0242      -1439.609          36.500  
C 7  37070145.052   -39961477.4712      -1024.160          41.750  
G 9  23457720.824   -13948410.179        2032.520          39.250  
C10  36251627.111   -28900888.3882       -629.639          42.250  
G28  21989570.138   -23479809.381       -2647.559          42.000  
G 6  21040544.094   -23709183.601         138.750          46.500  
C 8  36764343.283   -21768119.7092       -125.742          43.750  
> 2020  6  5  8  0 43.0000000  0 25                     
G12  23812410.931    -7834851.207        3259.668          40.000  
G 3  25161850.089    -6857437.201       -3263.105          36.250  
C13  36778254.597   -21821188.3102          8.467          45.000  
G17  20958426.301   -25405756.657          90.391          46.250  
C23  26114231.582   -10951160.1162      -2262.979          34.500  
C28  22283477.122   -23495451.8142        778.447          49.000  
G 5  23869991.135   -10370361.509        3938.545          37.000  
G 4  24301199.312    -8583561.466         703.994          37.000  
G19  20453783.681   -30729683.974         809.463          46.250  
G 2  22656641.670   -15193041.856        1280.518          43.250  
C 3  36197161.107   -20433646.0992        291.924          43.750  
C14  23224960.972    -9950290.9932      -1151.201          43.500  
C 2  37232911.574   -19779277.7142        324.287          39.500  
G23  23581386.678   -11188124.038        2182.051          40.000  
C 1  37660756.030   -20204054.0572        277.520          41.500  
C27  24404203.637   -11900686.8712       2217.354          40.500  
C 4  38579409.708   -20487673.4252        274.531          38.500  
C 5  39249522.604   -19903709.5882        313.203          36.000  
C11  25959533.168    -1710567.2122      -1439.863          36.500  
C 7  37070341.786   -39960453.1062      -1024.355          41.500  
G 9  23457334.371   -13950442.450        2032.275          39.250  
C10  36251747.849   -28900258.4742       -629.902          42.250  
G28  21990073.925   -23477161.494       -2647.891          42.000  
G 6  21040517.867   -23709322.180         138.555          46.500  
C 8  36764367.557   -21767993.9332       -125.684          43.750  
> 2020  6  5  8  0 44.0000000  0 25                     
G12  23811790.732    -7838110.503        3259.170          40.000  
G 3  25162471.038    -6854173.962       -3263.262          36.250  
C13  36778253.026   -21821196.6942          8.340          45.000  
G17  20958409.148   -25405846.748          89.961          46.250  
C23  26114666.163   -10948897.1452      -2262.881          34.500  
C28  22283327.644   -23496230.0992        778.223          49.000  
G 5  23869241.805   -10374299.840        3938.252          37.000  
G 4  24301065.295    -8584265.066         703.428          37.250  
G19  20453629.892   -30730493.095         808.984          46.250  
G 2  22656397.995   -15194322.245        1280.332          43.250  
C 3  36197105.301   -20433937.9692        291.836          43.750  
C14  23225182.049    -9949139.3962      -1151.748          43.500  
C 2  37232849.225   -19779601.9412        324.189          39.750  
G23  23580971.363   -11190305.903        2181.748          40.000  
C 1  37660702.790   -20204331.4382        277.402          41.500  
C27  24403777.625   -11902904.1822       2217.363          40.500  
C 4  38579357.165   -20487947.8842        274.424          38.500  
C 5  39249462.401   -19904022.7012        313.008          36.250  
C11  25959809.789    -1709127.2792      -1440.088          36.500  
C 7  37070538.555   -39959428.6072      -1024.521          41.750  
G 9  23456947.517   -13952474.345        2031.777          39.250  
C10  36251868.779   -28899628.3832       -630.156          42.250  
G28  21990577.748   -23474513.223       -2648.418          41.750  
G 6  21040491.482   -23709460.517         138.262          46.500  
C 8  36764391.743   -21767868.1512       -125.830          43.750  
> 2020  6  5  8  0 45.0000000  0 25                     
G12  23811170.587    -7841369.326        3258.682          40.000  
G 3  25163092.143    -6850910.548       -3263.438          36.500  
C13  36778251.456   -21821204.9722          8.291          45.000  
G17  20958391.959   -25405936.395          89.570          46.250  
C23  26115100.760   -10946634.2122      -2262.822          34.500  
C28  22283178.218   -23497008.1542        778.018          49.000  
G 5  23868492.597   -10378237.874        3938.037          37.250  
G 4  24300931.556    -8584968.056         702.832          37.250  
G19  20453475.824   -30731301.764         808.574          46.250  
G 2  22656154.478   -15195602.338        1280.098          43.250  
C 3  36197049.269   -20434229.7132        291.729          43.750  
C14  23225403.353    -9947987.1912      -1152.344          43.500  
C 2  37232787.189   -19779926.0212        324.092          39.750  
G23  23580556.239   -11192487.475        2181.562          40.000  
C 1  37660649.549   -20204608.6892        277.285          41.250  
C27  24403351.753   -11905121.3952       2217.246          40.750  
C 4  38579304.239   -20488222.2082        274.287          38.500  
C 5  39249402.302   -19904335.6902        312.969          36.000  
C11  25960086.375    -1707687.0732      -1440.186          36.500  
C 7  37070735.341   -39958403.8702      -1024.756          41.750  
G 9  23456561.100   -13954505.802        2031.357          39.000  
C10  36251989.918   -28898998.0152       -630.439          42.250  
G28  21991081.571   -23471864.537       -2648.809          41.750  
G 6  21040465.045   -23709598.562         137.988          46.500  
C 8  36764415.894   -21767742.3232       -125.840          43.750  
> 2020  6  5  8  0 46.0000000  0 25                     
G12  23810550.371    -7844627.816        3258.369          40.000  
G 3  25163713.284    -6847647.038       -3263.574          36.500  
C13  36778249.571   -21821213.3052          8.340          45.000  
G17  20958374.998   -25406025.759          89.307          46.250  
C23  26115535.253   -10944371.4802      -2262.588          34.750  
C28  22283028.861   -23497786.1302        777.969          49.000  
G 5  23867743.495   -10382175.749        3937.871          37.250  
G 4  24300797.957    -8585670.617         702.461          37.000  
G19  20453321.861   -30732110.141         808.311          46.250  
G 2  22655910.698   -15196882.366        1279.990          43.250  
C 3  36196993.236   -20434521.4832        291.816          43.750  
C14  23225624.726    -9946834.5172      -1152.803          43.500  
C 2  37232724.892   -19780250.1412        324.141          39.750  
G23  23580141.203   -11194668.913        2181.387          40.000  
C 1  37660596.256   -20204885.9502        277.324          41.250  
C27  24402926.055   -11907338.6682       2217.305          40.500  
C 4  38579251.469   -20488496.5932        274.375          38.500  
C 5  39249342.256   -19904648.7282        313.076          36.000  
C11  25960363.031    -1706246.7652      -1440.430          36.500  
C 7  37070932.336   -39957379.0622      -1024.805          41.750  
G 9  23456174.543   -13956536.999        2031.094          39.000  
C10  36252110.883   -28898367.5102       -630.576          42.250  
G28  21991585.411   -23469215.548       -2649.111          41.750  
G 6  21040439.131   -23709736.447         137.852          46.500  
C 8  36764439.975   -21767616.5632       -125.742          43.750  
> 2020  6  5  8  0 47.0000000  0 25                     
G12  23809930.278    -7847885.946        3258.027          40.000  
G 3  25164334.250    -6844383.459       -3263.594          36.750  
C13  36778247.948   -21821221.6582          8.359          45.000  
G17  20958358.385   -25406114.828          88.945          46.250  
C23  26115969.973   -10942108.8782      -2262.637          35.000  
C28  22282879.365   -23498564.0192        777.861          49.000  
G 5  23866994.235   -10386113.487        3937.686          37.000  
G 4  24300664.149    -8586372.688         701.953          37.000  
G19  20453168.072   -30732918.204         807.969          46.250  
G 2  22655667.477   -15198162.272        1279.834          43.250  
C 3  36196937.273   -20434813.2652        291.748          43.750  
C14  23225846.257    -9945681.3832      -1153.232          43.500  
C 2  37232662.612   -19780574.2792        324.141          39.500  
G23  23579726.028   -11196850.191        2181.260          40.000  
C 1  37660543.050   -20205163.2492        277.305          41.500  
C27  24402500.322   -11909556.0172       2217.373          40.500  
C 4  38579198.857   -20488770.9892        274.404          38.500  
C 5  39249282.297   -19904961.7422        312.959          36.250  
C11  25960639.565    -1704806.3892      -1440.459          36.750  
C 7  37071129.192   -39956354.1572      -1024.932          41.750  
G 9  23455788.020   -13958567.916        2030.820          38.750  
C10  36252232.075   -28897736.8902       -630.654          42.000  
G28  21992089.652   -23466566.257       -2649.385          41.750  
G 6  21040412.729   -23709874.161         137.637          46.500  
C 8  36764463.934   -21767490.8882       -125.654          43.500  
> 2020  6  5  8  0 48.0000000  0 25                     
G12  23809310.428    -7851143.646        3257.656          40.000  
G 3  25164955.390    -6841119.728       -3263.643          36.750  
C13  36778246.186   -21821229.9822          8.467          45.000  
G17  20958341.336   -25406203.527          88.760          46.250  
C23  26116404.501   -10939846.4192      -2262.178          35.250  
C28  22282730.131   -23499341.7422        777.822          49.000  
G 5  23866244.887   -10390050.966        3937.637          37.000  
G 4  24300530.760    -8587074.262         701.572          37.000  
G19  20453014.301   -30733725.896         807.715          46.250  
G 2  22655423.820   -15199441.998        1279.834          43.250  
C 3  36196881.293   -20435104.9892        291.846          43.750  
C14  23226067.892    -9944527.7082      -1153.682          43.500  
C 2  37232600.576   -19780898.3802        324.297          39.500  
G23  23579310.974   -11199031.279        2181.211          40.000  
C 1  37660489.932   -20205440.5052        277.441          41.500  
C27  24402074.467   -11911773.3232       2217.461          40.750  
C 4  38579146.332   -20489045.3172        274.482          38.500  
C 5  39249221.989   -19905274.7382        313.135          36.250  
C11  25960916.360    -1703365.8202      -1440.430          36.750  
C 7  37071325.856   -39955329.1272      -1024.893          41.500  
G 9  23455401.428   -13960598.458        2030.645          38.750  
C10  36252353.145   -28897106.0772       -630.742          42.000  
G28  21992593.650   -23463916.594       -2649.570          41.750  
G 6  21040386.554   -23710011.653         137.568          46.500  
C 8  36764488.050   -21767365.2122       -125.557          43.750  
> 2020  6  5  8  0 49.0000000  0 25                     
G12  23808690.579    -7854401.193        3257.305          40.000  
G 3  25165576.478    -6837856.118       -3263.760          37.250  
C13  36778244.598   -21821238.5102          8.389          45.000  
G17  20958324.706   -25406292.101          88.389          46.250  
C23  26116839.360   -10937584.2772      -2262.178          35.500  
C28  22282580.618   -23500119.5512        777.666          49.000  
G 5  23865495.749   -10393988.512        3937.402          37.000  
G 4  24300397.388    -8587775.521         700.957          37.000  
G19  20452860.547   -30734533.448         807.344          46.250  
G 2  22655180.197   -15200721.785        1279.629          43.000  
C 3  36196825.016   -20435396.9042        291.807          43.750  
C14  23226289.405    -9943373.7532      -1154.209          43.500  
C 2  37232538.227   -19781222.6422        324.170          39.750  
G23  23578896.113   -11201212.366        2180.938          40.000  
C 1  37660436.796   -20205717.9282        277.314          41.500  
C27  24401648.681   -11913990.8852       2217.461          40.500  
C 4  38579093.458   -20489319.8192        274.355          38.500  
C 5  39249161.856   -19905587.8982        313.027          35.750  
C11  25961192.981    -1701925.3222      -1440.625          36.750  
C 7  37071522.799   -39954304.1432      -1025.078          41.500  
G 9  23455015.168   -13962628.905        2030.254          38.750  
C10  36252474.266   -28896475.2572       -630.967          42.000  
G28  21993098.048   -23461266.809       -2649.951          41.750  
G 6  21040360.413   -23710149.148         137.314          46.500  
C 8  36764512.289   -21767239.8052       -125.508          43.750  
> 2020  6  5  8  0 50.0000000  0 25                     
G12  23808071.079    -7857658.345        3257.041          40.000  
G 3  25166197.409    -6834592.404       -3263.760          37.250  
C13  36778242.783   -21821247.0052          8.496          45.000  
G17  20958307.518   -25406380.342          88.125          46.250  
C23  26117273.993   -10935322.2852      -2261.895          35.750  
C28  22282431.226   -23500897.2192        777.627          49.000  
G 5  23864746.297   -10397925.871        3937.324          36.750  
G 4  24300264.277    -8588476.312         700.645          37.000  
G19  20452706.933   -30735340.651         807.070          46.250  
G 2  22654936.679   -15202001.399        1279.521          43.000  
C 3  36196768.931   -20435688.7972        291.895          43.750  
C14  23226511.180    -9942219.2682      -1154.648          43.500  
C 2  37232475.964   -19781546.8922        324.219          39.750  
G23  23578481.409   -11203393.293        2180.918          40.250  
C 1  37660383.381   -20205995.3412        277.422          41.500  
C27  24401222.844   -11916208.4342       2217.549          40.500  
C 4  38579040.583   -20489594.3182        274.463          38.500  
C 5  39249101.618   -19905901.0612        313.145          36.000  
C11  25961469.898    -1700484.6942      -1440.723          37.000  
C 7  37071719.812   -39953279.0432      -1025.146          41.500  
G 9  23454628.855   -13964659.021        2030.010          38.750  
C10  36252595.423   -28895844.2682       -631.064          42.000  
G28  21993602.516   -23458616.662       -2650.225          41.750  
G 6  21040334.290   -23710286.419         137.188          46.500  
C 8  36764536.475   -21767114.3922       -125.410          43.750  
> 2020  6  5  8  0 51.0000000  0 25                     
G12  23807451.474    -7860915.185        3256.680          40.250  
G 3  25166818.655    -6831328.655       -3263.809          37.500  
C13  36778241.387   -21821255.6032          8.545          45.000  
G17  20958291.202   -25406468.327          87.832          46.250  
C23  26117708.713   -10933060.5012      -2261.680          36.000  
C28  22282281.957   -23501674.8502        777.520          49.000  
G 5  23863996.828   -10401863.146        3937.119          37.000  
G 4  24300130.836    -8589176.707         700.137          37.000  
G19  20452553.598   -30736147.591         806.768          46.250  
G 2  22654693.127   -15203280.971        1279.424          43.000  
C 3  36196712.741   -20435980.7412        291.865          43.750  
C14  23226732.972    -9941064.3822      -1155.088          43.500  
C 2  37232413.702   -19781871.2082        324.258          39.750  
G23  23578066.442   -11205574.114        2180.791          40.000  
C 1  37660330.088   -20206272.8122        277.412          41.500  
C27  24400797.058   -11918426.1072       2217.598          40.500  
C 4  38578987.849   -20489868.8632        274.443          38.500  
C 5  39249041.414   -19906214.2972        313.213          36.000  
C11  25961747.060    -1699044.0042      -1440.791          37.000  
C 7  37071916.633   -39952253.9172      -1025.205          41.750  
G 9  23454242.681   -13966688.887        2029.736          38.750  
C10  36252716.441   -28895213.2012       -631.182          42.000  
G28  21994106.985   -23455966.280       -2650.537          41.750  
G 6  21040308.185   -23710423.586         137.041          46.500  
C 8  36764560.399   -21766989.1292       -125.312          43.500  
> 2020  6  5  8  0 52.0000000  0 25                     
G12  23806831.799    -7864171.625        3256.250          40.000  
G 3  25167439.987    -6828064.786       -3263.984          37.500  
C13  36778239.729   -21821264.1902          8.516          45.000  
G17  20958274.432   -25406555.980          87.490          46.250  
C23  26118143.049   -10930798.8552      -2261.602          35.750  
C28  22282132.513   -23502452.3532        777.422          49.000  
G 5  23863247.638   -10405800.186        3936.924          36.750  
G 4  24299997.655    -8589876.567         699.668          37.250  
G19  20452400.141   -30736954.188         806.426          46.250  
G 2  22654449.731   -15204560.399        1279.346          43.000  
C 3  36196656.848   -20436272.6572        291.865          43.750  
C14  23226954.956    -9939908.9822      -1155.566          43.500  
C 2  37232351.318   -19782195.5012        324.277          39.500  
G23  23577651.441   -11207754.730        2180.430          40.000  
C 1  37660276.795   -20206550.2602        277.393          41.500  
C27  24400371.238   -11920643.7862       2217.627          40.500  
C 4  38578935.236   -20490143.4102        274.482          38.750  
C 5  39248981.089   -19906527.4852        313.184          36.250  
C11  25962023.576    -1697603.1352      -1440.977          37.000  
C 7  37072113.524   -39951228.6652      -1025.381          41.750  
G 9  23453856.351   -13968718.439        2029.375          38.750  
C10  36252837.824   -28894581.9772       -631.328          42.000  
G28  21994611.418   -23453315.541       -2650.918          42.000  
G 6  21040282.044   -23710560.552         136.846          46.500  
C 8  36764584.271   -21766863.8972       -125.254          43.750  
> 2020  6  5  8  0 53.0000000  0 25                     
G12  23806212.125    -7867427.724        3255.957          40.000  
G 3  25168060.953    -6824800.854       -3263.984          37.500  
C13  36778238.124   -21821272.8052          8.574          45.000  
G17  20958257.872   -25406643.313          87.188          46.250  
C23  26118577.367   -10928537.3402      -2261.514          35.500  
C28  22281983.279   -23503229.7482        777.314          49.000  
G 5  23862498.308   -10409737.150        3936.895          36.750  
G 4  24299864.475    -8590575.970         699.150          37.250  
G19  20452246.736   -30737760.471         806.143          46.250  
G 2  22654206.318   -15205839.710        1279.268          43.000  
C 3  36196600.659   -20436564.5912        291.904          43.750  
C14  23227176.941    -9938753.0962      -1156.074          43.500  
C 2  37232288.950   -19782519.7992        324.258          39.750  
G23  23577236.405   -11209935.204        2180.342          40.250  
C 1  37660223.467   -20206827.7232        277.432          41.500  
C27  24399945.313   -11922861.5062       2217.676          40.500  
C 4  38578882.484   -20490417.9512        274.502          38.750  
C 5  39248921.147   -19906840.6542        313.145          36.250  
C11  25962300.372    -1696162.2132      -1441.074          37.000  
C 7  37072310.624   -39950203.3202      -1025.400          41.500  
G 9  23453470.265   -13970747.686        2029.150          39.000  
C10  36252958.964   -28893950.5542       -631.494          42.000  
G28  21995115.799   -23450664.497       -2651.182          42.000  
G 6  21040256.270   -23710697.329         136.670          46.500  
C 8  36764608.370   -21766738.7162       -125.234          43.500  
> 2020  6  5  8  0 54.0000000  0 25                     
G12  23805592.572    -7870683.372        3255.459          40.000  
G 3  25168682.076    -6821536.728       -3264.209          37.500  
C13  36778236.641   -21821281.3262          8.486          45.000  
G17  20958241.399   -25406730.248          86.777          46.250  
C23  26119011.686   -10926275.9112      -2261.494          35.500  
C28  22281834.132   -23504006.9522        777.119          49.000  
G 5  23861748.891   -10413673.830        3936.660          36.500  
G 4  24299731.679    -8591274.811         698.691          37.500  
G19  20452093.418   -30738566.330         805.732          46.000  
G 2  22653962.870   -15207118.785        1278.984          43.000  
C 3  36196544.923   -20436856.4242        291.777          43.750  
C14  23227399.029    -9937596.6482      -1156.650          43.500  
C 2  37232226.845   -19782844.0002        324.111          39.500  
G23  23576821.509   -11212115.421        2180.098          40.250  
C 1  37660170.000   -20207105.0932        277.305          41.500  
C27  24399519.388   -11925079.1662       2217.578          40.500  
C 4  38578829.855   -20490692.3952        274.365          38.500  
C 5  39248861.119   -19907153.7662        312.959          36.000  
C11  25962577.237    -1694721.0682      -1441.162          37.000  
C 7  37072507.847   -39949177.7822      -1025.605          41.500  
G 9  23453084.353   -13972776.512        2028.623          39.000  
C10  36253080.313   -28893318.9332       -631.729          42.000  
G28  21995620.704   -23448013.037       -2651.602          42.000  
G 6  21040230.130   -23710833.843         136.445          46.500  
C 8  36764632.399   -21766613.4932       -125.244          43.500  
> 2020  6  5  8  0 55.0000000  0 25                     
G12  23804972.636    -7873938.678        3255.264          39.750  
G 3  25169303.234    -6818272.545       -3264.189          37.750  
C13  36778235.053   -21821289.9082          8.594          45.000  
G17  20958224.751   -25406816.902          86.572          46.250  
C23  26119445.830   -10924014.6732      -2261.201          36.000  
C28  22281684.776   -23504784.0862        777.109          48.750  
G 5  23860999.422   -10417610.380        3936.553          36.500  
G 4  24299598.970    -8591973.215         698.301          37.250  
G19  20451939.926   -30739371.902         805.488          46.000  
G 2  22653719.352   -15208397.757        1279.004          43.000  
C 3  36196488.698   -20437148.2972        291.895          43.750  
C14  23227621.118    -9936439.7472      -1157.021          43.500  
C 2  37232164.653   -19783168.2452        324.287          39.750  
G23  23576406.909   -11214295.493        2180.000          40.500  
C 1  37660116.672   -20207382.5112        277.441          41.250  
C27  24399093.289   -11927296.8942       2217.754          40.500  
C 4  38578777.277   -20490966.9002        274.561          38.500  
C 5  39248801.160   -19907466.9122        313.105          36.000  
C11  25962854.032    -1693279.7902      -1441.240          37.000  
C 7  37072704.807   -39948152.1422      -1025.684          41.500  
G 9  23452698.197   -13974805.089        2028.486          39.000  
C10  36253201.731   -28892687.1562       -631.807          42.000  
G28  21996125.539   -23445361.299       -2651.758          42.000  
G 6  21040204.286   -23710970.189         136.309          46.500  
C 8  36764656.689   -21766488.3712       -125.117          43.500  
> 2020  6  5  8  0 56.0000000  0 25                     
G12  23804353.223    -7877193.457        3254.707          39.750  
G 3  25169924.375    -6815008.102       -3264.404          37.750  
C13  36778233.552   -21821298.3432          8.506          45.000  
G17  20958208.680   -25406903.078          86.152          46.500  
C23  26119880.235   -10921753.4242      -2261.240          36.000  
C28  22281535.594   -23505560.9392        776.904          49.000  
G 5  23860250.057   -10421546.598        3936.250          36.750  
G 4  24299466.209    -8592670.960         697.656          37.250  
G19  20451786.608   -30740176.982         805.059          46.000  
G 2  22653475.991   -15209676.441        1278.770          43.250  
C 3  36196432.700   -20437439.9912        291.758          43.750  
C14  23227843.609    -9935282.1862      -1157.598          43.750  
C 2  37232102.216   -19783492.3212        324.141          39.750  
G23  23575992.222   -11216475.252        2179.775          40.250  
C 1  37660063.745   -20207659.7402        277.334          41.500  
C27  24398667.469   -11929514.5232       2217.676          40.500  
C 4  38578724.665   -20491241.1892        274.385          38.500  
C 5  39248741.218   -19907779.9092        313.096          36.000  
C11  25963130.775    -1691838.2992      -1441.406          37.000  
C 7  37072901.663   -39947126.2622      -1025.840          41.750  
G 9  23452311.972   -13976833.200        2028.105          38.750  
C10  36253323.080   -28892055.0952       -632.031          42.000  
G28  21996630.216   -23442709.075       -2652.236          42.000  
G 6  21040178.634   -23711106.202         136.035          46.500  
C 8  36764680.596   -21766363.1482       -125.137          43.500  
> 2020  6  5  8  0 57.0000000  0 25                     
G12  23803733.949    -7880447.865        3254.326          40.000  
G 3  25170545.829    -6811743.617       -3264.482          37.750  
C13  36778232.016   -21821306.8082          8.477          45.000  
G17  20958192.381   -25406988.953          85.781          46.250  
C23  26120314.449   -10919492.3202      -2261.025          36.000  
C28  22281386.272   -23506337.6882        776.719          49.000  
G 5  23859500.954   -10425482.667        3936.035          36.750  
G 4  24299333.238    -8593368.255         697.158          37.500  
G19  20451633.710   -30740981.745         804.658          46.000  
G 2  22653232.875   -15210955.006        1278.496          43.000  
C 3  36196376.685   -20437731.6912        291.709          43.750  
C14  23228065.924    -9934124.1452      -1158.203          43.750  
C 2  37232040.093   -19783816.3912        324.102          39.750  
G23  23575577.343   -11218654.838        2179.531          40.250  
C 1  37660010.505   -20207936.9832        277.217          41.500  
C27  24398241.701   -11931732.1602       2217.646          40.750  
C 4  38578671.825   -20491515.5372        274.355          38.500  
C 5  39248681.120   -19908092.8602        313.076          36.000  
C11  25963407.710    -1690396.6382      -1441.699          37.250  
C 7  37073098.467   -39946100.2732      -1025.996          41.750  
G 9  23451925.746   -13978860.996        2027.705          38.500  
C10  36253444.499   -28891422.8742       -632.285          42.000  
G28  21997134.772   -23440056.523       -2652.666          41.750  
G 6  21040152.703   -23711242.023         135.811          46.500  
C 8  36764704.538   -21766237.9682       -125.156          43.500  
> 2020  6  5  8  0 58.0000000  0 25                     
G12  23803114.798    -7883701.864        3253.955          40.000  
G 3  25171166.725    -6808478.958       -3264.609          37.500  
C13  36778230.184   -21821315.2312          8.516          45.000  
G17  20958176.030   -25407074.455          85.459          46.250  
C23  26120748.506   -10917231.3142      -2260.986          36.000  
C28  22281237.317   -23507114.2872        776.631          49.000  
G 5  23858751.956   -10429418.525        3935.840          36.750  
G 4  24299200.791    -8594065.022         696.670          37.250  
G19  20451480.654   -30741786.141         804.365          46.250  
G 2  22652989.776   -15212233.392        1278.379          43.250  
C 3  36196320.792   -20438023.3422        291.660          43.750  
C14  23228288.450    -9932965.5882      -1158.672          43.750  
C 2  37231978.092   -19784140.4182        324.072          39.750  
G23  23575162.796   -11220834.199        2179.385          40.250  
C 1  37659957.404   -20208214.1962        277.275          41.500  
C27  24397815.689   -11933949.8132       2217.705          40.500  
C 4  38578619.056   -20491789.7972        274.307          38.500  
C 5  39248621.126   -19908405.8302        313.076          36.250  
C11  25963684.575    -1688954.8302      -1441.816          37.250  
C 7  37073295.689   -39945074.1332      -1026.143          41.500  
G 9  23451539.887   -13980888.466        2027.402          38.500  
C10  36253565.830   -28890790.4652       -632.383          42.000  
G28  21997639.345   -23437403.624       -2652.930          41.750  
G 6  21040126.685   -23711377.632         135.586          46.500  
C 8  36764728.549   -21766112.8032       -125.098          43.500  
> 2020  6  5  8  0 59.0000000  0 25                     
G12  23802495.647    -7886955.468        3253.584          40.000  
G 3  25171788.023    -6805214.179       -3264.756          37.500  
C13  36778228.631   -21821323.6242          8.438          45.000  
G17  20958159.662   -25407159.613          85.107          46.250  
C23  26121182.859   -10914970.4802      -2260.752          36.250  
C28  22281088.275   -23507890.7422        776.504          49.000  
G 5  23858002.888   -10433354.174        3935.605          36.500  
G 4  24299068.170    -8594761.278         696.152          37.250  
G19  20451327.807   -30742590.169         803.955          46.250  
G 2  22652746.694   -15213511.618        1278.242          43.250  
C 3  36196264.655   -20438314.9622        291.641          43.750  
C14  23228511.062    -9931806.5162      -1159.209          43.750  
C 2  37231915.778   -19784464.4172        324.053          39.750  
G23  23574748.249   -11223013.353        2179.062          40.250  
C 1  37659904.146   -20208491.3652        277.207          41.500  
C27  24397389.851   -11936167.4602       2217.725          40.500  
C 4  38578566.461   -20492064.0502        274.395          38.500  
C 5  39248561.080   -19908718.7132        313.037          36.250  
C11  25963961.371    -1687512.8672      -1441.943          37.000  
C 7  37073492.946   -39944047.8452      -1026.211          41.500  
G 9  23451154.237   -13982915.586        2027.031          38.500  
C10  36253687.266   -28890157.8532       -632.617          42.000  
G28  21998143.883   -23434750.364       -2653.301          41.750  
G 6  21040101.138   -23711513.026         135.391          46.500  
C 8  36764752.578   -21765987.6822       -125.078          43.500  
> 2020  6  5  8  1  0.0000000  0 25                     
G12  23801876.950    -7890208.742        3253.154          40.000  
G 3  25172409.268    -6801949.378       -3264.814          37.500  
C13  36778227.218   -21821332.0932          8.418          45.000  
G17  20958143.834   -25407244.496          84.736          46.250  
C23  26121617.125   -10912709.8192      -2260.586          36.250  
C28  22280939.145   -23508667.1302        776.299          49.000  
G 5  23857253.889   -10437289.733        3935.449          36.500  
G 4  24298935.827    -8595457.102         695.605          37.250  
G19  20451174.612   -30743393.923         803.613          46.250  
G 2  22652503.281   -15214789.773        1278.057          43.000  
C 3  36196208.622   -20438606.6212        291.592          43.750  
C14  23228733.919    -9930646.9892      -1159.746          43.750  
C 2  37231853.690   -19784788.4642        324.023          39.750  
G23  23574333.771   -11225192.424        2178.936          40.250  
C 1  37659850.922   -20208768.5912        277.227          41.500  
C27  24396964.083   -11938385.1882       2217.705          40.750  
C 4  38578513.761   -20492338.3332        274.277          38.500  
C 5  39248501.033   -19909031.6782        312.998          36.000  
C11  25964238.375    -1686070.8352      -1442.100          37.000  
C 7  37073690.186   -39943021.4922      -1026.416          41.750  
G 9  23450768.535   -13984942.457        2026.719          38.500  
C10  36253808.737   -28889525.1602       -632.754          42.000  
G28  21998648.578   -23432096.847       -2653.652          41.500  
G 6  21040075.399   -23711648.274         135.146          46.500  
C 8  36764776.590   -21765862.6492       -125.049          43.500  
> 2020  6  5  8  1  1.0000000  0 25                     
G12  23801257.764    -7893461.701        3252.988          40.000  
G 3  25173030.827    -6798684.551       -3264.717          37.500  
C13  36778225.647   -21821340.6392          8.701          45.000  
G17  20958127.414   -25407329.146          84.707          46.250  
C23  26122051.322   -10910449.3792      -2260.225          36.250  
C28  22280789.946   -23509443.4922        776.475          49.000  
G 5  23856504.874   -10441225.175        3935.615          36.250  
G 4  24298803.432    -8596152.522         695.381          37.000  
G19  20451021.661   -30744197.430         803.613          46.000  
G 2  22652259.694   -15216067.861        1278.213          42.750  
C 3  36196152.485   -20438898.3572        291.914          43.750  
C14  23228956.636    -9929487.0612      -1159.912          43.750  
C 2  37231791.445   -19785112.5842        324.277          39.500  
G23  23573919.084   -11227371.396        2179.033          40.250  
C 1  37659797.647   -20209045.8862        277.490          41.250  
C27  24396538.228   -11940603.0332       2218.047          40.750  
C 4  38578461.184   -20492612.6932        274.443          38.500  
C 5  39248441.074   -19909344.6702        313.115          36.250  
C11  25964515.136    -1684628.7702      -1441.846          37.250  
C 7  37073887.304   -39941995.1262      -1026.230          41.750  
G 9  23450382.571   -13986969.054        2026.680          38.750  
C10  36253930.365   -28888892.3722       -632.637          42.000  
G28  21999153.361   -23429443.066       -2653.643          41.500  
G 6  21040049.572   -23711783.424         135.283          46.500  
C 8  36764800.566   -21765737.7522       -124.688          43.500  
> 2020  6  5  8  1  2.0000000  0 25                     
G12  23800639.101    -7896714.489        3252.637          40.000  
G 3  25173651.968    -6795419.772       -3264.863          37.500  
C13  36778223.937   -21821349.3922          8.721          45.000  
G17  20958111.255   -25407413.647          84.336          46.250  
C23  26122485.309   -10908189.2542      -2260.117          36.000  
C28  22280640.974   -23510219.9002        776.348          49.000  
G 5  23855756.137   -10445160.641        3935.391          36.500  
G 4  24298671.125    -8596847.630         694.902          37.000  
G19  20450868.884   -30745000.756         803.164          46.000  
G 2  22652016.315   -15217345.987        1278.027          42.750  
C 3  36196096.557   -20439190.2362        291.826          43.750  
C14  23229179.353    -9928326.8032      -1160.430          43.750  
C 2  37231729.252   -19785436.8542        324.229          39.500  
G23  23573504.345   -11229550.367        2178.867          40.000  
C 1  37659744.459   -20209323.3392        277.402          41.250  
C27  24396112.373   -11942821.0522       2217.959          40.750  
C 4  38578408.502   -20492887.1902        274.395          38.500  
C 5  39248380.976   -19909657.8142        313.076          36.000  
C11  25964792.141    -1683186.7092      -1442.158          37.250  
C 7  37074084.421   -39940968.8232      -1026.426          41.750  
G 9  23449997.235   -13988995.538        2026.328          38.750  
C10  36254052.028   -28888259.6012       -632.842          42.000  
G28  21999658.021   -23426789.115       -2654.121          41.500  
G 6  21040023.868   -23711918.532         135.010          46.500  
C 8  36764824.578   -21765613.0692       -124.736          43.500  
> 2020  6  5  8  1  3.0000000  0 25                     
G12  23800020.177    -7899966.780        3252.109          40.000  
G 3  25174273.388    -6792154.861       -3264.951          37.500  
C13  36778222.297   -21821358.0442          8.613          45.000  
G17  20958095.340   -25407497.720          83.945          46.250  
C23  26122919.452   -10905929.1832      -2260.010          36.250  
C28  22280491.879   -23510996.0952        776.133          49.000  
G 5  23855007.453   -10449095.816        3935.137          36.250  
G 4  24298539.044    -8597542.189         694.434          36.750  
G19  20450716.334   -30745803.656         802.764          46.000  
G 2  22651772.937   -15218623.866        1277.842          42.750  
C 3  36196040.332   -20439482.0172        291.748          43.750  
C14  23229402.437    -9927165.9562      -1160.996          43.750  
C 2  37231666.798   -19785761.0232        324.141          39.500  
G23  23573089.885   -11231729.054        2178.643          40.000  
C 1  37659691.131   -20209600.6822        277.275          41.250  
C27  24395686.570   -11945039.0242       2217.920          40.750  
C 4  38578355.889   -20493161.6152        274.375          38.500  
C 5  39248320.842   -19909970.9022        313.086          36.000  
C11  25965069.128    -1681744.4342      -1442.451          37.250  
C 7  37074281.434   -39939942.3012      -1026.592          41.750  
G 9  23449611.655   -13991021.596        2025.918          38.750  
C10  36254173.499   -28887626.5652       -633.135          42.000  
G28  22000163.327   -23424134.772       -2654.482          41.500  
G 6  21039998.042   -23712053.361         134.736          46.500  
C 8  36764848.275   -21765488.3552       -124.736          43.500  
> 2020  6  5  8  1  4.0000000  0 25                     
G12  23799401.340    -7903218.727        3251.875          40.000  
G 3  25174894.615    -6788889.840       -3264.990          37.500  
C13  36778220.499   -21821366.7262          8.672          45.000  
G17  20958079.286   -25407581.499          83.750          46.250  
C23  26123353.457   -10903669.2832      -2259.814          36.500  
C28  22280342.837   -23511772.2022        776.104          48.750  
G 5  23854258.856   -10453030.829        3935.000          36.250  
G 4  24298407.086    -8598236.245         693.984          37.000  
G19  20450563.680   -30746606.255         802.549          46.250  
G 2  22651529.734   -15219901.659        1277.812          42.750  
C 3  36195984.265   -20439773.8172        291.865          43.750  
C14  23229625.416    -9926004.6502      -1161.406          43.750  
C 2  37231604.518   -19786085.2172        324.316          39.500  
G23  23572675.215   -11233907.580        2178.574          40.250  
C 1  37659637.960   -20209878.0422        277.432          41.250  
C27  24395260.663   -11947257.0562       2218.086          40.750  
C 4  38578303.294   -20493436.0342        274.502          38.500  
C 5  39248260.657   -19910283.9772        313.125          36.000  
C11  25965346.063    -1680302.0902      -1442.275          37.250  
C 7  37074478.412   -39938915.6942      -1026.572          41.750  
G 9  23449226.250   -13993047.364        2025.723          39.000  
C10  36254295.162   -28886993.3912       -633.164          42.000  
G28  22000668.581   -23421480.097       -2654.756          41.750  
G 6  21039972.477   -23712188.038         134.688          46.500  
C 8  36764872.165   -21765363.7042       -124.600          43.500  
> 2020  6  5  8  1  5.0000000  0 25                     
G12  23798782.520    -7906470.407        3251.602          40.000  
G 3  25175515.878    -6785624.820       -3265.020          37.500  
C13  36778218.545   -21821375.5042          8.838          45.000  
G17  20958063.511   -25407665.065          83.516          46.250  
C23  26123787.426   -10901409.6312      -2259.570          36.750  
C28  22280193.724   -23512548.3042        776.113          48.750  
G 5  23853509.858   -10456965.814        3935.000          36.000  
G 4  24298275.389    -8598929.941         693.613          37.250  
G19  20450410.886   -30747408.619         802.324          46.250  
G 2  22651286.530   -15221179.421        1277.754          42.750  
C 3  36195928.162   -20440065.7252        291.943          43.750  
C14  23229848.586    -9924842.9702      -1161.758          43.750  
C 2  37231542.029   -19786409.4932        324.307          39.500  
G23  23572260.720   -11236086.066        2178.477          40.250  
C 1  37659584.580   -20210155.5242        277.471          41.250  
C27  24394834.755   -11949475.2142       2218.203          40.750  
C 4  38578250.525   -20493710.5432        274.639          38.500  
C 5  39248200.593   -19910597.1772        313.184          36.000  
C11  25965622.893    -1678859.6932      -1442.373          37.250  
C 7  37074675.530   -39937889.0872      -1026.602          41.750  
G 9  23448840.722   -13995072.934        2025.527          39.000  
C10  36254416.825   -28886360.1812       -633.203          42.000  
G28  22001174.061   -23418825.234       -2654.941          41.750  
G 6  21039947.105   -23712322.617         134.561          46.500  
C 8  36764896.281   -21765239.1772       -124.473          43.500  
> 2020  6  5  8  1  6.0000000  0 25                     
G12  23798163.823    -7909721.699        3251.143          40.000  
G 3  25176137.106    -6782359.727       -3265.166          37.500  
C13  36778216.817   -21821384.2562          8.770          45.000  
G17  20958047.422   -25407748.288          83.115          46.250  
C23  26124221.535   -10899150.1262      -2259.521          36.500  
C28  22280044.752   -23513324.2672        775.918          48.750  
G 5  23852761.104   -10460900.612        3934.717          36.000  
G 4  24298143.151    -8599623.156         693.027          37.000  
G19  20450258.231   -30748210.634         801.904          46.250  
G 2  22651043.309   -15222457.014        1277.549          42.750  
C 3  36195872.077   -20440357.5972        291.885          43.750  
C14  23230071.618    -9923680.7632      -1162.402          43.750  
C 2  37231479.906   -19786733.7762        324.268          39.500  
G23  23571845.946   -11238264.370        2178.281          40.250  
C 1  37659531.199   -20210432.9722        277.393          41.250  
C27  24394408.935   -11951693.3992       2218.145          40.750  
C 4  38578197.843   -20493985.0792        274.521          38.500  
C 5  39248140.425   -19910910.3253        313.047          35.750  
C11  25965900.037    -1677417.1412      -1442.568          37.000  
C 7  37074872.735   -39936862.3492      -1026.797          41.750  
G 9  23448455.526   -13997098.205        2025.156          38.750  
C10  36254538.313   -28885726.7722       -633.525          42.000  
G28  22001679.524   -23416170.016       -2655.332          41.750  
G 6  21039921.645   -23712457.013         134.316          46.500  
C 8  36764920.135   -21765114.7132       -124.482          43.500  
> 2020  6  5  8  1  7.0000000  0 25                     
G12  23797545.334    -7912972.650        3250.889          40.000  
G 3  25176758.735    -6779094.581       -3265.107          37.500  
C13  36778215.264   -21821393.1012          8.926          45.000  
G17  20958031.822   -25407831.237          82.939          46.250  
C23  26124655.365   -10896890.8162      -2259.199          36.750  
C28  22279895.640   -23514100.1772        775.967          48.750  
G 5  23852012.350   -10464835.272        3934.717          36.250  
G 4  24298011.227    -8600315.903         692.764          37.000  
G19  20450105.734   -30749012.375         801.748          46.250  
G 2  22650800.175   -15223734.537        1277.539          42.750  
C 3  36195815.975   -20440649.5092        291.982          43.750  
C14  23230294.911    -9922518.1262      -1162.705          43.750  
C 2  37231417.556   -19787058.0862        324.434          39.500  
G23  23571431.451   -11240442.515        2178.232          40.250  
C 1  37659477.837   -20210710.4642        277.559          41.250  
C27  24393983.150   -11953911.6412       2218.350          40.750  
C 4  38578144.933   -20494259.6092        274.609          38.500  
C 5  39248080.344   -19911223.5522        313.350          35.750  
C11  25966176.972    -1675974.5612      -1442.432          36.750  
C 7  37075070.237   -39935835.5322      -1026.768          41.750  
G 9  23448069.806   -13999123.184        2024.980          38.750  
C10  36254659.941   -28885093.2842       -633.447          42.000  
G28  22002185.231   -23413514.525       -2655.449          42.000  
G 6  21039895.696   -23712591.251         134.287          46.500  
C 8  36764944.042   -21764990.3652       -124.268          43.500  
> 2020  6  5  8  1  8.0000000  0 25                     
G12  23796926.567    -7916223.231        3250.381          39.750  
G 3  25177380.067    -6775829.280       -3265.381          37.500  
C13  36778213.606   -21821401.9062          8.770          45.000  
G17  20958015.732   -25407913.829          82.451          46.250  
C23  26125089.300   -10894631.6062      -2259.199          36.750  
C28  22279746.737   -23514875.9102        775.645          48.750  
G 5  23851263.823   -10468769.732        3934.414          36.000  
G 4  24297879.688    -8601008.138         692.002          37.000  
G19  20449953.097   -30749813.737         801.230          46.250  
G 2  22650556.954   -15225011.891        1277.314          42.750  
C 3  36195760.012   -20440941.3562        291.807          43.750  
C14  23230518.343    -9921354.9602      -1163.340          43.750  
C 2  37231355.277   -19787382.3412        324.258          39.750  
G23  23571016.886   -11242620.470        2177.900          40.250  
C 1  37659424.579   -20210987.9112        277.412          41.250  
C27  24393557.190   -11956129.8922       2218.174          41.000  
C 4  38578092.373   -20494534.0982        274.473          38.500  
C 5  39248020.036   -19911536.7032        313.174          35.750  
C11  25966453.750    -1674531.7592      -1442.871          36.750  
C 7  37075267.407   -39934808.5672      -1027.070          41.750  
G 9  23447684.453   -14001147.807        2024.453          38.750  
C10  36254781.552   -28884459.5542       -633.818          42.000  
G28  22002690.590   -23410858.657       -2656.035          41.750  
G 6  21039870.132   -23712725.252         133.926          46.750  
C 8  36764967.879   -21764865.9932       -124.385          43.500  
> 2020  6  5  8  1  9.0000000  0 25                     
G12  23796307.870    -7919473.355        3250.039          39.750  
G 3  25178001.400    -6772563.872       -3265.430          37.500  
C13  36778211.757   -21821410.6952          8.789          45.000  
G17  20957999.940   -25407996.066          82.100          46.250  
C23  26125523.060   -10892372.5282      -2259.082          36.750  
C28  22279597.765   -23515651.5172        775.566          48.750  
G 5  23850514.999   -10472703.992        3934.141          36.000  
G 4  24297747.851    -8601699.884         691.592          37.000  
G19  20449800.791   -30750614.728         800.859          46.250  
G 2  22650314.012   -15226289.045        1277.051          42.750  
C 3  36195704.154   -20441233.1782        291.797          43.750  
C14  23230741.776    -9920191.2612      -1163.838          43.750  
C 2  37231292.927   -19787706.5602        324.219          39.500  
G23  23570602.269   -11244798.198        2177.666          40.250  
C 1  37659371.198   -20211265.3182        277.432          41.250  
C27  24393131.230   -11958348.1362       2218.232          40.750  
C 4  38578039.709   -20494808.5752        274.502          38.500  
C 5  39247959.815   -19911849.8362        313.105          35.750  
C11  25966730.930    -1673088.8382      -1442.939          36.500  
C 7  37075464.559   -39933781.4642      -1027.168          41.750  
G 9  23447299.344   -14003172.096        2024.189          38.750  
C10  36254903.232   -28883825.6522       -633.965          42.000  
G28  22003196.088   -23408202.444       -2656.348          41.750  
G 6  21039845.073   -23712859.049         133.701          46.750  
C 8  36764991.943   -21764741.6362       -124.375          43.500  
> 2020  6  5  8  1 10.0000000  0 25                     
G12  23795689.678    -7922723.201        3249.834          40.000  
G 3  25178622.662    -6769298.421       -3265.371          37.500  
C13  36778209.820   -21821419.5612          8.936          45.000  
G17  20957984.793   -25408078.060          81.973          46.250  
C23  26125956.960   -10890113.6302      -2258.818          36.500  
C28  22279448.792   -23516427.0722        775.615          48.750  
G 5  23849766.071   -10476638.143        3934.150          36.000  
G 4  24297616.311    -8602391.195         691.250          36.750  
G19  20449648.538   -30751415.469         800.703          46.250  
G 2  22650070.913   -15227566.181        1277.188          42.750  
C 3  36195648.313   -20441525.0732        291.934          43.750  
C14  23230965.348    -9919027.1552      -1164.189          43.500  
C 2  37231230.525   -19788030.8352        324.395          39.500  
G23  23570188.123   -11246975.838        2177.646          40.250  
C 1  37659317.940   -20211542.7952        277.607          41.250  
C27  24392705.183   -11960566.4872       2218.467          40.750  
C 4  38577987.009   -20495083.0832        274.541          38.500  
C 5  39247899.612   -19912163.0202        313.252          36.000  
C11  25967007.952    -1671645.8482      -1442.910          36.750  
C 7  37075661.799   -39932754.3192      -1027.109          41.750  
G 9  23446914.131   -14005196.141        2024.043          39.000  
C10  36255025.104   -28883191.6592       -634.014          42.000  
G28  22003701.394   -23405545.983       -2656.465          41.750  
G 6  21039819.614   -23712992.727         133.662          46.500  
C 8  36765015.832   -21764617.4032       -124.131          43.500  
> 2020  6  5  8  1 11.0000000  0 25                     
G12  23795071.452    -7925972.655        3249.414          39.750  
G 3  25179244.047    -6766032.884       -3265.586          37.500  
C13  36778207.987   -21821428.4262          8.867          45.000  
G17  20957968.879   -25408159.734          81.582          46.000  
C23  26126390.789   -10887854.9222      -2258.682          36.750  
C28  22279299.872   -23517202.5162        775.400          48.750  
G 5  23849017.648   -10480572.167        3933.926          36.000  
G 4  24297484.719    -8603082.041         690.674          37.000  
G19  20449495.936   -30752215.879         800.303          46.250  
G 2  22649827.866   -15228843.148        1276.885          42.500  
C 3  36195592.053   -20441816.9422        291.875          43.750  
C14  23231189.007    -9917862.5682      -1164.727          43.750  
C 2  37231168.472   -19788355.1112        324.238          39.500  
G23  23569773.750   -11249153.306        2177.432          40.000  
C 1  37659264.490   -20211820.2652        277.471          41.250  
C27  24392279.014   -11962784.8722       2218.340          40.750  
C 4  38577934.170   -20495357.6072        274.580          38.500  
C 5  39247839.461   -19912476.1902        313.115          36.000  
C11  25967285.009    -1670202.7242      -1443.164          36.500  
C 7  37075858.986   -39931727.0872      -1027.266          41.750  
G 9  23446529.127   -14007219.861        2023.613          39.000  
C10  36255146.820   -28882557.5192       -634.170          41.750  
G28  22004206.665   -23402889.171       -2656.914          41.750  
G 6  21039794.101   -23713126.213         133.408          46.500  
C 8  36765039.652   -21764493.2362       -124.199          43.500  
> 2020  6  5  8  1 12.0000000  0 25                     
G12  23794453.330    -7929221.641        3248.975          40.000  
G 3  25179865.572    -6762767.183       -3265.615          37.500  
C13  36778206.173   -21821437.1722          8.887          45.000  
G17  20957953.627   -25408240.971          81.260          46.000  
C23  26126824.846   -10885596.2612      -2258.457          36.750  
C28  22279150.952   -23517977.7322        775.303          48.750  
G 5  23848269.226   -10484505.829        3933.789          36.500  
G 4  24297353.092    -8603772.261         690.205          36.750  
G19  20449343.840   -30753015.838         799.971          46.250  
G 2  22649585.012   -15230119.881        1276.777          42.750  
C 3  36195536.143   -20442108.6922        291.816          43.750  
C14  23231412.702    -9916697.3572      -1165.225          43.750  
C 2  37231106.210   -19788679.2562        324.248          39.500  
G23  23569359.517   -11251330.491        2177.246          40.250  
C 1  37659211.232   -20212097.6162        277.490          41.250  
C27  24391853.036   -11965003.1602       2218.428          40.750  
C 4  38577881.557   -20495631.9962        274.473          38.500  
C 5  39247779.415   -19912789.2772        313.203          36.000  
C11  25967562.275    -1668759.3902      -1443.193          36.250  
C 7  37076056.453   -39930699.6412      -1027.314          41.750  
G 9  23446144.227   -14009243.171        2023.369          39.000  
C10  36255268.570   -28881923.1072       -634.365          42.000  
G28  22004712.215   -23400231.934       -2657.227          41.500  
G 6  21039768.903   -23713259.404         133.232          46.500  
C 8  36765063.489   -21764369.0012       -124.072          43.500  
> 2020  6  5  8  1 13.0000000  0 25                     
G12  23793835.139    -7932470.292        3248.613          40.000  
G 3  25180487.201    -6759501.393       -3265.781          37.250  
C13  36778204.585   -21821446.0032          8.848          45.000  
G17  20957937.904   -25408321.935          80.879          46.000  
C23  26127258.641   -10883337.7742      -2258.457          37.000  
C28  22279002.067   -23518752.8732        775.137          48.750  
G 5  23847521.031   -10488439.403        3933.574          36.750  
G 4  24297221.971    -8604462.077         689.756          36.500  
G19  20449191.622   -30753815.509         799.600          46.250  
G 2  22649341.947   -15231396.529        1276.650          42.500  
C 3  36195479.849   -20442400.4772        291.797          43.750  
C14  23231636.728    -9915531.7062      -1165.762          43.750  
C 2  37231043.912   -19789003.4462        324.268          39.500  
G23  23568945.231   -11253507.528        2177.021          40.250  
C 1  37659158.009   -20212374.9952        277.412          41.250  
C27  24391427.007   -11967221.5372       2218.369          40.750  
C 4  38577828.893   -20495906.4462        274.473          38.500  
C 5  39247719.473   -19913102.3432        313.076          36.000  
C11  25967839.245    -1667315.9372      -1443.506          36.500  
C 7  37076253.710   -39929672.1122      -1027.510          41.750  
G 9  23445759.258   -14011266.191        2022.910          39.000  
C10  36255390.460   -28881288.5522       -634.590          42.000  
G28  22005217.975   -23397574.433       -2657.559          41.500  
G 6  21039743.618   -23713392.438         133.008          46.500  
C 8  36765087.204   -21764244.8552       -124.131          43.500  
> 2020  6  5  8  1 14.0000000  0 25                     
G12  23793216.948    -7935718.716        3248.379          40.000  
G 3  25181108.708    -6756235.675       -3265.674          37.250  
C13  36778203.032   -21821455.0062          9.092          45.000  
G17  20957922.688   -25408402.746          80.791          46.000  
C23  26127692.349   -10881079.5822      -2258.105          37.000  
C28  22278853.234   -23519528.0652        775.225          48.750  
G 5  23846772.887   -10492372.958        3933.516          37.000  
G 4  24297090.519    -8605151.562         689.502          36.500  
G19  20449039.281   -30754615.013         799.482          46.250  
G 2  22649098.988   -15232673.206        1276.699          42.750  
C 3  36195424.025   -20442692.4212        292.031          43.500  
C14  23231860.474    -9914365.7242      -1166.064          43.750  
C 2  37230981.685   -19789327.7922        324.443          39.500  
G23  23568531.050   -11255684.559        2177.080          40.250  
C 1  37659104.611   -20212652.5422        277.598          41.250  
C27  24391000.873   -11969440.1012       2218.672          40.750  
C 4  38577775.966   -20496181.0162        274.697          38.500  
C 5  39247659.287   -19913415.6142        313.330          36.000  
C11  25968116.372    -1665872.5182      -1443.379          36.500  
C 7  37076451.055   -39928644.6192      -1027.441          41.750  
G 9  23445374.009   -14013289.064        2022.812          38.750  
C10  36255512.280   -28880654.0512       -634.463          42.000  
G28  22005723.577   -23394916.750       -2657.686          41.500  
G 6  21039718.158   -23713525.459         133.037          46.500  
C 8  36765111.110   -21764120.9392       -123.838          43.500  
> 2020  6  5  8  1 15.0000000  0 25                     
G12  23792598.861    -7938966.790        3247.979          40.000  
G 3  25181730.075    -6752969.882       -3265.801          37.500  
C13  36778201.391   -21821464.0462          9.082          45.000  
G17  20957907.489   -25408483.257          80.479          46.000  
C23  26128125.987   -10878821.6232      -2257.764          36.750  
C28  22278704.331   -23520303.1632        775.117          48.750  
G 5  23846024.517   -10496306.386        3933.408          37.000  
G 4  24296959.049    -8605840.583         689.004          36.500  
G19  20448887.150   -30755414.206         799.150          46.000  
G 2  22648856.029   -15233949.768        1276.592          42.750  
C 3  36195367.818   -20442984.3952        292.012          43.750  
C14  23232084.570    -9913199.2772      -1166.582          43.750  
C 2  37230919.318   -19789652.1702        324.443          39.500  
G23  23568116.782   -11257861.437        2176.855          40.000  
C 1  37659051.493   -20212930.1152        277.578          41.250  
C27  24390574.791   -11971658.7222       2218.652          40.750  
C 4  38577723.127   -20496455.6202        274.688          38.500  
C 5  39247599.032   -19913728.8862        313.379          36.000  
C11  25968393.639    -1664429.0202      -1443.477          36.500  
C 7  37076648.382   -39927617.0472      -1027.549          41.750  
G 9  23444989.285   -14015311.656        2022.480          38.750  
C10  36255634.065   -28880019.3702       -634.717          42.000  
G28  22006229.337   -23392258.777       -2657.998          41.500  
G 6  21039692.890   -23713658.314         132.832          46.500  
C 8  36765135.087   -21763997.0702       -123.828          43.500  
> 2020  6  5  8  1 16.0000000  0 25                     
G12  23791980.774    -7942214.513        3247.744          40.000  
G 3  25182351.338    -6749704.041       -3265.771          37.250  
C13  36778199.891   -21821473.1012          9.189          45.000  
G17  20957891.941   -25408563.466          80.234          46.250  
C23  26128559.694   -10876563.7572      -2257.734          36.500  
C28  22278555.585   -23521078.1692        775.088          48.750  
G 5  23845276.182   -10500239.666        3933.350          37.000  
G 4  24296827.771    -8606529.142         688.545          36.500  
G19  20448735.194   -30756213.087         798.906          46.250  
G 2  22648613.104   -15235226.230        1276.562          42.750  
C 3  36195311.943   -20443276.3652        292.100          43.750  
C14  23232308.980    -9912032.3822      -1166.924          44.000  
C 2  37230856.986   -19789976.5412        324.512          39.500  
G23  23567702.304   -11260038.179        2176.836          40.250  
C 1  37658998.165   -20213207.7042        277.744          41.250  
C27  24390148.743   -11973877.3942       2218.818          41.000  
C 4  38577670.253   -20496730.2532        274.805          38.500  
C 5  39247538.759   -19914042.1492        313.330          36.000  
C11  25968670.975    -1662985.4282      -1443.408          36.750  
C 7  37076845.779   -39926589.4152      -1027.588          41.750  
G 9  23444604.437   -14017333.970        2022.354          38.750  
C10  36255756.059   -28879384.5712       -634.756          41.750  
G28  22006735.271   -23389600.504       -2658.281          41.750  
G 6  21039667.605   -23713790.996         132.754          46.500  
C 8  36765158.697   -21763873.3002       -123.623          43.500  
> 2020  6  5  8  1 17.0000000  0 25                     
G12  23791362.687    -7945461.931        3247.275          40.250  
G 3  25182972.845    -6746438.136       -3265.967          37.250  
C13  36778198.128   -21821482.2342          9.121          45.000  
G17  20957876.968   -25408643.402          79.824          46.000  
C23  26128993.280   -10874306.1152      -2257.656          36.500  
C28  22278406.700   -23521853.1132        774.854          48.750  
G 5  23844527.707   -10504172.841        3933.184          36.750  
G 4  24296696.825    -8607217.263         687.900          36.250  
G19  20448583.307   -30757011.683         798.467          46.000  
G 2  22648370.197   -15236502.594        1276.289          42.750  
C 3  36195255.718   -20443568.3862        292.002          43.750  
C14  23232533.058    -9910865.0342      -1167.539          43.750  
C 2  37230794.671   -19790300.9802        324.395          39.500  
G23  23567288.228   -11262214.808        2176.572          40.000  
C 1  37658944.733   -20213485.3302        277.617          41.250  
C27  24389722.853   -11976096.1562       2218.730          41.000  
C 4  38577617.448   -20497004.9012        274.629          38.500  
C 5  39247478.573   -19914355.4962        313.242          36.000  
C11  25968948.154    -1661541.7462      -1443.867          36.500  
C 7  37077043.123   -39925561.7122      -1027.764          41.750  
G 9  23444219.538   -14019355.999        2021.885          38.500  
C10  36255878.106   -28878749.6572       -634.932          42.000  
G28  22007241.153   -23386941.977       -2658.623          41.750  
G 6  21039642.424   -23713923.552         132.490          46.500  
C 8  36765182.569   -21763749.6182       -123.750          43.500  
> 2020  6  5  8  1 18.0000000  0 25                     
G12  23790744.653    -7948708.862        3246.787          40.250  
G 3  25183594.387    -6743172.069       -3266.123          37.250  
C13  36778196.383   -21821491.2852          9.082          45.000  
G17  20957861.560   -25408722.916          79.404          46.000  
C23  26129426.621   -10872048.5472      -2257.471          36.250  
C28  22278257.780   -23522627.8562        774.697          48.750  
G 5  23843779.268   -10508105.727        3932.891          36.750  
G 4  24296565.931    -8607904.828         687.500          36.250  
G19  20448431.316   -30757809.850         798.086          46.000  
G 2  22648127.273   -15237778.724        1276.094          42.750  
C 3  36195199.807   -20443860.2852        291.895          43.750  
C14  23232757.276    -9909697.1152      -1168.066          43.750  
C 2  37230732.548   -19790625.3182        324.355          39.500  
G23  23566874.134   -11264391.159        2176.279          40.000  
C 1  37658891.632   -20213762.8622        277.549          41.500  
C27  24389296.754   -11978314.8462       2218.691          41.000  
C 4  38577564.592   -20497279.4732        274.600          38.500  
C 5  39247418.404   -19914668.7022        313.223          36.000  
C11  25969225.595    -1660097.8522      -1443.926          36.500  
C 7  37077240.572   -39924533.8142      -1027.891          41.750  
G 9  23443834.691   -14021377.648        2021.562          38.750  
C10  36256000.205   -28878114.4812       -635.244          42.000  
G28  22007747.174   -23384282.991       -2659.102          41.750  
G 6  21039617.383   -23714055.824         132.236          46.500  
C 8  36765206.389   -21763625.8822       -123.721          43.500  
> 2020  6  5  8  1 19.0000000  0 25                     
G12  23790127.282    -7951955.370        3246.426          40.250  
G 3  25184215.859    -6739905.859       -3266.270          37.000  
C13  36778194.551   -21821500.2572          8.965          45.000  
G17  20957846.657   -25408802.076          79.062          46.000  
C23  26129860.067   -10869791.0862      -2257.480          36.000  
C28  22278109.017   -23523402.4212        774.512          48.750  
G 5  23843030.880   -10512038.391        3932.676          36.500  
G 4  24296435.071    -8608591.838         686.846          36.250  
G19  20448279.307   -30758607.642         797.715          46.000  
G 2  22647884.627   -15239054.698        1275.996          42.750  
C 3  36195143.618   -20444152.1482        291.846          43.750  
C14  23232981.581    -9908528.6532      -1168.623          43.750  
C 2  37230670.408   -19790949.5732        324.258          39.500  
G23  23566459.971   -11266567.261        2176.045          40.250  
C 1  37658838.548   -20214040.3372        277.480          41.250  
C27  24388870.916   -11980533.5172       2218.691          41.000  
C 4  38577511.979   -20497553.9782        274.434          38.500  
C 5  39247358.254   -19914981.8972        313.145          36.000  
C11  25969503.071    -1658653.7692      -1444.170          36.500  
C 7  37077438.004   -39923505.7332      -1028.105          41.750  
G 9  23443450.263   -14023398.916        2021.240          39.000  
C10  36256122.234   -28877479.1072       -635.410          42.000  
G28  22008253.649   -23381623.666       -2659.434          41.750  
G 6  21039591.836   -23714187.853         131.973          46.500  
C 8  36765230.226   -21763502.1642       -123.701          43.500  
> 2020  6  5  8  1 20.0000000  0 25                     
G12  23789509.736    -7955201.610        3246.084          40.250  
G 3  25184837.435    -6736639.659       -3266.240          37.000  
C13  36778192.963   -21821509.3452          9.023          45.000  
G17  20957831.702   -25408881.008          78.779          46.000  
C23  26130293.531   -10867533.8852      -2257.207          36.000  
C28  22277960.131   -23524176.9992        774.502          48.750  
G 5  23842282.248   -10515970.988        3932.520          36.500  
G 4  24296304.055    -8609278.486         686.426          36.250  
G19  20448127.560   -30759405.208         797.422          46.000  
G 2  22647641.755   -15240330.631        1275.879          42.750  
C 3  36195087.550   -20444444.1142        291.943          43.750  
C14  23233206.008    -9907359.8132      -1169.023          43.750  
C 2  37230608.145   -19791273.9352        324.316          39.500  
G23  23566045.842   -11268743.335        2175.986          40.250  
C 1  37658785.360   -20214317.9232        277.520          41.250  
C27  24388444.834   -11982752.3402       2218.809          41.000  
C 4  38577459.419   -20497828.5912        274.570          38.500  
C 5  39247298.155   -19915295.1392        313.076          36.000  
C11  25969780.303    -1657209.6982      -1444.160          36.500  
C 7  37077635.227   -39922477.6692      -1028.135          41.750  
G 9  23443065.677   -14025419.992        2020.957          39.500  
C10  36256244.229   -28876843.7222       -635.459          42.000  
G28  22008759.915   -23378964.125       -2659.658          41.750  
G 6  21039566.952   -23714319.803         131.836          46.500  
C 8  36765254.028   -21763378.5972       -123.613          43.500  
> 2020  6  5  8  1 21.0000000  0 25                     
G12  23788892.103    -7958447.329        3245.518          40.250  
G 3  25185459.117    -6733373.222       -3266.504          36.750  
C13  36778191.218   -21821518.3112          8.877          45.000  
G17  20957816.608   -25408959.455          78.271          46.000  
C23  26130727.134   -10865276.6722      -2257.324          36.000  
C28  22277811.525   -23524951.3002        774.160          48.750  
G 5  23841533.843   -10519903.284        3932.090          36.250  
G 4  24296173.789    -8609964.510         685.742          36.250  
G19  20447976.022   -30760202.282         796.865          46.000  
G 2  22647398.796   -15241606.281        1275.537          42.750  
C 3  36195031.361   -20444735.9112        291.689          43.750  
C14  23233430.662    -9906190.3342      -1169.707          43.750  
C 2  37230545.918   -19791598.1452        324.072          39.500  
G23  23565631.888   -11270919.095        2175.596          40.250  
C 1  37658731.840   -20214595.3602        277.305          41.250  
C27  24388018.927   -11984971.0232       2218.604          41.250  
C 4  38577406.789   -20498103.0572        274.395          38.750  
C 5  39247238.004   -19915608.2912        312.979          36.000  
C11  25970057.674    -1655765.3162      -1444.512          36.750  
C 7  37077832.623   -39921449.3042      -1028.486          41.750  
G 9  23442681.389   -14027440.585        2020.400          39.500  
C10  36256366.154   -28876207.9892       -635.869          42.000  
G28  22009266.233   -23376304.108       -2660.195          41.750  
G 6  21039542.068   -23714451.427         131.475          46.500  
C 8  36765277.777   -21763254.9382       -123.711          43.500  
> 2020  6  5  8  1 22.0000000  0 25                     
G12  23788274.418    -7961692.651        3245.176          40.250  
G 3  25186081.025    -6730106.642       -3266.670          36.500  
C13  36778189.647   -21821527.2542          8.906          45.000  
G17  20957801.723   -25409037.538          77.959          46.000  
C23  26131160.475   -10863019.5652      -2257.061          36.000  
C28  22277662.832   -23525725.4622        774.092          48.750  
G 5  23840785.456   -10523835.376        3932.012          36.250  
G 4  24296042.948    -8610650.012         685.273          36.250  
G19  20447824.222   -30760999.005         796.582          46.000  
G 2  22647156.133   -15242881.769        1275.400          42.500  
C 3  36194975.433   -20445027.6622        291.670          43.750  
C14  23233655.194    -9905020.3282      -1170.166          43.750  
C 2  37230483.394   -19791922.3422        324.121          39.750  
G23  23565217.865   -11273094.618        2175.498          40.250  
C 1  37658678.599   -20214872.7462        277.383          41.250  
C27  24387592.775   -11987189.7302       2218.643          41.250  
C 4  38577354.194   -20498377.4662        274.395          38.500  
C 5  39247177.923   -19915921.3902        313.096          35.750  
C11  25970335.237    -1654320.8092      -1444.531          36.500  
C 7  37078030.125   -39920420.8242      -1028.545          41.500  
G 9  23442297.239   -14029460.824        2020.107          39.750  
C10  36256488.305   -28875572.1052       -635.986          42.000  
G28  22009772.359   -23373643.741       -2660.469          41.750  
G 6  21039517.114   -23714582.826         131.309          46.500  
C 8  36765301.318   -21763131.3042       -123.613          43.500  
> 2020  6  5  8  1 23.0000000  0 25                     
G12  23787657.012    -7964937.717        3245.000          40.250  
G 3  25186702.672    -6726840.146       -3266.396          36.750  
C13  36778187.989   -21821536.3482          9.170          45.000  
G17  20957786.820   -25409115.452          77.881          46.000  
C23  26131593.921   -10860762.7542      -2256.680          35.750  
C28  22277514.104   -23526499.6392        774.209          48.750  
G 5  23840037.068   -10527767.436        3932.139          36.500  
G 4  24295912.734    -8611335.179         685.098          36.250  
G19  20447672.772   -30761795.520         796.484          46.000  
G 2  22646913.226   -15244157.256        1275.537          42.500  
C 3  36194919.330   -20445319.5522        291.934          43.750  
C14  23233879.918    -9903849.9662      -1170.459          43.750  
C 2  37230421.271   -19792246.6702        324.326          39.500  
G23  23564803.963   -11275270.120        2175.566          40.250  
C 1  37658625.341   -20215150.2602        277.607          41.250  
C27  24387166.780   -11989408.5912       2218.936          41.000  
C 4  38577301.564   -20498652.0122        274.619          38.500  
C 5  39247117.842   -19916234.5972        313.262          36.000  
C11  25970612.521    -1652876.2922      -1444.434          36.500  
C 7  37078227.836   -39919392.3642      -1028.438          41.750  
G 9  23441913.003   -14031480.896        2020.020          39.500  
C10  36256610.649   -28874936.1602       -635.938          42.000  
G28  22010278.503   -23370983.173       -2660.605          41.500  
G 6  21039491.864   -23714714.171         131.367          46.500  
C 8  36765324.998   -21763007.8522       -123.330          43.500  
> 2020  6  5  8  1 24.0000000  0 25                     
G12  23787039.518    -7968182.459        3244.600          40.250  
G 3  25187324.318    -6723573.554       -3266.650          36.750  
C13  36778186.384   -21821545.4942          9.111          45.000  
G17  20957772.145   -25409193.080          77.510          46.000  
C23  26132027.297   -10858506.1312      -2256.680          36.000  
C28  22277365.498   -23527273.7362        774.033          48.750  
G 5  23839288.663   -10531699.350        3931.875          36.500  
G 4  24295782.573    -8612019.884         684.492          36.000  
G19  20447521.269   -30762591.743         796.094          46.000  
G 2  22646670.476   -15245432.635        1275.342          42.500  
C 3  36194863.367   -20445611.4742        291.904          43.750  
C14  23234104.939    -9902679.1612      -1170.986          43.750  
C 2  37230359.183   -19792571.0002        324.297          39.750  
G23  23564389.869   -11277445.483        2175.244          40.250  
C 1  37658571.944   -20215427.8332        277.539          41.500  
C27  24386740.594   -11991627.5252       2218.887          41.000  
C 4  38577248.970   -20498926.6052        274.609          38.500  
C 5  39247057.778   -19916547.8322        313.184          36.000  
C11  25970889.788    -1651431.6832      -1444.697          36.500  
C 7  37078425.320   -39918363.8332      -1028.623          41.750  
G 9  23441528.837   -14033500.719        2019.717          39.250  
C10  36256732.765   -28874300.1022       -636.133          42.000  
G28  22010784.646   -23368322.334       -2660.986          41.500  
G 6  21039467.067   -23714845.356         131.094          46.500  
C 8  36765348.538   -21762884.4792       -123.398          43.500  
> 2020  6  5  8  1 25.0000000  0 25                     
G12  23786421.937    -7971426.770        3244.160          40.250  
G 3  25187946.000    -6720306.807       -3266.787          36.500  
C13  36778184.604   -21821554.6132          9.131          45.000  
G17  20957757.399   -25409270.330          77.178          46.000  
C23  26132460.446   -10856249.6232      -2256.416          35.750  
C28  22277216.892   -23528047.6612        773.887          48.500  
G 5  23838540.555   -10535631.063        3931.660          36.750  
G 4  24295652.098    -8612704.051         684.033          36.250  
G19  20447369.854   -30763387.576         795.752          46.000  
G 2  22646427.744   -15246707.818        1275.127          42.500  
C 3  36194807.230   -20445903.3302        291.865          43.750  
C14  23234329.959    -9901507.8092      -1171.475          43.750  
C 2  37230296.764   -19792895.2682        324.238          39.500  
G23  23563975.933   -11279620.618        2175.068          40.250  
C 1  37658518.563   -20215705.3122        277.461          41.250  
C27  24386314.459   -11993846.4362       2218.945          41.000  
C 4  38577196.287   -20499201.1262        274.561          38.500  
C 5  39246997.505   -19916861.0222        313.232          36.000  
C11  25971167.194    -1649986.8902      -1444.707          36.500  
C 7  37078622.752   -39917335.1392      -1028.730          41.750  
G 9  23441144.495   -14035520.148        2019.307          39.000  
C10  36256855.039   -28873663.8262       -636.309          42.000  
G28  22011291.174   -23365661.115       -2661.289          41.500  
G 6  21039442.113   -23714976.314         130.869          46.500  
C 8  36765372.061   -21762761.1122       -123.359          43.500  
> 2020  6  5  8  1 26.0000000  0 25                     
G12  23785804.653    -7974670.607        3243.711          40.250  
G 3  25188567.768    -6717039.924       -3266.992          36.750  
C13  36778182.650   -21821563.5942          8.936          45.000  
G17  20957742.689   -25409347.178          76.689          46.000  
C23  26132893.700   -10853993.1492      -2256.465          35.750  
C28  22277068.338   -23528821.3832        773.643          48.500  
G 5  23837792.621   -10539562.470        3931.299          36.750  
G 4  24295522.059    -8613387.631         683.291          36.000  
G19  20447218.578   -30764182.983         795.244          46.000  
G 2  22646185.151   -15247982.804        1274.893          42.750  
C 3  36194751.354   -20446195.0762        291.689          43.750  
C14  23234555.015    -9900335.8632      -1172.158          44.000  
C 2  37230234.484   -19793219.4402        324.121          39.500  
G23  23563562.013   -11281795.478        2174.756          40.250  
C 1  37658465.393   -20215982.7032        277.295          41.250  
C27  24385888.378   -11996065.2692       2218.770          41.000  
C 4  38577143.465   -20499475.5172        274.404          38.500  
C 5  39246937.372   -19917174.0972        312.959          36.000  
C11  25971444.792    -1648541.8962      -1445.068          36.500  
C 7  37078820.288   -39916306.2622      -1028.955          41.500  
G 9  23440760.189   -14037539.167        2018.828          39.000  
C10  36256977.156   -28873027.2992       -636.631          41.750  
G28  22011797.579   -23362999.473       -2661.816          41.750  
G 6  21039417.229   -23715106.983         130.566          46.500  
C 8  36765395.723   -21762637.6682       -123.496          43.500  
> 2020  6  5  8  1 27.0000000  0 25                     
G12  23785187.649    -7977914.051        3243.252          40.250  
G 3  25189189.310    -6713772.891       -3267.119          36.750  
C13  36778180.905   -21821572.5722          8.926          45.000  
G17  20957728.380   -25409423.687          76.387          46.000  
C23  26133327.024   -10851736.8372      -2256.377          35.750  
C28  22276919.592   -23529594.9862        773.525          48.500  
G 5  23837044.635   -10543493.714        3931.172          36.750  
G 4  24295392.194    -8614070.750         682.910          36.250  
G19  20447067.075   -30764978.051         794.941          46.000  
G 2  22645942.401   -15249257.615        1274.727          42.750  
C 3  36194695.252   -20446486.8192        291.768          43.750  
C14  23234780.140    -9899163.4452      -1172.607          44.000  
C 2  37230172.361   -19793543.5912        324.102          39.500  
G23  23563148.461   -11283970.145        2174.590          40.250  
C 1  37658411.820   -20216260.0922        277.363          41.250  
C27  24385462.208   -11998284.1452       2218.916          41.000  
C 4  38577090.748   -20499749.9382        274.326          38.500  
C 5  39246877.413   -19917487.1442        312.998          35.750  
C11  25971722.390    -1647096.7502      -1445.225          36.750  
C 7  37079017.807   -39915277.2402      -1029.092          41.500  
G 9  23440375.587   -14039557.897        2018.691          38.750  
C10  36257099.464   -28872390.6162       -636.777          42.000  
G28  22012304.194   -23360337.529       -2662.109          41.500  
G 6  21039392.485   -23715237.460         130.400          46.500  
C 8  36765419.578   -21762514.3052       -123.398          43.500  
> 2020  6  5  8  1 28.0000000  0 25                     
G12  23784570.417    -7981157.019        3242.871          40.250  
G 3  25189810.852    -6710505.685       -3267.285          36.500  
C13  36778179.229   -21821581.4822          8.926          45.000  
G17  20957713.704   -25409499.780          76.006          46.000  
C23  26133760.400   -10849480.5402      -2256.270          36.000  
C28  22276771.109   -23530368.3592        773.330          48.500  
G 5  23836296.475   -10547424.703        3930.918          36.750  
G 4  24295262.155    -8614753.272         682.393          36.250  
G19  20446915.991   -30765772.676         794.521          46.000  
G 2  22645699.825   -15250532.206        1274.531          42.750  
C 3  36194639.254   -20446778.4202        291.582          43.750  
C14  23235005.457    -9897990.4122      -1173.164          44.000  
C 2  37230109.907   -19793867.6402        324.053          39.500  
G23  23562734.943   -11286144.546        2174.404          40.250  
C 1  37658358.510   -20216537.3782        277.275          41.500  
C27  24385036.109   -12000502.9362       2218.848          41.000  
C 4  38577038.119   -20500024.2142        274.258          38.500  
C 5  39246817.175   -19917800.1542        313.008          36.000  
C11  25972000.058    -1645651.3822      -1445.400          36.750  
C 7  37079215.431   -39914248.0022      -1029.287          41.500  
G 9  23439991.525   -14041576.171        2018.184          38.750  
C10  36257221.720   -28871753.6662       -636.992          42.000  
G28  22012811.001   -23357675.128       -2662.471          41.500  
G 6  21039367.758   -23715367.637         130.127          46.750  
C 8  36765443.328   -21762390.8692       -123.418          43.500  
> 2020  6  5  8  1 29.0000000  0 25                     
G12  23783953.517    -7984399.683        3242.676          40.250  
G 3  25190432.621    -6707238.490       -3267.051          36.500  
C13  36778177.554   -21821590.4902          9.092          45.000  
G17  20957699.447   -25409575.629          75.850          46.000  
C23  26134193.567   -10847224.5042      -2255.879          36.000  
C28  22276622.677   -23531141.7132        773.428          48.500  
G 5  23835548.349   -10551355.597        3930.938          36.750  
G 4  24295132.535    -8615435.397         682.139          36.000  
G19  20446764.750   -30766567.054         794.346          46.000  
G 2  22645457.442   -15251806.745        1274.580          42.750  
C 3  36194582.995   -20447070.1132        291.768          43.750  
C14  23235230.792    -9896816.9942      -1173.438          43.750  
C 2  37230047.487   -19794191.7782        324.229          39.500  
G23  23562321.355   -11288318.851        2174.326          40.500  
C 1  37658305.200   -20216814.7322        277.471          41.250  
C27  24384609.818   -12002721.8462       2219.033          41.000  
C 4  38576985.419   -20500298.5872        274.512          38.500  
C 5  39246757.111   -19918113.1552        313.115          35.750  
C11  25972277.778    -1644205.9842      -1445.361          36.750  
C 7  37079413.229   -39913218.7532      -1029.180          41.750  
G 9  23439607.411   -14043594.225        2017.988          39.000  
C10  36257344.203   -28871116.6412       -636.973          42.000  
G28  22013317.720   -23355012.500       -2662.617          41.500  
G 6  21039342.821   -23715497.720         130.137          46.750  
C 8  36765466.868   -21762267.5882       -123.164          43.500  
> 2020  6  5  8  1 30.0000000  0 25                     
G12  23783336.547    -7987642.084        3242.275          40.250  
G 3  25191054.372    -6703971.314       -3267.236          36.500  
C13  36778175.809   -21821599.6262          9.180          45.000  
G17  20957685.103   -25409651.292          75.625          46.000  
C23  26134626.786   -10844968.7392      -2255.684          36.000  
C28  22276474.106   -23531915.0662        773.320          48.500  
G 5  23834800.258   -10555286.439        3930.811          36.750  
G 4  24295002.862    -8616117.171         681.641          36.250  
G19  20446613.544   -30767361.228         794.092          46.000  
G 2  22645214.919   -15253081.287        1274.482          42.750  
C 3  36194527.032   -20447361.9362        291.836          43.750  
C14  23235456.161    -9895643.2042      -1173.945          44.000  
C 2  37229985.277   -19794516.0212        324.238          39.500  
G23  23561907.593   -11290493.121        2174.229          40.250  
C 1  37658252.098   -20217092.1832        277.451          41.500  
C27  24384183.526   -12004940.9072       2219.141          41.000  
C 4  38576932.562   -20500573.0882        274.502          38.500  
C 5  39246696.908   -19918426.3112        313.242          35.750  
C11  25972555.341    -1642760.5532      -1445.391          36.500  
C 7  37079611.027   -39912189.5182      -1029.258          41.500  
G 9  23439223.506   -14045612.078        2017.754          39.250  
C10  36257466.390   -28870479.5712       -637.129          42.000  
G28  22013824.405   -23352349.669       -2662.900          41.750  
G 6  21039318.321   -23715627.735         130.000          46.750  
C 8  36765490.478   -21762144.4612       -123.086          43.500  
> 2020  6  5  8  1 31.0000000  0 25                     
G12  23782719.682    -7990884.066        3241.748          40.250  
G 3  25191676.298    -6700703.994       -3267.451          36.500  
C13  36778174.169   -21821608.7342          9.053          45.000  
G17  20957670.689   -25409726.581          75.137          46.000  
C23  26135060.040   -10842713.0792      -2255.693          35.500  
C28  22276325.535   -23532688.2702        773.086          48.500  
G 5  23834052.464   -10559217.090        3930.508          36.750  
G 4  24294873.015    -8616798.401         681.025          36.000  
G19  20446462.530   -30768155.021         793.652          46.000  
G 2  22644972.186   -15254355.655        1274.277          42.500  
C 3  36194471.069   -20447653.6952        291.680          43.500  
C14  23235681.496    -9894468.8752      -1174.541          43.750  
C 2  37229923.277   -19794840.2252        324.092          39.500  
G23  23561493.656   -11292667.164        2173.955          40.500  
C 1  37658198.840   -20217369.6012        277.334          41.250  
C27  24383757.409   -12007159.9592       2218.994          41.000  
C 4  38576879.828   -20500847.5232        274.424          38.500  
C 5  39246636.809   -19918739.4432        313.076          35.750  
C11  25972833.009    -1641314.9862      -1445.674          36.500  
C 7  37079808.738   -39911160.1332      -1029.512          41.500  
G 9  23438839.828   -14047629.594        2017.422          39.500  
C10  36257588.908   -28869842.3022       -637.383          42.000  
G28  22014331.368   -23349686.463       -2663.350          41.750  
G 6  21039293.437   -23715757.525         129.697          46.750  
C 8  36765514.106   -21762021.3682       -123.154          43.500  
> 2020  6  5  8  1 32.0000000  0 25                     
G12  23782102.764    -7994125.762        3241.533          40.250  
G 3  25192297.752    -6697436.673       -3267.363          36.500  
C13  36778172.023   -21821617.9292          9.199          45.000  
G17  20957656.380   -25409801.633          74.951          46.000  
C23  26135493.207   -10840457.6442      -2255.312          35.500  
C28  22276177.138   -23533461.4292        773.125          48.500  
G 5  23833304.844   -10563147.597        3930.342          36.500  
G 4  24294743.482    -8617479.203         680.664          36.000  
G19  20446311.690   -30768948.549         793.408          46.000  
G 2  22644729.890   -15255629.953        1274.268          42.750  
C 3  36194415.211   -20447945.5212        291.787          43.750  
C14  23235907.075    -9893294.1332      -1174.893          43.750  
C 2  37229861.032   -19795164.4862        324.258          39.500  
G23  23561079.964   -11294841.106        2173.896          40.250  
C 1  37658145.652   -20217647.1112        277.520          41.250  
C27  24383331.345   -12009379.1192       2219.121          41.000  
C 4  38576827.023   -20501122.0322        274.521          38.250  
C 5  39246576.606   -19919052.6162        313.340          36.000  
C11  25973110.398    -1639869.3322      -1445.674          36.750  
C 7  37080006.502   -39910130.7002      -1029.482          41.750  
G 9  23438455.888   -14049646.842        2017.129          39.500  
C10  36257711.112   -28869204.9572       -637.373          42.000  
G28  22014838.158   -23347023.031       -2663.545          41.750  
G 6  21039268.815   -23715887.196         129.609          46.750  
C 8  36765537.489   -21761898.3862       -122.910          43.500  
> 2020  6  5  8  1 33.0000000  0 25                     
G12  23781485.934    -7997367.107        3241.279          40.250  
G 3  25192919.626    -6694169.291       -3267.295          36.750  
C13  36778169.963   -21821627.1712          9.258          45.000  
G17  20957642.333   -25409876.379          74.697          46.000  
C23  26135926.129   -10838202.3792      -2255.283          35.250  
C28  22276028.619   -23534234.4962        773.076          48.500  
G 5  23832557.085   -10567077.997        3930.459          36.500  
G 4  24294613.775    -8618159.608         680.254          36.250  
G19  20446160.588   -30769741.779         793.193          46.000  
G 2  22644487.332   -15256904.154        1274.189          42.500  
C 3  36194359.230   -20448237.3822        291.885          43.750  
C14  23236132.759    -9892118.9202      -1175.312          43.750  
C 2  37229798.700   -19795488.8022        324.404          39.500  
G23  23560665.993   -11297014.883        2173.770          40.500  
C 1  37658092.237   -20217924.6252        277.529          41.250  
C27  24382905.193   -12011598.3472       2219.307          41.250  
C 4  38576774.324   -20501396.5462        274.561          38.500  
C 5  39246516.438   -19919365.7972        313.291          35.750  
C11  25973388.066    -1638423.6032      -1445.752          36.750  
C 7  37080204.213   -39909101.1852      -1029.482          41.750  
G 9  23438072.105   -14051663.818        2016.963          39.500  
C10  36257833.420   -28868567.4802       -637.510          42.000  
G28  22015345.226   -23344359.275       -2663.857          41.750  
G 6  21039244.228   -23716016.722         129.551          46.750  
C 8  36765561.204   -21761775.4702       -122.852          43.500  
> 2020  6  5  8  1 34.0000000  0 25                     
G12  23780869.261    -8000608.030        3240.771          40.250  
G 3  25193541.255    -6690901.761       -3267.520          36.750  
C13  36778168.096   -21821636.3772          9.170          45.000  
G17  20957628.058   -25409950.771          74.277          46.000  
C23  26136359.156   -10835947.2262      -2255.205          35.250  
C28  22275880.031   -23535007.4162        772.852          48.500  
G 5  23831809.413   -10571008.179        3930.029          36.500  
G 4  24294484.381    -8618839.431         679.648          36.250  
G19  20446009.784   -30770534.622         792.734          45.750  
G 2  22644244.983   -15258178.189        1273.994          42.500  
C 3  36194303.180   -20448529.1732        291.768          43.750  
C14  23236358.582    -9890943.1922      -1175.889          43.750  
C 2  37229736.420   -19795813.0492        324.238          39.500  
G23  23560252.300   -11299188.467        2173.477          40.500  
C 1  37658039.014   -20218202.0822        277.441          41.250  
C27  24382479.163   -12013817.5232       2219.170          41.250  
C 4  38576721.833   -20501671.0252        274.453          38.500  
C 5  39246456.304   -19919678.9662        313.232          36.000  
C11  25973665.925    -1636977.6852      -1446.025          36.750  
C 7  37080402.203   -39908071.5282      -1029.717          41.750  
G 9  23437688.585   -14053680.433        2016.455          39.250  
C10  36257956.008   -28867929.8172       -637.744          41.750  
G28  22015852.085   -23341695.171       -2664.219          41.500  
G 6  21039219.413   -23716145.995         129.209          46.500  
C 8  36765584.849   -21761652.5742       -122.871          43.500  
> 2020  6  5  8  1 35.0000000  0 25                     
G12  23780252.622    -8003848.514        3240.342          40.250  
G 3  25194163.093    -6687634.085       -3267.754          36.750  
C13  36778166.281   -21821645.5232          9.092          45.000  
G17  20957614.133   -25410024.764          73.828          46.000  
C23  26136792.201   -10833692.1772      -2255.000          35.250  
C28  22275731.686   -23535780.1522        772.676          48.500  
G 5  23831061.200   -10574938.107        3929.883          36.500  
G 4  24294355.040    -8619518.747         679.082          36.000  
G19  20445858.822   -30771327.068         792.314          45.750  
G 2  22644002.739   -15259452.014        1273.770          42.500  
C 3  36194247.270   -20448820.9102        291.719          43.750  
C14  23236584.440    -9889766.9182      -1176.445          43.750  
C 2  37229673.948   -19796137.1942        324.131          39.750  
G23  23559838.730   -11301361.803        2173.213          40.500  
C 1  37657985.686   -20218479.4842        277.354          41.250  
C27  24382053.273   -12016036.6992       2219.131          41.250  
C 4  38576669.081   -20501945.4052        274.326          38.500  
C 5  39246396.240   -19919992.0062        313.027          36.000  
C11  25973943.611    -1635531.5852      -1446.172          36.750  
C 7  37080599.722   -39907041.7112      -1029.902          41.500  
G 9  23437304.837   -14055696.669        2016.045          39.000  
C10  36258078.648   -28867291.9362       -637.949          42.000  
G28  22016359.153   -23339030.666       -2664.648          41.500  
G 6  21039194.913   -23716275.032         128.955          46.500  
C 8  36765608.511   -21761529.6692       -122.920          43.500  
> 2020  6  5  8  1 36.0000000  0 25                     
G12  23779636.036    -8007088.498        3239.873          40.250  
G 3  25194784.862    -6684366.186       -3267.959          36.750  
C13  36778164.641   -21821654.5492          8.984          45.000  
G17  20957599.859   -25410098.322          73.418          46.000  
C23  26137225.211   -10831437.1612      -2254.961          35.250  
C28  22275583.429   -23536552.6532        772.441          48.500  
G 5  23830313.510   -10578867.752        3929.590          36.750  
G 4  24294225.821    -8620197.433         678.545          36.250  
G19  20445708.104   -30772119.055         791.865          45.750  
G 2  22643760.495   -15260725.585        1273.447          42.750  
C 3  36194191.429   -20449112.4932        291.523          43.750  
C14  23236810.455    -9888590.0232      -1177.061          43.750  
C 2  37229611.668   -19796461.2412        324.004          39.500  
G23  23559425.439   -11303534.843        2173.018          40.500  
C 1  37657932.428   -20218756.7662        277.246          41.250  
C27  24381627.017   -12018255.7842       2219.092          41.250  
C 4  38576616.417   -20502219.6852        274.277          38.500  
C 5  39246336.142   -19920304.9362        312.744          36.000  
C11  25974221.348    -1634085.2532      -1446.416          36.750  
C 7  37080797.311   -39906011.6422      -1030.117          41.500  
G 9  23436921.298   -14057712.485        2015.713          38.750  
C10  36258201.027   -28866653.7462       -638.242          42.000  
G28  22016866.327   -23336365.712       -2665.068          41.750  
G 6  21039170.553   -23716403.760         128.643          46.500  
C 8  36765632.244   -21761406.6692       -122.998          43.500  
> 2020  6  5  8  1 37.0000000  0 25                     
G12  23779019.607    -8010328.036        3239.473          40.250  
G 3  25195406.997    -6681098.161       -3267.998          37.000  
C13  36778163.088   -21821663.5312          9.023          45.250  
G17  20957586.056   -25410171.501          73.145          46.000  
C23  26137658.412   -10829182.2382      -2254.775          35.250  
C28  22275434.998   -23537324.9892        772.363          48.500  
G 5  23829565.524   -10582797.171        3929.434          36.500  
G 4  24294096.864    -8620875.603         678.154          36.250  
G19  20445557.649   -30772910.676         791.562          45.750  
G 2  22643518.182   -15261998.988        1273.457          42.750  
C 3  36194135.501   -20449404.0472        291.592          43.750  
C14  23237036.488    -9887412.6042      -1177.510          44.000  
C 2  37229549.511   -19796785.2392        324.043          39.500  
G23  23559011.939   -11305707.657        2172.852          40.500  
C 1  37657879.152   -20219033.9982        277.285          41.250  
C27  24381201.109   -12020474.8662       2219.170          41.250  
C 4  38576563.699   -20502493.9122        274.287          38.500  
C 5  39246275.904   -19920617.8542        312.900          36.000  
C11  25974499.016    -1632638.7482      -1446.553          36.750  
C 7  37080995.179   -39904981.4262      -1030.195          41.750  
G 9  23436537.830   -14059727.925        2015.371          38.750  
C10  36258323.579   -28866015.3592       -638.418          42.000  
G28  22017373.657   -23333700.436       -2665.303          41.500  
G 6  21039145.808   -23716532.246         128.467          46.750  
C 8  36765655.836   -21761283.6852       -122.930          43.500  
> 2020  6  5  8  1 38.0000000  0 25                     
G12  23778403.144    -8013567.366        3239.336          40.250  
G 3  25196028.818    -6677830.184       -3267.871          37.000  
C13  36778161.500   -21821672.6632          9.287          45.250  
G17  20957572.410   -25410244.487          73.018          46.250  
C23  26138091.230   -10826927.5992      -2254.502          35.250  
C28  22275286.706   -23538097.3502        772.432          48.500  
G 5  23828817.974   -10586726.558        3929.414          36.500  
G 4  24293968.029    -8621553.419         677.773          36.250  
G19  20445407.001   -30773702.075         791.396          46.000  
G 2  22643275.571   -15263272.366        1273.506          42.750  
C 3  36194079.207   -20449695.6982        291.758          43.750  
C14  23237262.695    -9886234.8272      -1177.822          43.750  
C 2  37229487.423   -19797109.3342        324.199          39.500  
G23  23558598.456   -11307880.430        2172.783          40.250  
C 1  37657825.947   -20219311.3302        277.373          41.250  
C27  24380774.975   -12022694.0842       2219.355          41.250  
C 4  38576510.703   -20502768.2542        274.443          38.500  
C 5  39246215.701   -19920930.8682        313.232          36.000  
C11  25974776.806    -1631192.2272      -1446.455          36.750  
C 7  37081193.274   -39903951.2382      -1030.117          41.500  
G 9  23436154.327   -14061743.189        2015.273          39.000  
C10  36258446.412   -28865376.9462       -638.369          42.000  
G28  22017880.655   -23331034.914       -2665.508          41.500  
G 6  21039121.203   -23716660.678         128.506          46.750  
C 8  36765679.516   -21761160.9022       -122.676          43.500  
> 2020  6  5  8  1 39.0000000  0 25                     
G12  23777786.680    -8016806.394        3238.867          40.250  
G 3  25196650.622    -6674562.211       -3268.018          37.000  
C13  36778159.703   -21821681.8792          9.209          45.250  
G17  20957558.223   -25410317.261          72.646          46.000  
C23  26138524.100   -10824673.2072      -2254.385          35.500  
C28  22275138.274   -23538869.6862        772.275          48.500  
G 5  23828069.866   -10590655.892        3929.229          36.500  
G 4  24293839.020    -8622230.817         677.168          36.500  
G19  20445256.475   -30774493.252         791.035          46.000  
G 2  22643033.031   -15264545.718        1273.213          42.750  
C 3  36194023.035   -20449987.4552        291.758          43.750  
C14  23237488.885    -9885056.6602      -1178.340          43.750  
C 2  37229425.282   -19797433.5422        324.131          39.500  
G23  23558184.903   -11310053.147        2172.646          40.250  
C 1  37657772.601   -20219588.7832        277.432          41.500  
C27  24380348.736   -12024913.4402       2219.365          41.250  
C 4  38576458.161   -20503042.6962        274.375          38.500  
C 5  39246155.881   -19921243.9812        313.096          36.000  
C11  25975054.492    -1629745.7062      -1446.582          37.000  
C 7  37081390.985   -39902921.0282      -1030.273          41.750  
G 9  23435770.841   -14063758.228        2014.912          39.000  
C10  36258569.139   -28864738.4902       -638.486          42.000  
G28  22018387.706   -23328369.205       -2665.850          41.250  
G 6  21039097.192   -23716789.021         128.232          46.750  
C 8  36765702.830   -21761038.2492       -122.646          43.500  
> 2020  6  5  8  1 40.0000000  0 25                     
G12  23777170.495    -8020045.059        3238.555          40.250  
G 3  25197272.478    -6671294.157       -3268.018          36.750  
C13  36778157.748   -21821691.1122          9.258          45.250  
G17  20957544.611   -25410389.707          72.363          46.000  
C23  26138956.953   -10822418.9662      -2254.141          35.500  
C28  22274989.982   -23539641.9102        772.217          48.500  
G 5  23827322.107   -10594585.023        3929.170          36.000  
G 4  24293710.185    -8622907.789         676.855          36.250  
G19  20445105.810   -30775284.088         790.742          46.000  
G 2  22642790.822   -15265818.947        1273.193          42.750  
C 3  36193967.002   -20450279.1992        291.758          43.750  
C14  23237715.424    -9883878.0022      -1178.770          44.000  
C 2  37229362.828   -19797757.7642        324.219          39.750  
G23  23557771.490   -11312225.673        2172.539          40.250  
C 1  37657719.169   -20219866.2082        277.441          41.250  
C27  24379922.654   -12027132.8162       2219.395          41.250  
C 4  38576405.356   -20503317.1092        274.424          38.500  
C 5  39246095.608   -19921557.1142        313.203          36.000  
C11  25975332.282    -1628299.0292      -1446.602          36.750  
C 7  37081588.730   -39901890.7172      -1030.332          41.750  
G 9  23435387.355   -14065772.942        2014.600          39.250  
C10  36258691.692   -28864099.8852       -638.662          42.000  
G28  22018894.845   -23325703.157       -2666.152          41.250  
G 6  21039072.657   -23716917.183         128.105          46.750  
C 8  36765726.545   -21760915.6602       -122.549          43.500  
> 2020  6  5  8  1 41.0000000  0 25                     
G12  23776554.171    -8023283.302        3238.008          40.250  
G 3  25197894.456    -6668025.960       -3268.252          36.500  
C13  36778156.038   -21821700.3252          9.160          45.250  
G17  20957530.896   -25410461.781          71.895          46.000  
C23  26139390.085   -10820164.8332      -2254.209          35.250  
C28  22274841.865   -23540413.9542        771.934          48.500  
G 5  23826574.208   -10598513.921        3928.857          36.000  
G 4  24293581.263    -8623584.188         676.191          36.500  
G19  20444955.476   -30776074.532         790.264          46.000  
G 2  22642548.839   -15267091.992        1272.959          42.750  
C 3  36193910.917   -20450570.8822        291.621          43.750  
C14  23237941.770    -9882698.8062      -1179.404          44.000  
C 2  37229300.548   -19798081.8812        324.023          39.750  
G23  23557357.937   -11314397.975        2172.178          40.250  
C 1  37657665.946   -20220143.5932        277.334          41.250  
C27  24379496.310   -12029352.1902       2219.277          41.000  
C 4  38576352.726   -20503591.5062        274.307          38.500  
C 5  39246035.649   -19921870.1522        312.891          36.000  
C11  25975609.880    -1626852.1762      -1446.924          37.000  
C 7  37081786.633   -39900860.2262      -1030.586          41.500  
G 9  23435004.165   -14067787.295        2014.160          39.500  
C10  36258814.489   -28863461.0192       -638.965          42.000  
G28  22019402.245   -23323036.759       -2666.592          41.500  
G 6  21039048.628   -23717045.106         127.773          46.750  
C 8  36765750.102   -21760793.0732       -122.607          43.500  
> 2020  6  5  8  1 42.0000000  0 25                     
G12  23775937.690    -8026521.302        3237.930          40.250  
G 3  25198516.556    -6664757.801       -3268.154          36.500  
C13  36778154.311   -21821709.7212          9.434          45.250  
G17  20957517.145   -25410533.682          71.816          46.000  
C23  26139822.606   -10817910.9672      -2253.887          35.250  
C28  22274693.468   -23541186.0532        772.109          48.500  
G 5  23825826.588   -10602442.824        3928.867          36.250  
G 4  24293452.707    -8624260.263         675.977          36.250  
G19  20444805.160   -30776864.807         790.215          46.000  
G 2  22642306.945   -15268365.041        1273.037          43.000  
C 3  36193854.919   -20450862.7132        291.855          43.750  
C14  23238168.344    -9881519.2732      -1179.629          44.000  
C 2  37229238.146   -19798406.1722        324.355          39.500  
G23  23556944.681   -11316570.257        2172.285          40.250  
C 1  37657612.705   -20220421.1322        277.598          41.250  
C27  24379069.932   -12031571.7452       2219.619          41.000  
C 4  38576300.114   -20503866.0162        274.492          38.500  
C 5  39245975.376   -19922183.3262        313.213          36.000  
C11  25975887.722    -1625405.3762      -1446.807          37.250  
C 7  37081984.519   -39899829.7982      -1030.439          41.500  
G 9  23434621.046   -14069801.496        2014.180          39.500  
C10  36258937.251   -28862822.2022       -638.789          42.000  
G28  22019909.819   -23320370.185       -2666.621          41.500  
G 6  21039024.233   -23717173.003         127.871          46.750  
C 8  36765773.573   -21760670.6882       -122.354          43.500  
> 2020  6  5  8  1 43.0000000  0 25                     
G12  23775321.749    -8029758.842        3237.549          40.250  
G 3  25199138.657    -6661489.458       -3268.291          36.250  
C13  36778152.845   -21821719.0302          9.443          45.250  
G17  20957503.586   -25410605.157          71.514          46.000  
C23  26140255.302   -10815657.2002      -2253.545          35.000  
C28  22274545.281   -23541957.9332        771.963          48.500  
G 5  23825078.724   -10606371.451        3928.701          36.250  
G 4  24293324.256    -8624935.743         675.488          36.250  
G19  20444654.879   -30777654.644         789.883          46.000  
G 2  22642064.683   -15269637.864        1272.930          43.000  
C 3  36193798.974   -20451154.4422        291.885          43.500  
C14  23238394.935    -9880339.1452      -1180.195          44.000  
C 2  37229176.006   -19798730.3522        324.336          39.500  
G23  23556531.146   -11318742.263        2172.090          40.500  
C 1  37657559.447   -20220698.5572        277.588          41.500  
C27  24378643.675   -12033791.2262       2219.619          41.000  
C 4  38576247.379   -20504140.4352        274.551          38.500  
C 5  39245915.225   -19922496.4282        313.271          36.000  
C11  25976165.617    -1623958.3352      -1446.982          37.000  
C 7  37082182.492   -39898799.1552      -1030.518          41.500  
G 9  23434237.734   -14071815.270        2013.799          39.250  
C10  36259059.752   -28862183.1212       -638.975          42.000  
G28  22020417.359   -23317703.196       -2666.914          41.500  
G 6  21038999.680   -23717300.596         127.656          46.750  
C 8  36765797.148   -21760548.2632       -122.266          43.500  
> 2020  6  5  8  1 44.0000000  0 25                     
G12  23774705.791    -8032996.037        3237.139          40.000  
G 3  25199760.652    -6658221.080       -3268.301          36.000  
C13  36778151.117   -21821728.3602          9.395          45.250  
G17  20957489.696   -25410676.359          71.191          46.000  
C23  26140688.154   -10813403.6102      -2253.477          34.750  
C28  22274397.094   -23542729.7342        771.826          48.250  
G 5  23824331.174   -10610299.931        3928.496          36.250  
G 4  24293195.979    -8625610.793         674.971          36.250  
G19  20444504.650   -30778444.184         789.473          46.000  
G 2  22641822.596   -15270910.600        1272.773          43.000  
C 3  36193743.063   -20451446.1972        291.846          43.750  
C14  23238621.823    -9879158.5812      -1180.674          44.000  
C 2  37229113.674   -19799054.5722        324.316          39.500  
G23  23556118.047   -11320914.122        2171.904          40.500  
C 1  37657506.241   -20220976.0042        277.471          41.250  
C27  24378217.349   -12036010.7802       2219.600          41.250  
C 4  38576194.767   -20504414.8952        274.600          38.500  
C 5  39245855.319   -19922809.5492        313.213          36.000  
C11  25976443.634    -1622511.2172      -1447.158          37.250  
C 7  37082380.499   -39897768.4322      -1030.664          41.500  
G 9  23433854.353   -14073828.772        2013.457          39.000  
C10  36259182.636   -28861543.8902       -639.209          42.000  
G28  22020924.881   -23315035.928       -2667.334          41.500  
G 6  21038975.913   -23717428.060         127.451          46.750  
C 8  36765820.462   -21760425.9262       -122.285          43.500  
> 2020  6  5  8  1 45.0000000  0 25                     
G12  23774089.886    -8036232.808        3236.621          40.000  
G 3  25200382.281    -6654952.562       -3268.555          36.000  
C13  36778149.512   -21821737.6612          9.316          45.250  
G17  20957476.364   -25410747.193          70.723          46.000  
C23  26141120.885   -10811150.1242      -2253.438          34.750  
C28  22274248.889   -23543501.3822        771.611          48.500  
G 5  23823583.764   -10614228.201        3928.203          36.250  
G 4  24293067.598    -8626285.338         674.463          36.250  
G19  20444354.578   -30779233.344         789.062          46.000  
G 2  22641580.475   -15272183.167        1272.510          43.000  
C 3  36193686.961   -20451737.8892        291.660          43.750  
C14  23238848.519    -9877977.4842      -1181.260          44.000  
C 2  37229051.272   -19799378.7502        324.209          39.500  
G23  23555704.948   -11323085.758        2171.572          40.500  
C 1  37657452.913   -20221253.4162        277.393          41.250  
C27  24377791.110   -12038230.3302       2219.541          41.250  
C 4  38576142.102   -20504689.2712        274.375          38.500  
C 5  39245795.168   -19923122.5922        312.998          36.000  
C11  25976721.685    -1621063.9202      -1447.393          36.750  
C 7  37082578.315   -39896737.5722      -1030.928          41.500  
G 9  23433470.972   -14075841.923        2013.086          38.750  
C10  36259305.381   -28860904.4522       -639.541          42.000  
G28  22021432.612   -23312368.300       -2667.705          41.500  
G 6  21038951.779   -23717555.285         127.168          47.000  
C 8  36765843.880   -21760303.5832       -122.334          43.500  
> 2020  6  5  8  1 46.0000000  0 25                     
G12  23773474.103    -8039469.231        3236.367          40.000  
G 3  25201004.329    -6651683.988       -3268.477          36.000  
C13  36778147.749   -21821746.9882          9.404          45.250  
G17  20957463.276   -25410817.721          70.488          46.000  
C23  26141553.633   -10808896.8202      -2253.203          35.000  
C28  22274100.580   -23544272.9222        771.582          48.250  
G 5  23822836.459   -10618156.337        3928.232          36.250  
G 4  24292939.322    -8626959.361         673.916          36.250  
G19  20444204.506   -30780022.191         788.809          46.000  
G 2  22641338.632   -15273455.605        1272.461          43.000  
C 3  36193630.754   -20452029.6112        291.758          43.750  
C14  23239075.563    -9876795.9132      -1181.670          44.000  
C 2  37228989.044   -19799702.9132        324.180          39.500  
G23  23555291.814   -11325257.262        2171.523          40.500  
C 1  37657399.847   -20221530.8402        277.490          41.250  
C27  24377364.906   -12040449.9252       2219.707          41.250  
C 4  38576089.455   -20504963.6842        274.502          38.500  
C 5  39245735.122   -19923435.6912        313.076          36.000  
C11  25976999.510    -1619616.5302      -1447.334          36.750  
C 7  37082776.322   -39895706.6192      -1030.889          41.500  
G 9  23433087.922   -14077854.759        2012.832          38.750  
C10  36259428.143   -28860264.8852       -639.590          42.000  
G28  22021939.960   -23309700.352       -2667.988          41.500  
G 6  21038927.558   -23717682.338         127.061          47.000  
C 8  36765867.560   -21760181.3122       -122.178          43.500  
