     3.02           OBSERVATION DATA    M: Mixed            RINEX VERSION / TYPE
RTKCONV 2.4.3 b33                       20200605 120353 UTC PGM / RUN BY / DATE 
log: C:\Users\204\Desktop\test\²âÊÔÊý¾Ý\rov_202006050758.l  COMMENT             
format: u-blox                                              COMMENT             
                                                            MARKER NAME         
                                                            MARKER NUMBER       
                                                            MARKER TYPE         
                                                            OBSERVER / AGENCY   
                                                            REC # / TYPE / VERS 
                                                            ANT # / TYPE        
 -2191136.5054  5198848.9224  2965379.7135                  APPROX POSITION XYZ 
        0.0000        0.0000        0.0000                  ANTENNA: DELTA H/E/N
G    4 C1C L1C D1C S1C                                      SYS / # / OBS TYPES 
C    4 C1I L1I D1I S1I                                      SYS / # / OBS TYPES 
  2020     6     5     7    58   57.9990000     GPS         TIME OF FIRST OBS   
  2020     6     5     8    27   57.9990000     GPS         TIME OF LAST OBS    
G                                                           SYS / PHASE SHIFT   
C                                                           SYS / PHASE SHIFT   
  0                                                         GLONASS SLOT / FRQ #
 C1C    0.000 C1P    0.000 C2C    0.000 C2P    0.000        GLONASS COD/PHS/BIS 
                                                            END OF HEADER       
> 2020  6  5  7 58 57.9990000  0 27                     
G 2  22611030.919   118821779.724        2205.078          44.000  
G 3  25025405.772   131509406.814       -2342.623          32.000  
G 6  20972143.865   110209363.685        1068.714          47.000  
G17  20889219.244   109773579.862        1033.894          46.000  
G19  20398956.720   107197236.212        1754.077          47.000  
C 2  37168117.171   193544139.740        1227.207          40.000  
G28  21866165.129   114907446.916       -1703.149          42.000  
G 4  24244418.537   127405283.734        1664.333          41.000  
G 9  23426912.115   123109299.578        2974.176          39.000  
C 1  37595011.026   195767087.049        1179.787          43.000  
C27  24377542.410   126940268.613        3115.943          41.000  
C 3  36131713.821   188147313.859        1194.868          45.000  
C 4  38513607.083   200550456.383        1177.448          40.000  
C10  36167873.011   188335589.354         288.674          43.000  
C13  36707075.595   191143378.914         909.790          44.000  
C14  23130922.778   120448785.687        -197.553          46.000  
C23  25997106.419   135373751.339       -1376.363          37.000  
C28  22227948.680   115746762.006        1692.109          49.000  
G12  23806587.304   125104461.393        4208.472          39.000  
G 5  23877516.908   125477144.769        4865.711          37.000  
G23  23553815.124   123776153.002        3109.351          40.000  
C 7  36978459.724   192556536.167        -110.725          42.000  
C 8  36690437.301   191056731.452         771.229          44.000  
C16  40625080.952   211545448.354        2584.915          35.000  
C 5  39184507.909   204044015.296        1215.691          37.000  
C11  25859285.315   134656051.169        -524.388          37.000  
C 6  39832767.095   207419668.042        2560.979          34.000  
> 2020  6  5  7 58 58.9990000  0 27                     
G 2  22610611.329   118819574.616        2204.598          44.000  
G 3  25025851.625   131511749.209       -2342.788          32.000  
G 6  20971940.395   110208294.882        1068.387          47.000  
G17  20889022.423   109772546.128        1033.181          46.000  
G19  20398622.897   107195482.247        1753.497          47.000  
C 2  37167881.314   193542912.765        1226.572          40.000  
G28  21866489.215   114909150.038       -1703.406          42.000  
G 4  24244102.095   127403619.639        1663.472          41.000  
G 9  23426346.222   123106325.319        2974.030          39.000  
C 1  37594784.557   195765907.080        1179.656          43.000  
C27  24376944.076   126937152.572        3115.874          41.000  
C 3  36131484.246   188146119.050        1194.540          45.000  
C 4  38513381.120   200549279.148        1176.862          40.000  
C10  36167817.571   188335300.679         288.076          43.000  
C13  36706900.936   191142469.267         909.487          44.000  
C14  23130960.768   120448983.423        -198.306          46.000  
C23  25997370.650   135375127.294       -1376.257          37.000  
C28  22227623.530   115745069.896        1691.692          49.000  
G12  23805786.374   125100253.183        4208.079          39.000  
G 5  23876591.017   125472278.967        4865.392          37.000  
G23  23553223.370   123773043.478        3108.734          40.000  
C 7  36978480.891   192556646.915        -110.973          42.000  
C 8  36690289.428   191055960.340         770.671          44.000  
C16  40624584.092   211542863.386        2584.799          35.000  
C 5  39184274.443   204042799.449        1215.156          37.000  
C11  25859386.037   134656576.015        -525.063          37.000  
C 6  39832275.452   207417107.122        2560.504          34.000  
> 2020  6  5  7 58 59.9990000  0 27                     
G 2  22610191.913   118817370.053        2204.349          44.000  
G 3  25026297.496   131514092.092       -2342.654          32.000  
G 6  20971736.978   110207226.701        1067.928          47.000  
G17  20888825.968   109771513.120        1032.624          46.000  
G19  20398289.301   107193729.029        1753.015          47.000  
C 2  37167645.928   193541686.193        1226.553          40.000  
G28  21866813.248   114910853.912       -1704.239          42.000  
G 4  24243785.758   127401956.445        1662.757          41.000  
G 9  23425780.172   123103351.810        2973.376          38.000  
C 1  37594557.792   195764727.541        1179.325          43.000  
C27  24376345.778   126934036.913        3115.499          41.000  
C 3  36131254.811   188144924.661        1194.170          45.000  
C 4  38513155.227   200548102.302        1176.959          40.000  
C10  36167762.376   188335012.576         287.910          43.000  
C13  36706726.102   191141560.029         909.279          44.000  
C14  23130998.687   120449182.077        -198.989          45.000  
C23  25997634.934   135376503.537       -1376.150          37.000  
C28  22227298.502   115743378.301        1691.543          49.000  
G12  23804985.880   125096045.798        4207.074          39.000  
G 5  23875665.562   125467413.739        4864.871          37.000  
G23  23552631.738   123769934.503        3108.838          40.000  
C 7  36978502.389   192556758.195        -111.635          42.000  
C 8  36690141.520   191055189.553         770.821          44.000  
C16  40624087.825   211540278.737        2584.470          35.000  
C 5  39184040.871   204041583.970        1215.750          37.000  
C11  25859486.952   134657101.395        -525.838          37.000  
C 6  39831783.810   207414546.477        2560.956          34.000  
> 2020  6  5  7 59  0.9990000  0 27                     
G 2  22609772.410   118815165.607        2204.071          44.000  
G 3  25026743.227   131516435.058       -2342.178          32.000  
G 6  20971533.858   110206158.664        1067.926          47.000  
G17  20888629.444   109770480.386        1032.539          46.000  
G19  20397955.810   107191976.098        1752.740          47.000  
C 2  37167410.437   193540459.598        1226.508          40.000  
G28  21867137.700   114912558.094       -1704.372          42.000  
G 4  24243469.560   127400293.681        1662.524          41.000  
G 9  23425214.366   123100378.551        2973.071          38.000  
C 1  37594331.270   195763547.946        1179.679          43.000  
C27  24375747.253   126930921.185        3115.616          41.000  
C 3  36131025.724   188143730.225        1194.445          44.000  
C 4  38512929.247   200546925.441        1177.008          40.000  
C10  36167707.094   188334724.597         287.762          43.000  
C13  36706551.356   191140650.712         909.271          44.000  
C14  23131037.130   120449381.182        -199.317          46.000  
C23  25997899.200   135377879.609       -1376.359          37.000  
C28  22226973.771   115741686.795        1691.355          49.000  
G12  23804185.282   125091838.693        4207.228          39.000  
G 5  23874740.072   125462548.651        4864.434          37.000  
G23  23552040.158   123766825.669        3108.673          40.000  
C 7  36978523.487   192556869.543        -111.455          42.000  
C 8  36689993.594   191054418.705         770.877          44.000  
C16  40623591.593   211537693.908        2584.835          35.000  
C 5  39183807.527   204040368.513        1215.406          37.000  
C11  25859587.814   134657626.842        -525.870          37.000  
C 6  39831292.080   207411985.753        2560.908          34.000  
> 2020  6  5  7 59  1.9990000  0 27                     
G 2  22609352.749   118812961.344        2204.166          44.000  
G 3  25027189.115   131518778.203       -2342.928          33.000  
G 6  20971330.720   110205090.899        1067.543          47.000  
G17  20888432.954   109769448.032        1031.884          46.000  
G19  20397622.267   107190223.562        1752.222          47.000  
C 2  37167174.894   193539233.066        1226.718          40.000  
G28  21867461.855   114914262.676       -1704.991          42.000  
G 4  24243153.152   127398631.465        1661.716          41.000  
G 9  23424648.525   123097405.666        2972.833          38.000  
C 1  37594104.662   195762368.434        1179.588          43.000  
C27  24375148.990   126927805.478        3115.773          41.000  
C 3  36130796.184   188142535.889        1194.163          45.000  
C 4  38512703.249   200545748.666        1176.404          40.000  
C10  36167651.882   188334436.837         287.446          43.000  
C13  36706377.028   191139741.493         909.115          44.000  
C14  23131075.450   120449580.866        -200.198          46.000  
C23  25998163.431   135379255.600       -1376.295          37.000  
C28  22226649.075   115739995.455        1691.122          49.000  
G12  23803384.596   125087632.071        4206.458          39.000  
G 5  23873814.286   125457683.755        4864.435          37.000  
G23  23551448.596   123763717.064        3108.289          41.000  
C 7  36978544.846   192556981.076        -111.821          42.000  
C 8  36689845.547   191053647.862         770.638          44.000  
C16  40623095.065   211535109.072        2584.519          35.000  
C 5  39183574.026   204039153.102        1215.439          37.000  
C11  25859688.851   134658152.468        -526.000          37.000  
C 6  39830800.263   207409424.983        2560.749          34.000  
> 2020  6  5  7 59  2.9990000  0 27                     
G 2  22608933.333   118810757.233        2204.180          44.000  
G 3  25027634.950   131521121.466       -2342.553          32.000  
G 6  20971127.582   110204023.323        1067.614          47.000  
G17  20888236.535   109768415.987        1032.131          46.000  
G19  20397288.846   107188471.344        1752.350          47.000  
C 2  37166939.368   193538006.555        1226.533          40.000  
G28  21867786.429   114915967.582       -1704.803          42.000  
G 4  24242836.989   127396969.719        1661.533          41.000  
G 9  23424082.737   123094433.095        2972.369          38.000  
C 1  37593878.036   195761188.931        1179.646          43.000  
C27  24374550.901   126924689.761        3115.741          41.000  
C 3  36130566.888   188141341.547        1194.406          45.000  
C 4  38512477.234   200544571.867        1177.118          40.000  
C10  36167596.460   188334149.220         287.743          43.000  
C13  36706202.351   191138832.247         909.456          44.000  
C14  23131113.771   120449781.021        -200.261          46.000  
C23  25998427.627   135380631.436       -1375.637          37.000  
C28  22226324.431   115738304.216        1691.375          49.000  
G12  23802584.015   125083425.748        4206.250          39.000  
G 5  23872888.744   125452819.045        4864.632          37.000  
G23  23550857.278   123760608.623        3108.124          41.000  
C 7  36978566.344   192557092.697        -111.370          42.000  
C 8  36689697.464   191052876.949         771.185          44.000  
C16  40622598.501   211532524.093        2585.462          35.000  
C 5  39183340.716   204037937.715        1215.559          37.000  
C11  25859789.853   134658678.222        -525.606          37.000  
C 6  39830308.516   207406864.101        2561.417          34.000  
> 2020  6  5  7 59  3.9990000  0 27                     
G 2  22608513.848   118808553.298        2203.804          44.000  
G 3  25028080.838   131523464.894       -2343.329          33.000  
G 6  20970924.566   110202955.979        1067.170          47.000  
G17  20888040.045   109767384.316        1031.427          46.000  
G19  20396955.442   107186719.513        1751.422          47.000  
C 2  37166703.703   193536780.085        1226.311          40.000  
G28  21868111.055   114917672.882       -1705.595          42.000  
G 4  24242520.826   127395308.499        1660.662          41.000  
G 9  23423516.861   123091460.835        2972.003          38.000  
C 1  37593651.427   195760009.482        1179.318          43.000  
C27  24373952.533   126921574.036        3115.790          41.000  
C 3  36130337.662   188140147.263        1194.116          45.000  
C 4  38512251.393   200543395.137        1176.556          40.000  
C10  36167541.265   188333861.843         287.189          43.000  
C13  36706028.076   191137923.031         908.903          44.000  
C14  23131152.249   120449981.728        -201.039          46.000  
C23  25998691.667   135382007.189       -1376.052          37.000  
C28  22225999.526   115736613.145        1690.948          49.000  
G12  23801783.748   125079219.874        4205.565          39.000  
G 5  23871963.289   125447954.534        4864.356          37.000  
G23  23550265.802   123757500.343        3108.398          41.000  
C 7  36978587.738   192557204.509        -112.182          42.000  
C 8  36689549.259   191052106.053         770.824          44.000  
C16  40622101.938   211529939.095        2584.518          35.000  
C 5  39183107.267   204036722.354        1215.442          37.000  
C11  25859890.733   134659204.167        -526.280          37.000  
C 6  39829816.734   207404303.205        2561.077          34.000  
> 2020  6  5  7 59  4.9990000  0 27                     
G 2  22608094.309   118806349.765        2203.340          44.000  
G 3  25028526.761   131525808.687       -2343.935          32.000  
G 6  20970721.376   110201889.107        1066.744          47.000  
G17  20887843.765   109766353.227        1030.741          46.000  
G19  20396622.300   107184968.273        1750.909          47.000  
C 2  37166468.230   193535553.873        1226.099          40.000  
G28  21868435.682   114919378.783       -1706.338          42.000  
G 4  24242204.768   127393648.000        1660.414          41.000  
G 9  23422951.370   123088489.159        2971.173          38.000  
C 1  37593425.011   195758830.306        1179.121          43.000  
C27  24373354.305   126918458.555        3115.288          41.000  
C 3  36130108.401   188138953.254        1193.743          45.000  
C 4  38512025.256   200542218.680        1176.172          40.000  
C10  36167486.227   188333574.890         286.721          43.000  
C13  36705853.574   191137014.081         908.743          44.000  
C14  23131191.076   120450183.204        -201.834          46.000  
C23  25998955.793   135383383.067       -1375.828          37.000  
C28  22225674.951   115734922.462        1690.429          49.000  
G12  23800983.656   125075014.605        4205.351          39.000  
G 5  23871037.293   125443090.441        4864.177          37.000  
G23  23549674.258   123754392.541        3107.678          40.000  
C 7  36978609.237   192557316.692        -112.542          42.000  
C 8  36689401.369   191051335.378         770.597          44.000  
C16  40621605.671   211527354.219        2584.847          35.000  
C 5  39182873.993   204035507.308        1214.734          37.000  
C11  25859992.066   134659730.487        -526.646          37.000  
C 6  39829324.882   207401742.472        2560.762          34.000  
> 2020  6  5  7 59  5.9990000  0 27                     
G 2  22607675.050   118804146.420        2203.670          44.000  
G 3  25028972.649   131528152.597       -2344.071          33.000  
G 6  20970518.587   110200822.459        1066.682          47.000  
G17  20887647.764   109765322.480        1030.887          46.000  
G19  20396288.913   107183217.383        1751.001          47.000  
C 2  37166232.774   193534327.734        1226.071          40.000  
G28  21868760.186   114921085.049       -1706.276          42.000  
G 4  24241888.727   127391988.036        1659.810          41.000  
G 9  23422385.773   123085517.816        2971.149          38.000  
C 1  37593198.804   195757651.170        1179.119          43.000  
C27  24372755.972   126915343.079        3115.718          41.000  
C 3  36129879.123   188137759.281        1194.221          45.000  
C 4  38511799.310   200541042.259        1176.477          40.000  
C10  36167431.189   188333288.094         287.156          43.000  
C13  36705679.072   191136105.154         909.008          44.000  
C14  23131229.763   120450385.189        -201.846          46.000  
C23  25999219.797   135384758.858       -1375.811          37.000  
C28  22225350.343   115733231.906        1690.674          49.000  
G12  23800183.511   125070809.744        4205.090          39.000  
G 5  23870111.594   125438226.542        4864.443          37.000  
G23  23549082.852   123751284.908        3107.935          40.000  
C 7  36978630.683   192557429.005        -112.137          42.000  
C 8  36689253.217   191050564.697         770.756          44.000  
C16  40621108.846   211524769.273        2585.014          35.000  
C 5  39182640.788   204034292.274        1215.212          37.000  
C11  25860093.242   134660256.972        -526.753          37.000  
C 6  39828833.327   207399181.701        2560.866          34.000  
> 2020  6  5  7 59  6.9990000  0 27                     
G 2  22607255.722   118801943.276        2203.180          44.000  
G 3  25029418.921   131530496.665       -2343.729          33.000  
G 6  20970315.658   110199756.081        1066.073          47.000  
G17  20887451.781   109764292.132        1030.136          46.000  
G19  20395955.823   107181466.898        1750.183          47.000  
C 2  37165997.301   193533101.634        1226.019          40.000  
G28  21869084.865   114922791.724       -1706.960          42.000  
G 4  24241572.599   127390328.609        1659.050          41.000  
G 9  23421820.456   123082546.839        2970.447          38.000  
C 1  37592972.474   195756472.100        1178.803          43.000  
C27  24372157.674   126912227.635        3115.233          41.000  
C 3  36129649.914   188136565.390        1193.644          45.000  
C 4  38511573.452   200539865.919        1176.208          40.000  
C10  36167376.133   188333001.572         286.371          43.000  
C13  36705504.674   191135196.308         908.692          44.000  
C14  23131268.712   120450587.761        -202.975          46.000  
C23  25999483.854   135386134.557       -1376.187          37.000  
C28  22225025.681   115731541.525        1690.289          49.000  
G12  23799383.279   125066605.306        4204.372          39.000  
G 5  23869185.877   125433362.919        4863.255          37.000  
G23  23548491.604   123748177.521        3107.129          40.000  
C 7  36978652.409   192557541.517        -112.591          42.000  
C 8  36689105.204   191049794.031         770.448          44.000  
C16  40620612.405   211522184.301        2584.697          35.000  
C 5  39182407.147   204033077.311        1214.750          37.000  
C11  25860194.401   134660783.651        -527.201          37.000  
C 6  39828341.632   207396620.886        2560.512          34.000  
> 2020  6  5  7 59  7.9990000  0 27                     
G 2  22606836.480   118799740.324        2202.787          44.000  
G 3  25029865.140   131532840.923       -2344.763          33.000  
G 6  20970112.555   110198689.940        1065.935          47.000  
G17  20887255.745   109763262.143        1029.807          46.000  
G19  20395622.751   107179716.790        1749.841          47.000  
C 2  37165761.845   193531875.601        1226.113          40.000  
G28  21869409.753   114924498.792       -1707.279          42.000  
G 4  24241256.820   127388669.702        1658.682          41.000  
G 9  23421255.208   123079576.215        2970.331          38.000  
C 1  37592746.075   195755293.086        1179.058          43.000  
C27  24371559.323   126909112.213        3115.394          41.000  
C 3  36129420.758   188135371.561        1193.647          45.000  
C 4  38511347.734   200538689.648        1176.044          40.000  
C10  36167321.235   188332715.239         286.239          43.000  
C13  36705330.102   191134287.497         908.857          44.000  
C14  23131307.765   120450790.877        -203.599          46.000  
C23  25999747.911   135387510.159       -1375.430          37.000  
C28  22224701.055   115729851.314        1690.202          49.000  
G12  23798583.239   125062401.310        4203.953          39.000  
G 5  23868260.213   125428499.432        4863.274          37.000  
G23  23547900.565   123745070.372        3106.665          40.000  
C 7  36978674.117   192557654.185        -112.834          42.000  
C 8  36688957.226   191049023.360         770.597          44.000  
C16  40620116.016   211519599.252        2585.007          35.000  
C 5  39182173.750   204031862.400        1215.115          37.000  
C11  25860295.717   134661310.486        -526.887          37.000  
C 6  39827849.763   207394060.007        2560.846          34.000  
> 2020  6  5  7 59  8.9990000  0 27                     
G 2  22606417.466   118797537.513        2202.644          44.000  
G 3  25030311.081   131535185.267       -2344.325          33.000  
G 6  20969909.731   110197623.992        1065.762          47.000  
G17  20887059.709   109762232.468        1029.423          46.000  
G19  20395289.696   107177966.995        1749.536          47.000  
C 2  37165526.407   193530649.593        1225.858          40.000  
G28  21869734.397   114926206.188       -1707.707          42.000  
G 4  24240941.215   127387011.268        1658.273          41.000  
G 9  23420689.944   123076605.902        2969.916          38.000  
C 1  37592519.763   195754114.076        1179.109          43.000  
C27  24370960.903   126905996.751        3115.368          41.000  
C 3  36129191.235   188134177.728        1193.701          45.000  
C 4  38511121.788   200537513.360        1176.178          40.000  
C10  36167266.459   188332429.074         286.072          43.000  
C13  36705155.635   191133378.710         908.639          44.000  
C14  23131346.766   120450994.467        -203.909          46.000  
C23  26000012.020   135388885.654       -1375.959          37.000  
C28  22224376.393   115728161.219        1690.040          49.000  
G12  23797783.024   125058197.678        4203.097          39.000  
G 5  23867334.758   125423636.139        4863.198          37.000  
G23  23547309.177   123741963.319        3106.842          40.000  
C 7  36978695.755   192557766.983        -113.021          42.000  
C 8  36688809.021   191048252.645         770.680          44.000  
C16  40619619.627   211517014.117        2584.536          35.000  
C 5  39181940.424   204030647.522        1214.840          37.000  
C11  25860396.824   134661837.463        -527.372          38.000  
C 6  39827357.807   207391499.040        2561.110          34.000  
> 2020  6  5  7 59  9.9990000  0 27                     
G 2  22605998.364   118795334.773        2202.176          44.000  
G 3  25030757.318   131537529.664       -2345.116          33.000  
G 6  20969707.047   110196558.164        1065.594          47.000  
G17  20886863.726   109761203.040        1029.068          46.000  
G19  20394956.798   107176217.462        1749.188          47.000  
C 2  37165290.759   193529423.499        1225.879          40.000  
G28  21870059.477   114927913.841       -1707.911          42.000  
G 4  24240625.785   127385353.251        1657.568          41.000  
G 9  23420124.557   123073635.797        2969.910          38.000  
C 1  37592293.364   195752935.017        1178.730          43.000  
C27  24370362.500   126902881.174        3115.727          41.000  
C 3  36128961.974   188132983.841        1193.643          45.000  
C 4  38510896.035   200536337.034        1176.007          40.000  
C10  36167211.246   188332142.981         285.615          43.000  
C13  36704981.098   191132469.807         908.534          44.000  
C14  23131386.047   120451198.492        -204.469          46.000  
C23  26000276.164   135390260.923       -1375.824          37.000  
C28  22224051.837   115726471.164        1689.717          49.000  
G12  23796982.635   125053994.294        4202.964          39.000  
G 5  23866409.303   125418772.952        4862.612          37.000  
G23  23546718.086   123738856.402        3106.653          40.000  
C 7  36978717.411   192557879.798        -113.107          42.000  
C 8  36688660.974   191047481.818         770.442          44.000  
C16  40619123.482   211514428.756        2585.197          35.000  
C 5  39181707.114   204029432.537        1214.645          37.000  
C11  25860497.965   134662364.462        -527.260          38.000  
C 6  39826866.007   207388937.943        2561.120          34.000  
> 2020  6  5  7 59 10.9990000  0 27                     
G 2  22605579.192   118793132.110        2203.165          44.000  
G 3  25031203.450   131539874.060       -2343.228          33.000  
G 6  20969503.926   110195492.498        1066.259          47.000  
G17  20886667.830   109760173.886        1029.584          46.000  
G19  20394624.040   107174468.227        1749.622          47.000  
C 2  37165055.390   193528197.400        1226.608          40.000  
G28  21870384.540   114929621.808       -1707.550          42.000  
G 4  24240310.250   127383695.678        1657.739          41.000  
G 9  23419559.431   123070666.005        2969.702          38.000  
C 1  37592066.808   195751755.898        1179.689          43.000  
C27  24369764.254   126899765.555        3116.378          41.000  
C 3  36128732.853   188131789.933        1194.470          45.000  
C 4  38510670.089   200535160.667        1177.039          40.000  
C10  36167156.313   188331857.028         286.326          43.000  
C13  36704806.229   191131560.874         909.413          44.000  
C14  23131425.362   120451402.977        -204.237          45.000  
C23  26000540.517   135391635.992       -1374.496          37.000  
C28  22223727.455   115724781.177        1690.358          49.000  
G12  23796182.874   125049791.271        4203.606          39.000  
G 5  23865483.761   125413909.852        4863.472          37.000  
G23  23546126.855   123735749.604        3106.903          40.000  
C 7  36978739.049   192557992.700        -112.226          42.000  
C 8  36688512.978   191046710.880         771.547          44.000  
C16  40618627.058   211511843.283        2586.093          35.000  
C 5  39181473.822   204028217.587        1215.542          37.000  
C11  25860599.159   134662891.585        -526.449          38.000  
C 6  39826374.120   207386376.718        2561.714          34.000  
> 2020  6  5  7 59 11.9990000  0 27                     
G 2  22605159.968   118790929.485        2202.344          44.000  
G 3  25031649.408   131542218.528       -2344.907          32.000  
G 6  20969301.294   110194426.916        1065.209          47.000  
G17  20886472.091   109759144.931        1028.502          46.000  
G19  20394291.300   107172719.188        1748.657          47.000  
C 2  37164820.004   193526971.171        1225.950          40.000  
G28  21870709.585   114931329.981       -1708.598          42.000  
G 4  24239994.872   127382038.447        1656.855          40.000  
G 9  23418994.341   123067696.338        2969.513          38.000  
C 1  37591840.287   195750576.680        1178.961          43.000  
C27  24369165.956   126896649.774        3115.750          41.000  
C 3  36128503.505   188130595.909        1193.813          45.000  
C 4  38510444.022   200533984.169        1176.147          40.000  
C10  36167101.345   188331571.093         285.760          43.000  
C13  36704631.675   191130651.797         908.947          44.000  
C14  23131464.782   120451607.842        -205.306          45.000  
C23  26000804.417   135393010.813       -1374.966          37.000  
C28  22223402.985   115723091.181        1689.803          49.000  
G12  23795382.816   125045588.497        4202.131          39.000  
G 5  23864558.184   125409046.796        4862.506          37.000  
G23  23545535.729   123732642.823        3106.512          41.000  
C 7  36978760.792   192558105.581        -113.180          42.000  
C 8  36688364.826   191045939.796         770.815          44.000  
C16  40618130.670   211509257.562        2585.601          35.000  
C 5  39181240.548   204027002.494        1214.551          37.000  
C11  25860700.370   134663418.699        -527.434          38.000  
C 6  39825882.007   207383815.271        2561.295          34.000  
> 2020  6  5  7 59 12.9990000  0 27                     
G 2  22604740.639   118788727.135        2201.651          44.000  
G 3  25032095.488   131544563.191       -2345.414          33.000  
G 6  20969098.558   110193361.645        1064.803          47.000  
G17  20886276.247   109758116.412        1027.968          46.000  
G19  20393958.524   107170970.610        1747.760          47.000  
C 2  37164584.531   193525745.085        1225.481          40.000  
G28  21871034.892   114933038.614       -1709.479          42.000  
G 4  24239679.512   127380381.838        1655.767          40.000  
G 9  23418429.407   123064727.146        2968.377          38.000  
C 1  37591613.870   195749397.608        1178.440          43.000  
C27  24368567.588   126893534.111        3115.264          41.000  
C 3  36128274.314   188129402.021        1193.457          45.000  
C 4  38510217.937   200532807.830        1175.885          40.000  
C10  36167046.481   188331285.474         285.081          43.000  
C13  36704456.980   191129742.838         908.534          44.000  
C14  23131504.167   120451813.327        -206.137          45.000  
C23  26001068.683   135394385.642       -1375.555          37.000  
C28  22223078.289   115721401.438        1689.061          49.000  
G12  23794583.125   125041386.196        4201.657          38.000  
G 5  23863632.590   125404184.026        4862.288          37.000  
G23  23544944.638   123729536.343        3105.859          40.000  
C 7  36978782.448   192558218.729        -113.816          42.000  
C 8  36688216.743   191045168.776         770.443          44.000  
C16  40617634.298   211506671.891        2585.286          35.000  
C 5  39181007.221   204025787.534        1214.268          37.000  
C11  25860801.564   134663946.060        -528.077          38.000  
C 6  39825390.190   207381253.862        2561.142          34.000  
> 2020  6  5  7 59 13.9990000  0 27                     
G 2  22604321.712   118786525.122        2202.150          44.000  
G 3  25032541.637   131546908.171       -2344.524          32.000  
G 6  20968896.048   110192296.791        1064.733          47.000  
G17  20886080.613   109757088.444        1027.773          46.000  
G19  20393625.923   107169222.578        1747.766          47.000  
C 2  37164349.058   193524519.249        1225.893          40.000  
G28  21871360.391   114934747.810       -1709.485          42.000  
G 4  24239364.361   127378725.924        1655.431          40.000  
G 9  23417864.579   123061758.442        2968.634          38.000  
C 1  37591387.419   195748218.748        1178.731          43.000  
C27  24367969.395   126890418.635        3115.236          41.000  
C 3  36128045.070   188128208.374        1193.367          45.000  
C 4  38509992.096   200531631.741        1175.751          40.000  
C10  36166991.653   188331000.232         285.089          43.000  
C13  36704282.426   191128834.139         908.568          44.000  
C14  23131543.867   120452019.535        -206.545          45.000  
C23  26001332.548   135395760.529       -1374.532          37.000  
C28  22222753.837   115719712.022        1689.197          49.000  
G12  23793783.451   125037184.516        4200.788          39.000  
G 5  23862707.240   125399321.645        4862.106          37.000  
G23  23544353.320   123726430.263        3105.786          40.000  
C 7  36978804.156   192558332.205        -113.739          42.000  
C 8  36688068.888   191044397.936         770.834          44.000  
C16  40617137.717   211504086.321        2585.561          35.000  
C 5  39180774.016   204024572.795        1214.453          37.000  
C11  25860902.967   134664473.789        -528.038          38.000  
C 6  39824898.408   207378692.584        2560.949          34.000  
> 2020  6  5  7 59 14.9990000  0 27                     
G 2  22603902.697   118784323.510        2201.286          44.000  
G 3  25032988.049   131549253.516       -2345.992          32.000  
G 6  20968693.468   110191232.363        1064.019          47.000  
G17  20885885.205   109756061.009        1027.042          46.000  
G19  20393293.426   107167475.096        1747.028          47.000  
C 2  37164113.480   193523293.634        1225.284          40.000  
G28  21871685.680   114936457.555       -1710.085          42.000  
G 4  24239049.559   127377070.698        1654.475          41.000  
G 9  23417299.750   123058790.278        2967.590          38.000  
C 1  37591161.281   195747040.113        1178.540          43.000  
C27  24367371.166   126887303.333        3115.050          41.000  
C 3  36127815.914   188127014.945        1193.129          44.000  
C 4  38509766.360   200530455.841        1175.629          40.000  
C10  36166936.946   188330715.356         284.321          43.000  
C13  36704107.994   191127925.639         908.105          44.000  
C14  23131583.426   120452226.456        -207.387          45.000  
C23  26001596.657   135397135.521       -1374.972          37.000  
C28  22222429.543   115718022.932        1688.685          49.000  
G12  23792983.900   125032983.365        4201.011          39.000  
G 5  23861781.907   125394459.639        4861.724          37.000  
G23  23543762.246   123723324.559        3105.377          41.000  
C 7  36978825.899   192558446.006        -114.154          42.000  
C 8  36687920.857   191043627.277         770.255          44.000  
C16  40616641.032   211501500.868        2585.555          35.000  
C 5  39180540.637   204023358.286        1213.931          37.000  
C11  25861004.353   134665001.849        -528.310          38.000  
C 6  39824406.626   207376131.435        2561.232          34.000  
> 2020  6  5  7 59 15.9990000  0 27                     
G 2  22603483.613   118782122.232        2201.479          44.000  
G 3  25033434.321   131551599.155       -2345.693          32.000  
G 6  20968491.098   110190168.341        1064.069          47.000  
G17  20885689.710   109755034.109        1026.832          46.000  
G19  20392961.122   107165728.162        1746.814          47.000  
C 2  37163878.321   193522068.230        1225.661          40.000  
G28  21872010.987   114938167.874       -1710.476          42.000  
G 4  24238735.002   127375416.168        1654.340          40.000  
G 9  23416735.183   123055822.626        2967.737          38.000  
C 1  37590934.812   195745861.721        1178.631          43.000  
C27  24366772.990   126884188.216        3115.088          41.000  
C 3  36127586.810   188125821.740        1193.458          44.000  
C 4  38509540.641   200529280.183        1175.507          40.000  
C10  36166882.222   188330430.855         284.509          43.000  
C13  36703933.683   191127017.333         908.438          44.000  
C14  23131623.352   120452434.097        -207.826          45.000  
C23  26001860.958   135398510.586       -1375.153          37.000  
C28  22222105.300   115716334.175        1688.843          49.000  
G12  23792184.732   125028782.841        4200.496          39.000  
G 5  23860856.923   125389598.029        4861.491          37.000  
G23  23543171.329   123720219.239        3105.475          40.000  
C 7  36978847.886   192558560.113        -113.854          42.000  
C 8  36687772.897   191042856.793         770.409          44.000  
C16  40616144.643   211498915.516        2585.535          35.000  
C 5  39180307.572   204022143.995        1214.158          37.000  
C11  25861105.756   134665530.259        -528.501          38.000  
C 6  39823914.687   207373570.417        2561.042          34.000  
> 2020  6  5  7 59 16.9990000  0 27                     
G 2  22603064.982   118779921.282        2201.163          44.000  
G 3  25033880.488   131553945.067       -2345.641          32.000  
G 6  20968288.571   110189104.692        1063.697          47.000  
G17  20885494.373   109754007.705        1026.267          46.000  
G19  20392628.852   107163981.731        1746.313          47.000  
C 2  37163643.075   193520843.027        1225.330          40.000  
G28  21872336.469   114939878.695       -1710.977          42.000  
G 4  24238420.130   127373762.297        1653.572          41.000  
G 9  23416170.669   123052855.464        2967.212          38.000  
C 1  37590708.448   195744683.491        1178.289          43.000  
C27  24366174.901   126881073.239        3114.846          41.000  
C 3  36127357.619   188124628.731        1193.134          44.000  
C 4  38509314.923   200528104.687        1175.543          40.000  
C10  36166827.690   188330146.700         284.080          43.000  
C13  36703759.268   191126109.204         908.314          44.000  
C14  23131663.296   120452642.396        -208.440          45.000  
C23  26002125.049   135399885.654       -1374.643          37.000  
C28  22221780.953   115714645.696        1688.634          49.000  
G12  23791385.634   125024582.812        4200.204          39.000  
G 5  23859931.835   125384736.727        4861.475          37.000  
G23  23542580.395   123717114.257        3104.755          41.000  
C 7  36978870.065   192558674.547        -114.502          42.000  
C 8  36687624.849   191042086.438         770.383          44.000  
C16  40615648.254   211496330.208        2585.507          35.000  
C 5  39180074.245   204020929.872        1214.532          37.000  
C11  25861207.474   134666058.960        -528.746          38.000  
C 6  39823422.870   207371009.492        2560.698          34.000  
> 2020  6  5  7 59 17.9990000  0 27                     
G 2  22602646.351   118777720.452        2200.370          45.000  
G 3  25034327.074   131556291.095       -2346.502          32.000  
G 6  20968086.271   110188041.212        1063.121          47.000  
G17  20885299.192   109752981.579        1025.741          46.000  
G19  20392296.635   107162235.599        1745.721          47.000  
C 2  37163408.055   193519617.801        1224.901          40.000  
G28  21872661.933   114941589.830       -1711.554          42.000  
G 4  24238105.415   127372108.876        1652.932          41.000  
G 9  23415606.259   123049888.579        2966.663          38.000  
C 1  37590482.223   195743505.246        1178.036          43.000  
C27  24365576.917   126877958.215        3114.847          41.000  
C 3  36127128.305   188123435.710        1192.719          45.000  
C 4  38509089.257   200526929.198        1175.146          40.000  
C10  36166773.211   188329862.655         283.749          43.000  
C13  36703584.609   191125201.040         907.850          44.000  
C14  23131703.362   120452851.177        -209.287          45.000  
C23  26002388.931   135401260.597       -1375.115          37.000  
C28  22221456.710   115712957.314        1688.028          49.000  
G12  23790586.519   125020383.201        4198.953          39.000  
G 5  23859006.851   125379875.573        4860.763          37.000  
G23  23541989.496   123714009.397        3104.749          41.000  
C 7  36978892.053   192558789.045        -114.685          42.000  
C 8  36687476.872   191041315.994         770.077          44.000  
C16  40615151.725   211493744.813        2585.357          35.000  
C 5  39179841.040   204019715.762        1214.183          37.000  
C11  25861308.964   134666587.756        -529.032          38.000  
C 6  39822930.808   207368448.419        2560.859          34.000  
> 2020  6  5  7 59 18.9990000  0 27                     
G 2  22602227.494   118775519.420        2201.071          43.000  
G 3  25034773.398   131558636.873       -2345.445          32.000  
G 6  20967884.040   110186977.605        1063.742          47.000  
G17  20885104.098   109751955.453        1026.322          46.000  
G19  20391964.453   107160489.467        1746.179          47.000  
C 2  37163172.634   193518392.248        1226.127          40.000  
G28  21872987.624   114943300.974       -1710.945          42.000  
G 4  24237790.718   127370455.614        1653.196          40.000  
G 9  23415041.779   123046921.658        2967.041          39.000  
C 1  37590255.789   195742326.696        1178.640          43.000  
C27  24364978.480   126874842.826        3115.743          41.000  
C 3  36126899.236   188122242.369        1193.601          45.000  
C 4  38508863.294   200525753.397        1175.842          40.000  
C10  36166718.679   188329578.499         284.387          43.000  
C13  36703410.090   191124292.557         908.816          44.000  
C14  23131743.480   120453060.123        -208.873          45.000  
C23  26002653.058   135402635.065       -1374.111          37.000  
C28  22221132.433   115711268.721        1688.868          49.000  
G12  23789787.282   125016183.583        4199.858          39.000  
G 5  23858081.728   125375014.263        4861.852          37.000  
G23  23541398.823   123710904.415        3105.322          41.000  
C 7  36978914.180   192558903.323        -113.971          42.000  
C 8  36687328.929   191040545.177         771.231          44.000  
C16  40614655.145   211491159.003        2585.770          35.000  
C 5  39179607.766   204018501.362        1214.849          37.000  
C11  25861410.332   134667116.359        -527.901          38.000  
C 6  39822438.782   207365886.967        2561.698          34.000  
> 2020  6  5  7 59 19.9990000  0 27                     
G 2  22601808.968   118773318.385        2201.319          44.000  
G 3  25035219.600   131560982.634       -2346.115          32.000  
G 6  20967681.513   110185914.034        1063.713          47.000  
G17  20884909.040   109750929.503        1026.072          46.000  
G19  20391632.200   107158743.523        1746.106          47.000  
C 2  37162937.213   193517166.573        1226.025          40.000  
G28  21873313.628   114945012.307       -1711.240          42.000  
G 4  24237476.073   127368802.661        1653.251          40.000  
G 9  23414477.265   123043954.920        2966.394          39.000  
C 1  37590029.338   195741147.997        1178.912          43.000  
C27  24364380.304   126871727.287        3115.845          41.000  
C 3  36126670.063   188121048.887        1193.873          45.000  
C 4  38508637.418   200524577.456        1176.215          40.000  
C10  36166663.920   188329294.347         284.274          43.000  
C13  36703235.884   191123383.923         908.789          44.000  
C14  23131783.825   120453269.429        -209.269          45.000  
C23  26002916.800   135404009.228       -1373.493          38.000  
C28  22220808.138   115709580.095        1688.843          49.000  
G12  23788988.306   125011984.187        4198.974          39.000  
G 5  23857156.744   125370152.985        4861.582          37.000  
G23  23540807.784   123707799.438        3105.096          41.000  
C 7  36978935.992   192559017.595        -114.209          42.000  
C 8  36687181.003   191039774.194         771.094          44.000  
C16  40614158.581   211488572.881        2586.266          35.000  
C 5  39179374.526   204017286.788        1215.007          37.000  
C11  25861511.736   134667644.969        -528.102          38.000  
C 6  39821946.669   207363325.227        2562.231          34.000  
> 2020  6  5  7 59 20.9990000  0 27                     
G 2  22601390.006   118771117.477        2200.921          44.000  
G 3  25035665.854   131563328.397       -2345.458          32.000  
G 6  20967479.352   110184850.638        1063.412          47.000  
G17  20884713.824   109749903.842        1025.555          46.000  
G19  20391299.879   107156997.880        1745.569          47.000  
C 2  37162701.862   193515940.888        1225.478          40.000  
G28  21873639.441   114946723.951       -1711.586          42.000  
G 4  24237161.568   127367150.177        1652.599          40.000  
G 9  23413912.890   123040988.435        2966.370          39.000  
C 1  37589803.113   195739969.280        1178.864          43.000  
C27  24363781.866   126868611.687        3115.495          41.000  
C 3  36126441.029   188119855.399        1193.759          45.000  
C 4  38508411.577   200523401.493        1175.964          40.000  
C10  36166609.161   188329010.327         283.943          43.000  
C13  36703061.277   191122475.231         908.828          44.000  
C14  23131824.030   120453479.208        -210.034          45.000  
C23  26003180.630   135405383.248       -1373.702          38.000  
C28  22220483.948   115707891.563        1688.544          49.000  
G12  23788189.365   125007785.122        4198.604          39.000  
G 5  23856231.534   125365291.820        4861.172          37.000  
G23  23540217.269   123704694.592        3104.840          41.000  
C 7  36978957.596   192559131.958        -114.457          42.000  
C 8  36687033.025   191039003.127         771.146          44.000  
C16  40613661.896   211485986.633        2586.805          36.000  
C 5  39179141.182   204016072.213        1214.615          37.000  
C11  25861613.488   134668173.637        -528.290          38.000  
C 6  39821454.729   207360763.430        2562.046          34.000  
> 2020  6  5  7 59 21.9990000  0 27                     
G 2  22600971.078   118768916.962        2200.399          44.000  
G 3  25036112.580   131565674.634       -2346.305          32.000  
G 6  20967277.034   110183787.704        1062.721          47.000  
G17  20884518.801   109748878.761        1024.894          46.000  
G19  20390967.749   107155252.830        1744.757          47.000  
C 2  37162466.686   193514715.460        1225.164          40.000  
G28  21873965.499   114948436.208       -1712.693          42.000  
G 4  24236847.202   127365498.451        1651.218          40.000  
G 9  23413348.550   123038022.524        2965.710          39.000  
C 1  37589576.871   195738790.840        1178.314          43.000  
C27  24363183.620   126865496.298        3115.130          41.000  
C 3  36126211.907   188118662.189        1193.102          45.000  
C 4  38508185.719   200522225.785        1175.702          40.000  
C10  36166554.961   188328726.720         283.433          43.000  
C13  36702887.019   191121566.806         908.428          44.000  
C14  23131864.270   120453689.739        -210.865          45.000  
C23  26003444.513   135406757.408       -1374.392          38.000  
C28  22220159.862   115706203.397        1687.955          49.000  
G12  23787390.512   125003586.719        4197.900          39.000  
G 5  23855306.689   125360431.093        4860.490          37.000  
G23  23539626.317   123701590.177        3104.163          41.000  
C 7  36978979.827   192559246.671        -114.803          42.000  
C 8  36686884.855   191038232.268         770.646          44.000  
C16  40613165.350   211483400.571        2585.643          36.000  
C 5  39178907.995   204014857.897        1214.114          37.000  
C11  25861715.292   134668702.717        -529.164          38.000  
C 6  39820962.790   207358201.804        2561.455          34.000  
> 2020  6  5  7 59 22.9990000  0 27                     
G 2  22600552.151   118766716.746        2200.330          44.000  
G 3  25036558.817   131568021.101       -2346.519          32.000  
G 6  20967074.472   110182725.116        1062.584          47.000  
G17  20884323.742   109747854.154        1024.689          46.000  
G19  20390635.915   107153508.262        1744.696          47.000  
C 2  37162231.195   193513490.194        1225.244          40.000  
G28  21874291.417   114950148.925       -1712.632          42.000  
G 4  24236532.959   127363847.337        1651.066          40.000  
G 9  23412784.559   123035057.068        2965.790          39.000  
C 1  37589350.612   195737612.544        1178.826          43.000  
C27  24362585.374   126862381.038        3115.639          41.000  
C 3  36125982.611   188117469.123        1193.350          45.000  
C 4  38507959.861   200521050.266        1175.378          40.000  
C10  36166500.534   188328443.424         283.337          43.000  
C13  36702712.482   191120658.527         908.592          44.000  
C14  23131904.789   120453900.922        -211.194          45.000  
C23  26003708.656   135408131.540       -1373.782          38.000  
C28  22219835.515   115704515.491        1688.137          49.000  
G12  23786591.536   124999388.831        4197.883          39.000  
G 5  23854381.793   125355570.671        4860.389          37.000  
G23  23539035.680   123698486.095        3103.992          41.000  
C 7  36979001.815   192559361.663        -114.790          42.000  
C 8  36686736.895   191037461.522         770.880          44.000  
C16  40612668.943   211480814.543        2586.460          36.000  
C 5  39178674.877   204013643.763        1214.052          37.000  
C11  25861816.940   134669232.066        -529.001          38.000  
C 6  39820470.956   207355640.201        2562.026          34.000  
> 2020  6  5  7 59 23.9990000  0 27                     
G 2  22600133.241   118764516.560        2200.213          44.000  
G 3  25037005.420   131570367.528       -2346.668          32.000  
G 6  20966872.433   110181662.609        1062.609          47.000  
G17  20884128.893   109746829.773        1024.293          46.000  
G19  20390303.733   107151763.926        1744.312          47.000  
C 2  37161995.914   193512264.832        1225.350          40.000  
G28  21874617.561   114951861.877       -1712.985          42.000  
G 4  24236218.924   127362196.600        1650.676          40.000  
G 9  23412220.131   123032091.841        2965.143          39.000  
C 1  37589124.178   195736434.175        1178.861          43.000  
C27  24361986.849   126859265.669        3115.368          41.000  
C 3  36125753.385   188116275.980        1193.218          45.000  
C 4  38507734.143   200519874.633        1175.653          40.000  
C10  36166446.019   188328160.207         283.348          43.000  
C13  36702538.207   191119750.180         908.515          44.000  
C14  23131945.204   120454112.507        -211.897          45.000  
C23  26003972.451   135409505.458       -1373.671          38.000  
C28  22219511.343   115702827.624        1687.815          49.000  
G12  23785792.944   124995191.242        4197.251          39.000  
G 5  23853457.263   125350710.323        4860.785          37.000  
G23  23538445.252   123695382.075        3103.931          41.000  
C 7  36979023.976   192559476.680        -114.951          42.000  
C 8  36686588.882   191036690.610         771.142          44.000  
C16  40612172.432   211478228.326        2586.233          36.000  
C 5  39178441.847   204012429.517        1213.966          37.000  
C11  25861918.814   134669761.446        -529.179          38.000  
C 6  39819979.034   207353078.451        2561.822          34.000  
> 2020  6  5  7 59 24.9990000  0 27                     
G 2  22599714.505   118762316.458        2199.809          44.000  
G 3  25037451.937   131572714.002       -2346.121          32.000  
G 6  20966670.185   110180600.246        1062.164          47.000  
G17  20883934.009   109745805.626        1023.852          46.000  
G19  20389971.882   107150019.842        1743.744          47.000  
C 2  37161760.510   193511039.406        1225.417          40.000  
G28  21874943.479   114953575.085       -1713.333          42.000  
G 4  24235904.803   127360546.290        1649.868          40.000  
G 9  23411655.791   123029126.828        2964.447          38.000  
C 1  37588897.936   195735255.742        1178.378          43.000  
C27  24361388.603   126856150.168        3115.696          41.000  
C 3  36125524.281   188115082.793        1192.972          45.000  
C 4  38507508.564   200518698.944        1175.525          40.000  
C10  36166391.854   188327877.058         282.941          43.000  
C13  36702363.583   191118841.753         908.236          44.000  
C14  23131986.073   120454324.519        -212.423          45.000  
C23  26004236.665   135410879.171       -1373.988          38.000  
C28  22219187.205   115701139.774        1687.739          49.000  
G12  23784994.388   124990993.880        4197.397          39.000  
G 5  23852532.384   125345850.078        4860.192          37.000  
G23  23537854.702   123692278.116        3103.748          41.000  
C 7  36979046.190   192559591.748        -115.374          42.000  
C 8  36686440.765   191035919.594         770.902          44.000  
C16  40611675.747   211475641.897        2586.286          36.000  
C 5  39178208.660   204011215.200        1214.293          37.000  
C11  25862020.357   134670290.890        -529.562          38.000  
C 6  39819487.287   207350516.509        2561.956          34.000  
> 2020  6  5  7 59 25.9990000  0 27                     
G 2  22599295.753   118760116.523        2199.869          44.000  
G 3  25037898.505   131575060.636       -2346.447          32.000  
G 6  20966468.217   110179538.106        1062.008          47.000  
G17  20883739.160   109744781.829        1023.777          46.000  
G19  20389639.996   107148276.123        1743.634          47.000  
C 2  37161525.089   193509814.036        1225.336          40.000  
G28  21875269.274   114955288.673       -1713.620          42.000  
G 4  24235590.909   127358896.468        1649.681          40.000  
G 9  23411091.573   123026162.143        2964.630          38.000  
C 1  37588671.781   195734077.350        1178.291          43.000  
C27  24360790.131   126853034.707        3115.541          41.000  
C 3  36125295.195   188113889.631        1193.190          45.000  
C 4  38507282.583   200517523.307        1175.757          40.000  
C10  36166337.601   188327594.117         283.092          43.000  
C13  36702189.168   191117933.315         908.468          44.000  
C14  23132026.836   120454537.053        -212.738          45.000  
C23  26004500.565   135412252.760       -1373.696          38.000  
C28  22218863.102   115699452.090        1687.637          49.000  
G12  23784195.586   124986796.968        4196.897          39.000  
G 5  23851607.575   125340990.037        4860.033          37.000  
G23  23537264.361   123689174.371        3103.754          41.000  
C 7  36979068.527   192559706.931        -115.141          42.000  
C 8  36686292.752   191035148.564         771.176          44.000  
C16  40611179.323   211473055.410        2586.408          36.000  
C 5  39177975.333   204010000.952        1214.333          37.000  
C11  25862121.795   134670820.472        -529.234          38.000  
C 6  39818995.383   207347954.520        2562.399          34.000  
> 2020  6  5  7 59 26.9990000  0 27                     
G 2  22598877.000   118757916.674        2199.851          44.000  
G 3  25038345.300   131577407.320       -2346.753          32.000  
G 6  20966265.986   110178476.122        1061.741          47.000  
G17  20883544.468   109743758.307        1023.462          46.000  
G19  20389308.111   107146532.697        1743.176          47.000  
C 2  37161289.843   193508588.620        1225.311          40.000  
G28  21875595.454   114957002.542       -1713.930          42.000  
G 4  24235277.049   127357247.092        1649.178          40.000  
G 9  23410527.233   123023197.733        2964.233          38.000  
C 1  37588445.277   195732898.900        1178.439          43.000  
C27  24360191.798   126849919.159        3115.514          41.000  
C 3  36125065.969   188112696.442        1193.044          45.000  
C 4  38507056.708   200516347.634        1175.769          40.000  
C10  36166283.296   188327311.276         282.776          43.000  
C13  36702014.631   191117024.832         908.529          44.000  
C14  23132067.897   120454750.047        -213.296          45.000  
C23  26004764.377   135413626.163       -1373.260          38.000  
C28  22218538.982   115697764.463        1687.566          49.000  
G12  23783396.872   124982600.395        4196.192          39.000  
G 5  23850682.696   125336130.091        4859.994          37.000  
G23  23536673.653   123686070.763        3103.326          41.000  
C 7  36979090.601   192559822.190        -115.163          41.000  
C 8  36686144.460   191034377.457         771.132          44.000  
C16  40610682.533   211470468.767        2586.942          36.000  
C 5  39177742.198   204008786.635        1214.382          37.000  
C11  25862223.547   134671350.146        -529.841          38.000  
C 6  39818503.496   207345392.399        2562.483          34.000  
> 2020  6  5  7 59 27.9990000  0 27                     
G 2  22598458.334   118755716.805        2200.219          44.000  
G 3  25038791.677   131579753.891       -2345.676          32.000  
G 6  20966064.104   110177414.149        1062.093          47.000  
G17  20883349.671   109742734.931        1023.615          47.000  
G19  20388976.295   107144789.420        1743.353          47.000  
C 2  37161054.370   193507363.047        1225.711          40.000  
G28  21875921.633   114958716.589       -1714.045          42.000  
G 4  24234963.207   127355598.017        1649.209          40.000  
G 9  23409963.207   123020233.444        2964.404          38.000  
C 1  37588219.035   195731720.303        1178.902          43.000  
C27  24359593.377   126846803.409        3115.989          41.000  
C 3  36124836.690   188111503.075        1193.827          45.000  
C 4  38506831.076   200515171.829        1175.671          40.000  
C10  36166228.834   188327028.425         282.920          43.000  
C13  36701840.181   191116116.208         908.908          44.000  
C14  23132108.992   120454963.364        -213.338          45.000  
C23  26005028.207   135414999.259       -1372.717          38.000  
C28  22218214.844   115696076.775        1688.005          49.000  
G12  23782598.001   124978403.968        4196.309          39.000  
G 5  23849757.799   125331270.164        4860.126          37.000  
G23  23536082.964   123682967.120        3103.961          41.000  
C 7  36979112.623   192559937.399        -114.964          41.000  
C 8  36685996.552   191033606.129         771.602          44.000  
C16  40610185.673   211467881.861        2587.170          36.000  
C 5  39177508.941   204007572.201        1214.747          37.000  
C11  25862325.212   134671879.773        -529.260          38.000  
C 6  39818011.173   207342830.057        2562.275          34.000  
> 2020  6  5  7 59 28.9990000  0 27                     
G 2  22598039.773   118753516.858        2199.937          44.000  
G 3  25039238.280   131582100.467       -2346.505          32.000  
G 6  20965861.752   110176352.166        1061.632          47.000  
G17  20883155.310   109741711.679        1022.918          46.000  
G19  20388644.741   107143046.264        1742.908          47.000  
C 2  37160818.687   193506137.283        1225.470          40.000  
G28  21876247.760   114960430.750       -1714.480          42.000  
G 4  24234649.330   127353949.211        1648.464          40.000  
G 9  23409399.147   123017269.233        2964.190          38.000  
C 1  37587992.636   195730541.499        1178.737          43.000  
C27  24358994.835   126843687.427        3115.570          41.000  
C 3  36124607.482   188110309.536        1193.296          45.000  
C 4  38506605.148   200513995.778        1175.714          40.000  
C10  36166174.529   188326745.550         282.789          43.000  
C13  36701665.626   191115207.358         908.823          44.000  
C14  23132149.948   120455176.976        -214.057          45.000  
C23  26005291.566   135416372.032       -1372.809          38.000  
C28  22217890.933   115694389.014        1687.484          49.000  
G12  23781799.480   124974207.690        4196.109          39.000  
G 5  23848832.990   125326410.152        4859.937          37.000  
G23  23535491.942   123679863.448        3103.369          41.000  
C 7  36979134.541   192560052.513        -115.162          41.000  
C 8  36685848.295   191032834.536         771.363          44.000  
C16  40609689.039   211465294.638        2587.045          36.000  
C 5  39177275.684   204006357.538        1214.712          37.000  
C11  25862426.895   134672409.340        -529.891          38.000  
C 6  39817519.112   207340267.352        2563.085          34.000  
> 2020  6  5  7 59 29.9990000  0 27                     
G 2  22597621.177   118751317.121        2199.802          44.000  
G 3  25039684.797   131584447.146       -2347.086          32.000  
G 6  20965659.661   110175290.437        1061.633          47.000  
G17  20882960.618   109740688.787        1022.532          47.000  
G19  20388313.134   107141303.492        1742.639          47.000  
C 2  37160583.353   193504911.557        1225.859          40.000  
G28  21876574.010   114962145.310       -1714.917          42.000  
G 4  24234335.348   127352300.950        1647.899          40.000  
G 9  23408835.278   123014305.429        2963.489          38.000  
C 1  37587766.324   195729362.754        1178.723          43.000  
C27  24358396.554   126840571.464        3115.677          41.000  
C 3  36124378.326   188109116.057        1193.270          45.000  
C 4  38506379.569   200512819.816        1175.769          40.000  
C10  36166120.259   188326462.886         282.524          43.000  
C13  36701491.072   191114298.550         908.697          44.000  
C14  23132191.078   120455391.130        -214.602          45.000  
C23  26005555.151   135417744.700       -1372.838          37.000  
C28  22217566.760   115692701.402        1687.616          49.000  
G12  23781001.149   124970011.870        4195.379          39.000  
G 5  23847908.094   125321550.370        4859.941          37.000  
G23  23534901.008   123676759.976        3103.454          41.000  
C 7  36979156.598   192560167.817        -115.411          41.000  
C 8  36685700.247   191032062.968         771.451          44.000  
C16  40609192.302   211462707.335        2587.619          36.000  
C 5  39177042.392   204005142.985        1214.192          37.000  
C11  25862528.473   134672939.087        -530.012          38.000  
C 6  39817026.876   207337704.626        2563.120          34.000  
> 2020  6  5  7 59 30.9990000  0 27                     
G 2  22597202.739   118749117.593        2199.567          44.000  
G 3  25040131.575   131586793.991       -2347.047          33.000  
G 6  20965457.727   110174228.978        1061.318          47.000  
G17  20882766.083   109739666.291        1022.230          47.000  
G19  20387981.650   107139561.128        1742.242          47.000  
C 2  37160348.055   193503685.936        1225.788          40.000  
G28  21876900.119   114963860.271       -1714.955          42.000  
G 4  24234021.733   127350653.223        1647.631          40.000  
G 9  23408271.269   123011341.981        2963.043          38.000  
C 1  37587539.942   195728184.104        1178.641          43.000  
C27  24357798.204   126837455.531        3115.839          41.000  
C 3  36124149.100   188107922.640        1193.594          45.000  
C 4  38506153.729   200511643.935        1175.879          40.000  
C10  36166065.919   188326180.475         282.267          43.000  
C13  36701316.412   191113389.823         908.651          44.000  
C14  23132232.173   120455605.859        -215.054          45.000  
C23  26005818.562   135419117.305       -1372.340          37.000  
C28  22217242.744   115691013.987        1687.394          49.000  
G12  23780202.907   124965816.488        4194.862          39.000  
G 5  23846983.320   125316690.846        4859.490          37.000  
G23  23534310.562   123673656.748        3103.314          41.000  
C 7  36979178.952   192560283.315        -115.699          41.000  
C 8  36685551.990   191031291.400         771.449          44.000  
C16  40608695.424   211460120.059        2587.400          36.000  
C 5  39176808.978   204003928.457        1214.111          37.000  
C11  25862630.033   134673469.016        -530.142          38.000  
C 6  39816534.344   207335141.911        2563.581          34.000  
> 2020  6  5  7 59 31.9990000  0 27                     
G 2  22596784.003   118746917.782        2199.979          43.000  
G 3  25040578.283   131589140.508       -2346.095          33.000  
G 6  20965255.531   110173167.299        1061.535          47.000  
G17  20882571.479   109738643.702        1022.103          46.000  
G19  20387650.078   107137818.682        1742.249          47.000  
C 2  37160112.669   193502459.928        1225.742          40.000  
G28  21877226.386   114965575.170       -1715.153          42.000  
G 4  24233708.309   127349005.583        1647.202          40.000  
G 9  23407707.592   123008378.422        2963.202          39.000  
C 1  37587313.595   195727005.060        1178.833          43.000  
C27  24357199.679   126834339.175        3116.278          41.000  
C 3  36123919.943   188106728.859        1193.608          45.000  
C 4  38505927.870   200510467.650        1176.239          40.000  
C10  36166011.788   188325897.798         282.644          43.000  
C13  36701142.050   191112480.689         908.996          44.000  
C14  23132273.390   120455820.675        -215.108          45.000  
C23  26006082.148   135420489.369       -1372.178          37.000  
C28  22216918.624   115689326.280        1687.490          49.000  
G12  23779404.385   124961621.066        4194.820          40.000  
G 5  23846058.458   125311831.073        4859.881          37.000  
G23  23533719.907   123670553.288        3103.235          41.000  
C 7  36979200.974   192560398.475        -115.111          42.000  
C 8  36685403.629   191030519.401         771.724          44.000  
C16  40608198.547   211457532.238        2587.655          36.000  
C 5  39176575.721   204002713.545        1214.634          37.000  
C11  25862731.680   134673998.666        -529.899          38.000  
C 6  39816042.091   207332578.749        2562.708          34.000  
> 2020  6  5  7 59 32.9990000  0 27                     
G 2  22596365.372   118744717.683        2200.464          44.000  
G 3  25041024.816   131591486.700       -2345.552          33.000  
G 6  20965053.527   110172105.349        1062.525          47.000  
G17  20882376.978   109737620.955        1023.217          46.000  
G19  20387318.524   107136076.112        1742.908          47.000  
C 2  37159877.230   193501233.454        1227.064          40.000  
G28  21877552.862   114967289.947       -1714.432          42.000  
G 4  24233394.659   127347357.949        1647.990          40.000  
G 9  23407143.689   123005414.715        2964.294          39.000  
C 1  37587087.179   195725825.545        1179.998          43.000  
C27  24356601.101   126831222.314        3117.807          41.000  
C 3  36123690.647   188105534.596        1195.006          45.000  
C 4  38505702.030   200509290.912        1177.277          40.000  
C10  36165957.483   188325614.836         283.606          43.000  
C13  36700967.391   191111571.087         910.240          44.000  
C14  23132314.730   120456035.536        -214.563          45.000  
C23  26006345.123   135421860.852       -1371.107          37.000  
C28  22216594.539   115687638.221        1688.659          49.000  
G12  23778605.968   124957425.499        4196.277          40.000  
G 5  23845133.701   125306971.019        4860.229          37.000  
G23  23533129.252   123667449.541        3103.857          41.000  
C 7  36979222.961   192560513.309        -114.247          42.000  
C 8  36685255.319   191029746.887         773.223          44.000  
C16  40607701.442   211454943.829        2589.371          36.000  
C 5  39176342.359   204001498.178        1215.822          37.000  
C11  25862833.293   134674527.993        -529.121          38.000  
C 6  39815549.750   207330014.959        2564.318          34.000  
> 2020  6  5  7 59 33.9990000  0 27                     
G 2  22595946.724   118742517.475        2200.228          43.000  
G 3  25041471.228   131593832.753       -2345.758          32.000  
G 6  20964851.314   110171043.382        1061.709          47.000  
G17  20882182.251   109736598.326        1022.417          47.000  
G19  20386986.848   107134333.652        1742.188          47.000  
C 2  37159641.705   193500006.772        1226.487          40.000  
G28  21877879.111   114969004.832       -1715.105          42.000  
G 4  24233081.358   127345710.588        1647.021          40.000  
G 9  23406579.680   123002451.084        2963.574          38.000  
C 1  37586860.413   195724645.810        1179.879          43.000  
C27  24356002.349   126828105.237        3116.985          41.000  
C 3  36123461.386   188104340.161        1194.415          45.000  
C 4  38505475.980   200508113.989        1176.721          40.000  
C10  36165902.968   188325331.811         282.792          43.000  
C13  36700792.539   191110661.267         909.687          44.000  
C14  23132356.139   120456250.665        -215.419          45.000  
C23  26006608.167   135423231.935       -1371.091          37.000  
C28  22216270.471   115685950.057        1688.170          49.000  
G12  23777807.533   124953230.141        4194.797          40.000  
G 5  23844209.014   125302110.885        4859.800          37.000  
G23  23532538.754   123664345.724        3103.510          40.000  
C 7  36979244.948   192560628.030        -114.549          42.000  
C 8  36685106.975   191028974.130         772.687          44.000  
C16  40607204.216   211452355.135        2588.365          36.000  
C 5  39176108.753   204000282.585        1215.884          37.000  
C11  25862934.975   134675057.226        -529.247          38.000  
C 6  39815057.410   207327450.890        2563.907          34.000  
> 2020  6  5  7 59 34.9990000  0 27                     
G 2  22595528.320   118740317.658        2199.300          43.000  
G 3  25041917.535   131596179.170       -2346.282          32.000  
G 6  20964649.433   110169981.858        1060.802          47.000  
G17  20881987.943   109735576.253        1021.448          46.000  
G19  20386655.346   107132591.755        1741.302          47.000  
C 2  37159406.109   193498780.331        1225.876          40.000  
G28  21878205.326   114970720.279       -1716.048          42.000  
G 4  24232768.214   127344063.931        1646.047          40.000  
G 9  23406015.759   122999488.006        2962.530          38.000  
C 1  37586634.067   195723466.345        1179.050          43.000  
C27  24355403.807   126824988.354        3116.589          41.000  
C 3  36123232.056   188103145.960        1193.881          45.000  
C 4  38505249.877   200506937.301        1176.233          40.000  
C10  36165848.838   188325049.186         282.114          43.000  
C13  36700617.741   191109751.682         909.205          44.000  
C14  23132397.688   120456466.532        -216.447          45.000  
C23  26006871.474   135424603.147       -1371.505          37.000  
C28  22215946.211   115684262.251        1687.355          49.000  
G12  23777009.430   124949035.333        4194.591          40.000  
G 5  23843284.135   125297251.143        4859.042          37.000  
G23  23531948.169   123661242.303        3103.168          41.000  
C 7  36979266.971   192560743.113        -115.692          42.000  
C 8  36684958.718   191028201.548         772.196          44.000  
C16  40606706.972   211449766.524        2588.542          36.000  
C 5  39175875.426   203999067.279        1215.007          37.000  
C11  25863036.344   134675586.823        -530.274          38.000  
C 6  39814565.087   207324886.972        2563.629          34.000  
> 2020  6  5  7 59 35.9990000  0 27                     
G 2  22595109.742   118738118.571        2198.732          43.000  
G 3  25042364.278   131598526.268       -2346.902          33.000  
G 6  20964447.743   110168921.084        1060.622          47.000  
G17  20881793.565   109734555.083        1020.819          46.000  
G19  20386324.141   107130850.781        1740.582          47.000  
C 2  37159170.706   193497554.491        1225.513          40.000  
G28  21878531.994   114972436.673       -1716.738          42.000  
G 4  24232455.087   127342418.343        1645.221          40.000  
G 9  23405451.803   122996525.812        2961.914          38.000  
C 1  37586407.737   195722287.472        1178.689          43.000  
C27  24354805.474   126821872.016        3116.286          41.000  
C 3  36123002.812   188101952.339        1193.552          45.000  
C 4  38505023.984   200505761.166        1176.227          40.000  
C10  36165794.672   188324767.288         281.530          43.000  
C13  36700443.361   191108842.669         908.962          44.000  
C14  23132439.220   120456683.483        -217.330          45.000  
C23  26007134.780   135425974.793       -1371.625          37.000  
C28  22215622.090   115682575.139        1686.804          49.000  
G12  23776211.396   124944841.526        4193.285          40.000  
G 5  23842359.448   125292392.175        4858.411          37.000  
G23  23531357.794   123658139.642        3102.429          41.000  
C 7  36979289.342   192560858.894        -115.968          42.000  
C 8  36684810.269   191027429.510         771.943          44.000  
C16  40606209.955   211447178.436        2587.547          35.000  
C 5  39175642.221   203997852.562        1214.274          37.000  
C11  25863138.061   134676117.107        -530.441          38.000  
C 6  39814073.026   207322323.556        2563.303          34.000  
> 2020  6  5  7 59 36.9990000  0 27                     
G 2  22594691.338   118735919.933        2198.692          43.000  
G 3  25042810.986   131600873.823       -2347.501          32.000  
G 6  20964245.966   110167860.865        1059.905          47.000  
G17  20881599.397   109733534.561        1020.351          46.000  
G19  20385993.058   107129110.461        1740.002          47.000  
C 2  37158935.529   193496328.964        1225.532          40.000  
G28  21878858.645   114974153.726       -1717.369          42.000  
G 4  24232142.187   127340773.568        1644.357          40.000  
G 9  23404888.143   122993564.262        2961.316          38.000  
C 1  37586181.356   195721108.921        1178.309          43.000  
C27  24354207.036   126818755.986        3115.851          41.000  
C 3  36122773.656   188100759.082        1193.071          45.000  
C 4  38504798.126   200504585.418        1175.232          40.000  
C10  36165740.542   188324485.905         281.110          43.000  
C13  36700268.841   191107933.986         908.562          44.000  
C14  23132481.170   120456901.257        -218.166          45.000  
C23  26007398.156   135427346.634       -1372.373          37.000  
C28  22215298.267   115680888.470        1686.439          49.000  
G12  23775413.276   124940648.398        4192.500          40.000  
G 5  23841434.813   125287533.680        4858.374          37.000  
G23  23530767.435   123655037.484        3102.026          41.000  
C 7  36979311.678   192560975.100        -116.152          42.000  
C 8  36684662.064   191026657.779         771.550          44.000  
C16  40605713.060   211444590.553        2587.744          35.000  
C 5  39175408.929   203996638.156        1214.388          37.000  
C11  25863240.058   134676647.867        -530.970          38.000  
C 6  39813580.877   207319760.336        2563.718          34.000  
> 2020  6  5  7 59 37.9990000  0 27                     
G 2  22594272.830   118733721.563        2197.856          43.000  
G 3  25043257.746   131603221.576       -2348.762          32.000  
G 6  20964044.469   110166800.915        1059.539          47.000  
G17  20881405.158   109732514.453        1019.577          46.000  
G19  20385662.045   107127370.564        1739.364          47.000  
C 2  37158700.161   193495103.572        1224.991          40.000  
G28  21879185.557   114975871.203       -1718.137          42.000  
G 4  24231829.235   127339129.354        1643.635          40.000  
G 9  23404324.623   122990603.122        2960.406          38.000  
C 1  37585955.061   195719930.456        1178.054          43.000  
C27  24353608.825   126815640.026        3115.656          41.000  
C 3  36122544.604   188099565.899        1192.975          45.000  
C 4  38504572.407   200503409.749        1175.055          40.000  
C10  36165686.411   188324204.751         280.746          43.000  
C13  36700094.339   191107025.374         908.434          44.000  
C14  23132523.016   120457119.621        -219.042          45.000  
C23  26007661.550   135428718.395       -1371.909          37.000  
C28  22214974.443   115679202.000        1685.949          49.000  
G12  23774615.748   124936455.689        4192.356          40.000  
G 5  23840510.231   125282675.465        4857.443          37.000  
G23  23530177.147   123651935.600        3101.147          41.000  
C 7  36979333.962   192561091.536        -116.858          42.000  
C 8  36684514.051   191025886.044         771.237          44.000  
C16  40605215.781   211442002.640        2587.431          35.000  
C 5  39175175.637   203995423.859        1214.172          37.000  
C11  25863342.002   134677178.852        -531.631          37.000  
C 6  39813088.781   207317197.194        2562.472          34.000  
> 2020  6  5  7 59 38.9990000  0 27                     
G 2  22593854.495   118731523.308        2198.494          43.000  
G 3  25043704.297   131605569.414       -2347.592          32.000  
G 6  20963842.919   110165741.185        1059.598          47.000  
G17  20881211.077   109731494.677        1019.879          46.000  
G19  20385330.927   107125631.015        1739.556          47.000  
C 2  37158464.862   193493878.174        1225.664          40.000  
G28  21879512.696   114977589.009       -1717.717          42.000  
G 4  24231516.544   127337485.644        1643.643          40.000  
G 9  23403761.086   122987642.263        2960.773          38.000  
C 1  37585728.802   195718752.033        1178.488          43.000  
C27  24353010.387   126812524.019        3116.285          41.000  
C 3  36122315.466   188098372.759        1193.307          45.000  
C 4  38504346.549   200502234.095        1175.824          40.000  
C10  36165632.420   188323923.774         280.942          43.000  
C13  36699919.767   191106116.770         908.730          44.000  
C14  23132564.914   120457338.472        -218.842          45.000  
C23  26007924.996   135430090.050       -1371.252          37.000  
C28  22214650.532   115677515.647        1686.512          49.000  
G12  23773818.186   124932263.432        4191.961          40.000  
G 5  23839585.876   125277817.388        4858.218          37.000  
G23  23529586.666   123648833.872        3101.727          40.000  
C 7  36979356.630   192561208.089        -116.309          42.000  
C 8  36684365.882   191025114.290         771.876          44.000  
C16  40604718.764   211439414.656        2587.642          35.000  
C 5  39174942.694   203994209.603        1214.321          37.000  
C11  25863443.963   134677709.956        -530.953          37.000  
C 6  39812596.702   207314633.902        2563.680          34.000  
> 2020  6  5  7 59 39.9990000  0 27                     
G 2  22593436.353   118729325.215        2197.839          42.000  
G 3  25044151.128   131607917.329       -2347.489          33.000  
G 6  20963641.334   110164681.620        1059.561          47.000  
G17  20881017.048   109730475.206        1019.539          46.000  
G19  20385000.018   107123891.770        1739.259          47.000  
C 2  37158229.528   193492652.795        1225.403          40.000  
G28  21879839.626   114979307.167       -1718.137          42.000  
G 4  24231203.941   127335842.398        1643.184          40.000  
G 9  23403197.584   122984681.716        2960.834          39.000  
C 1  37585502.402   195717573.584        1178.750          43.000  
C27  24352412.037   126809407.999        3116.185          41.000  
C 3  36122086.344   188097179.615        1193.323          45.000  
C 4  38504120.935   200501058.440        1175.647          40.000  
C10  36165578.499   188323642.964         280.902          43.000  
C13  36699745.317   191105208.127         908.850          44.000  
C14  23132607.091   120457557.824        -219.526          45.000  
C23  26008188.302   135431461.571       -1371.401          37.000  
C28  22214326.639   115675829.413        1686.251          49.000  
G12  23773020.415   124928071.490        4191.922          40.000  
G 5  23838661.380   125272959.480        4858.235          37.000  
G23  23528996.325   123645732.296        3101.685          40.000  
C 7  36979378.722   192561324.746        -116.637          42.000  
C 8  36684217.607   191024342.476         771.843          44.000  
C16  40604221.642   211436826.535        2588.174          35.000  
C 5  39174709.577   203992995.333        1214.442          37.000  
C11  25863545.820   134678241.176        -530.915          37.000  
C 6  39812104.379   207312070.561        2563.563          34.000  
> 2020  6  5  7 59 40.9990000  0 27                     
G 2  22593017.967   118727126.927        2197.991          44.000  
G 3  25044598.028   131610265.113       -2348.502          32.000  
G 6  20963439.609   110163621.953        1059.307          47.000  
G17  20880822.845   109729455.753        1019.057          46.000  
G19  20384669.110   107122152.559        1738.833          47.000  
C 2  37157994.107   193491427.120        1225.328          40.000  
G28  21880166.818   114981025.346       -1718.635          42.000  
G 4  24230891.216   127334199.318        1642.775          41.000  
G 9  23402634.099   122981721.156        2960.669          38.000  
C 1  37585276.073   195716394.848        1178.574          43.000  
C27  24351813.686   126806291.634        3115.887          41.000  
C 3  36121857.101   188095986.189        1193.149          44.000  
C 4  38503895.112   200499882.490        1175.330          40.000  
C10  36165524.403   188323362.010         280.547          43.000  
C13  36699570.605   191104299.170         908.775          44.000  
C14  23132649.286   120457777.375        -220.147          45.000  
C23  26008451.626   135432832.609       -1370.747          37.000  
C28  22214002.867   115674142.985        1686.095          49.000  
G12  23772222.434   124923879.616        4191.691          40.000  
G 5  23837736.781   125268101.449        4857.959          37.000  
G23  23528406.456   123642630.596        3101.428          41.000  
C 7  36979401.285   192561441.217        -116.802          42.000  
C 8  36684069.193   191023570.296         772.034          44.000  
C16  40603724.258   211434238.008        2588.171          35.000  
C 5  39174476.215   203991780.764        1214.216          37.000  
C11  25863647.677   134678772.265        -531.418          37.000  
C 6  39811612.056   207309506.803        2563.188          34.000  
> 2020  6  5  7 59 41.9990000  0 27                     
G 2  22592599.493   118724928.524        2198.491          44.000  
G 3  25045044.823   131612612.715       -2348.529          32.000  
G 6  20963237.954   110162562.241        1059.586          47.000  
G17  20880628.816   109728436.364        1019.237          46.000  
G19  20384337.940   107120413.425        1738.981          47.000  
C 2  37157758.844   193490201.188        1225.758          40.000  
G28  21880493.974   114982743.620       -1718.650          42.000  
G 4  24230578.648   127332556.483        1642.550          41.000  
G 9  23402070.544   122978760.695        2960.352          38.000  
C 1  37585049.604   195715215.891        1178.911          43.000  
C27  24351215.092   126803174.989        3116.764          40.000  
C 3  36121627.875   188094792.509        1193.661          45.000  
C 4  38503669.149   200498706.316        1176.233          40.000  
C10  36165470.500   188323080.971         280.924          43.000  
C13  36699396.016   191103389.984         909.215          44.000  
C14  23132691.498   120457997.162        -220.059          45.000  
C23  26008715.106   135434203.285       -1370.583          37.000  
C28  22213679.253   115672456.413        1686.547          49.000  
G12  23771424.749   124919687.855        4191.792          40.000  
G 5  23836812.495   125263243.359        4857.609          37.000  
G23  23527816.254   123639528.801        3102.356          41.000  
C 7  36979423.604   192561557.539        -116.264          42.000  
C 8  36683920.849   191022797.828         772.395          44.000  
C16  40603226.840   211431649.119        2588.771          35.000  
C 5  39174242.818   203990565.947        1214.709          37.000  
C11  25863749.848   134679303.185        -530.813          38.000  
C 6  39811119.681   207306942.709        2564.014          34.000  
> 2020  6  5  7 59 42.9990000  0 27                     
G 2  22592181.159   118722730.312        2198.243          44.000  
G 3  25045491.775   131614960.404       -2347.194          32.000  
G 6  20963036.387   110161502.739        1059.742          47.000  
G17  20880434.734   109727417.336        1019.152          46.000  
G19  20384007.328   107118674.656        1738.794          47.000  
C 2  37157523.405   193488975.314        1225.908          40.000  
G28  21880820.730   114984462.246       -1718.569          42.000  
G 4  24230266.079   127330914.147        1642.369          40.000  
G 9  23401507.513   122975800.554        2960.077          39.000  
C 1  37584823.188   195714036.955        1179.360          43.000  
C27  24350616.584   126800058.361        3116.793          40.000  
C 3  36121398.683   188093598.872        1193.770          45.000  
C 4  38503443.186   200497530.182        1176.343          40.000  
C10  36165416.596   188322800.115         280.952          43.000  
C13  36699221.479   191102480.847         909.239          44.000  
C14  23132733.622   120458217.497        -220.423          45.000  
C23  26008978.500   135435573.864       -1370.568          37.000  
C28  22213355.220   115670770.011        1686.498          49.000  
G12  23770627.257   124915496.529        4191.137          40.000  
G 5  23835888.209   125258385.441        4857.808          37.000  
G23  23527226.140   123636427.224        3101.703          41.000  
C 7  36979446.167   192561674.023        -116.172          42.000  
C 8  36683772.627   191022025.357         772.604          44.000  
C16  40602729.439   211429060.174        2588.886          35.000  
C 5  39174009.561   203989351.182        1214.847          37.000  
C11  25863851.949   134679834.295        -530.962          38.000  
C 6  39810627.079   207304378.566        2564.112          34.000  
> 2020  6  5  7 59 43.9990000  0 27                     
G 2  22591762.947   118720532.356        2197.868          44.000  
G 3  25045938.623   131617308.354       -2348.138          32.000  
G 6  20962834.907   110160443.562        1058.991          47.000  
G17  20880241.072   109726398.735        1018.572          46.000  
G19  20383676.227   107116936.336        1738.073          47.000  
C 2  37157288.019   193487749.558        1225.902          40.000  
G28  21881147.904   114986181.338       -1719.162          42.000  
G 4  24229953.441   127329272.419        1641.536          40.000  
G 9  23400944.394   122972840.817        2959.766          39.000  
C 1  37584596.893   195712858.149        1179.005          43.000  
C27  24350017.850   126796941.812        3116.616          40.000  
C 3  36121169.405   188092405.356        1193.644          45.000  
C 4  38503217.311   200496354.137        1176.208          40.000  
C10  36165362.919   188322519.538         280.500          43.000  
C13  36699047.029   191101571.769         909.232          44.000  
C14  23132775.887   120458438.421        -221.125          45.000  
C23  26009241.440   135436944.388       -1370.333          37.000  
C28  22213031.396   115669083.817        1686.242          49.000  
G12  23769829.764   124911305.659        4190.568          40.000  
G 5  23834964.046   125253527.781        4857.679          37.000  
G23  23526636.009   123633325.921        3101.141          41.000  
C 7  36979468.660   192561790.755        -116.831          42.000  
C 8  36683624.370   191021252.942         772.465          44.000  
C16  40602231.706   211426471.203        2589.250          35.000  
C 5  39173776.287   203988136.538        1214.451          37.000  
C11  25863954.155   134680365.626        -531.439          38.000  
C 6  39810134.511   207301814.443        2563.916          34.000  
> 2020  6  5  7 59 44.9990000  0 27                     
G 2  22591344.648   118718334.342        2197.892          43.000  
G 3  25046385.471   131619656.250       -2348.224          32.000  
G 6  20962633.514   110159384.380        1059.130          47.000  
G17  20880047.217   109725380.275        1018.391          47.000  
G19  20383345.528   107115198.162        1738.119          47.000  
C 2  37157052.424   193486523.618        1225.925          40.000  
G28  21881475.270   114987900.574       -1719.499          42.000  
G 4  24229641.030   127327630.981        1641.121          40.000  
G 9  23400381.310   122969881.215        2959.351          39.000  
C 1  37584370.494   195711679.163        1179.094          43.000  
C27  24349419.237   126793825.041        3116.749          40.000  
C 3  36120940.057   188091211.694        1193.651          45.000  
C 4  38502991.505   200495177.971        1176.074          40.000  
C10  36165309.138   188322238.942         280.481          43.000  
C13  36698872.317   191100662.553         909.241          44.000  
C14  23132818.518   120458659.675        -221.638          45.000  
C23  26009504.746   135438314.614       -1370.421          37.000  
C28  22212707.555   115667397.563        1686.202          49.000  
G12  23769032.202   124907114.980        4190.266          40.000  
G 5  23834039.690   125248670.141        4857.429          37.000  
G23  23526045.720   123630224.590        3101.416          41.000  
C 7  36979490.927   192561907.372        -116.686          42.000  
C 8  36683475.921   191020480.312         772.537          44.000  
C16  40601734.323   211423881.988        2589.159          34.000  
C 5  39173543.047   203986921.724        1214.650          37.000  
C11  25864056.187   134680896.885        -531.367          38.000  
C 6  39809642.084   207299250.038        2564.292          34.000  
> 2020  6  5  7 59 45.9990000  0 27                     
G 2  22590926.349   118716136.260        2198.339          43.000  
G 3  25046832.266   131622004.017       -2348.045          32.000  
G 6  20962431.911   110158325.189        1059.256          47.000  
G17  20879853.642   109724361.929        1018.376          47.000  
G19  20383014.847   107113460.123        1737.895          47.000  
C 2  37156816.829   193485297.486        1226.295          40.000  
G28  21881802.758   114989619.932       -1719.261          42.000  
G 4  24229328.741   127325989.807        1641.030          40.000  
G 9  23399818.105   122966921.722        2959.174          39.000  
C 1  37584143.833   195710499.988        1179.410          43.000  
C27  24348820.346   126790708.055        3116.948          40.000  
C 3  36120710.970   188090017.823        1193.918          45.000  
C 4  38502765.786   200494001.602        1176.312          40.000  
C10  36165255.216   188321958.322         280.526          43.000  
C13  36698697.501   191099753.111         909.495          44.000  
C14  23132860.922   120458881.216        -221.767          45.000  
C23  26009767.808   135439684.483       -1369.546          37.000  
C28  22212383.679   115665711.228        1686.323          49.000  
G12  23768234.657   124902924.451        4190.406          40.000  
G 5  23833115.509   125243812.453        4857.453          37.000  
G23  23525455.554   123627123.243        3101.459          41.000  
C 7  36979513.403   192562023.921        -116.517          41.000  
C 8  36683327.332   191019707.441         772.847          44.000  
C16  40601236.922   211421292.443        2589.438          34.000  
C 5  39173309.860   203985706.723        1214.797          37.000  
C11  25864158.323   134681428.098        -531.166          38.000  
C 6  39809149.464   207296685.353        2564.450          34.000  
> 2020  6  5  7 59 46.9990000  0 27                     
G 2  22590508.207   118713938.308        2197.641          43.000  
G 3  25047278.974   131624351.866       -2348.373          32.000  
G 6  20962230.344   110157266.165        1058.932          47.000  
G17  20879660.067   109723343.874        1017.925          47.000  
G19  20382684.113   107111722.376        1737.641          47.000  
C 2  37156581.408   193484071.354        1225.862          40.000  
G28  21882130.072   114991339.621       -1719.945          42.000  
G 4  24229016.469   127324349.099        1640.582          40.000  
G 9  23399255.056   122963962.471        2959.106          39.000  
C 1  37583917.591   195709320.807        1179.010          43.000  
C27  24348221.786   126787590.971        3117.428          40.000  
C 3  36120481.605   188088823.921        1193.994          45.000  
C 4  38502539.893   200492825.189        1176.495          40.000  
C10  36165201.435   188321677.811         280.309          43.000  
C13  36698522.825   191098843.616         909.430          44.000  
C14  23132903.500   120459103.209        -222.248          45.000  
C23  26010030.748   135441054.168       -1369.433          37.000  
C28  22212059.873   115664024.966        1686.140          49.000  
G12  23767437.095   124898734.251        4190.137          40.000  
G 5  23832191.311   125238954.879        4857.582          37.000  
G23  23524865.457   123624022.004        3101.440          41.000  
C 7  36979535.809   192562140.538        -116.615          41.000  
C 8  36683178.778   191018934.474         773.111          44.000  
C16  40600739.364   211418702.773        2589.801          34.000  
C 5  39173076.481   203984491.672        1214.971          37.000  
C11  25864260.285   134681959.398        -531.517          38.000  
C 6  39808656.949   207294120.546        2565.008          34.000  
> 2020  6  5  7 59 47.9990000  0 27                     
G 2  22590090.065   118711740.565        2197.544          43.000  
G 3  25047725.665   131626699.878       -2347.651          31.000  
G 6  20962028.776   110156207.443        1058.334          47.000  
G17  20879466.265   109722326.241        1017.313          46.000  
G19  20382353.606   107109985.059        1737.066          47.000  
C 2  37156346.214   193482845.300        1225.921          40.000  
G28  21882457.577   114993059.726       -1720.207          42.000  
G 4  24228704.390   127322708.960        1640.023          40.000  
G 9  23398691.990   122961003.662        2958.282          39.000  
C 1  37583691.279   195708141.707        1178.693          43.000  
C27  24347623.051   126784473.996        3116.927          40.000  
C 3  36120252.274   188087630.137        1193.877          44.000  
C 4  38502314.105   200491648.898        1176.184          40.000  
C10  36165147.671   188321397.566         279.971          43.000  
C13  36698348.095   191097934.215         909.400          44.000  
C14  23132946.358   120459325.809        -222.920          45.000  
C23  26010293.531   135442423.817       -1369.470          36.000  
C28  22211736.171   115662338.909        1685.999          49.000  
G12  23766639.673   124894544.530        4189.637          40.000  
G 5  23831267.095   125234097.588        4856.990          37.000  
G23  23524275.343   123620921.054        3100.891          41.000  
C 7  36979558.197   192562257.390        -117.210          42.000  
C 8  36683030.434   191018161.570         772.734          44.000  
C16  40600241.980   211416113.061        2589.782          34.000  
C 5  39172843.032   203983276.750        1214.944          37.000  
C11  25864362.403   134682490.916        -531.750          38.000  
C 6  39808164.190   207291555.750        2565.206          34.000  
> 2020  6  5  7 59 48.9990000  0 27                     
G 2  22589671.748   118709543.119        2197.404          43.000  
G 3  25048172.617   131629048.160       -2347.936          32.000  
G 6  20961827.575   110155149.044        1058.184          47.000  
G17  20879272.742   109721309.054        1016.929          46.000  
G19  20382022.906   107108248.203        1736.670          47.000  
C 2  37156110.880   193481619.407        1225.777          40.000  
G28  21882785.118   114994780.314       -1720.911          42.000  
G 4  24228391.908   127321069.444        1639.247          40.000  
G 9  23398129.046   122958045.288        2958.032          39.000  
C 1  37583464.810   195706962.738        1179.005          43.000  
C27  24347024.684   126781357.131        3116.889          40.000  
C 3  36120023.013   188086436.516        1193.501          44.000  
C 4  38502088.159   200490472.758        1175.861          40.000  
C10  36165093.941   188321117.614         279.921          43.000  
C13  36698173.593   191097024.952         909.199          44.000  
C14  23132989.338   120459549.050        -223.510          45.000  
C23  26010556.436   135443793.510       -1369.932          36.000  
C28  22211412.470   115660653.127        1685.617          49.000  
G12  23765842.302   124890355.334        4188.729          40.000  
G 5  23830343.019   125229240.618        4856.789          37.000  
G23  23523685.334   123617820.409        3100.623          41.000  
C 7  36979580.726   192562374.482        -117.237          42.000  
C 8  36682881.950   191017388.751         772.821          44.000  
C16  40599744.771   211413523.428        2589.378          34.000  
C 5  39172610.002   203982061.961        1215.339          37.000  
C11  25864464.400   134683022.697        -532.245          38.000  
C 6  39807671.675   207288991.045        2563.958          34.000  
> 2020  6  5  7 59 49.9990000  0 27                     
G 2  22589253.571   118707345.886        2196.786          44.000  
G 3  25048619.779   131631396.652       -2349.072          31.000  
G 6  20961626.287   110154090.913        1057.750          47.000  
G17  20879079.184   109720292.263        1016.364          46.000  
G19  20381692.644   107106511.756        1736.118          47.000  
C 2  37155875.442   193480393.587        1225.677          40.000  
G28  21883112.536   114996501.289       -1721.208          42.000  
G 4  24228079.864   127319430.463        1638.655          40.000  
G 9  23397566.276   122955087.279        2957.709          39.000  
C 1  37583238.272   195705783.870        1178.735          43.000  
C27  24346426.106   126778240.298        3116.630          40.000  
C 3  36119793.839   188085242.958        1193.313          45.000  
C 4  38501861.935   200489296.690        1176.062          40.000  
C10  36165040.108   188320837.919         279.379          43.000  
C13  36697998.917   191096115.732         909.270          44.000  
C14  23133032.283   120459772.846        -224.093          45.000  
C23  26010819.219   135445163.082       -1369.418          36.000  
C28  22211088.681   115658967.511        1685.430          49.000  
G12  23765045.176   124886166.540        4188.783          40.000  
G 5  23829418.628   125224383.857        4856.620          37.000  
G23  23523095.081   123614720.010        3100.323          41.000  
C 7  36979603.289   192562491.762        -117.427          42.000  
C 8  36682733.641   191016615.959         772.865          44.000  
C16  40599247.405   211410933.737        2589.472          34.000  
C 5  39172376.413   203980847.290        1214.346          37.000  
C11  25864566.710   134683554.683        -532.504          38.000  
C 6  39807179.439   207286426.269        2564.566          34.000  
> 2020  6  5  7 59 50.9990000  0 27                     
G 2  22588835.621   118705148.563        2197.469          44.000  
G 3  25049066.487   131633744.975       -2348.344          31.000  
G 6  20961424.824   110153032.751        1057.991          47.000  
G17  20878885.452   109719275.580        1016.194          46.000  
G19  20381362.416   107104775.421        1736.052          47.000  
C 2  37155640.003   193479167.571        1225.898          40.000  
G28  21883439.972   114998222.389       -1721.393          42.000  
G 4  24227767.958   127317791.761        1638.298          40.000  
G 9  23397003.472   122952129.376        2957.642          39.000  
C 1  37583011.907   195704604.774        1178.970          43.000  
C27  24345827.633   126775123.206        3116.914          40.000  
C 3  36119564.578   188084049.195        1193.606          44.000  
C 4  38501636.234   200488120.419        1175.916          40.000  
C10  36164986.466   188320558.144         279.459          43.000  
C13  36697824.205   191095206.316         909.168          44.000  
C14  23133075.507   120459996.928        -224.503          45.000  
C23  26011081.880   135446532.323       -1369.562          36.000  
C28  22210764.910   115657281.807        1685.369          49.000  
G12  23764248.434   124881977.904        4188.524          40.000  
G 5  23828494.203   125219527.035        4856.733          37.000  
G23  23522505.036   123611619.562        3099.860          41.000  
C 7  36979625.887   192562608.928        -117.242          42.000  
C 8  36682585.349   191015842.903         773.093          44.000  
C16  40598750.161   211408343.675        2590.148          34.000  
C 5  39172143.034   203979632.390        1214.519          37.000  
C11  25864668.829   134684086.554        -531.881          38.000  
C 6  39806686.837   207283861.197        2565.207          34.000  
> 2020  6  5  7 59 51.9990000  0 27                     
G 2  22588417.566   118702951.176        2197.587          44.000  
G 3  25049513.073   131636093.190       -2347.928          32.000  
G 6  20961223.362   110151974.579        1058.212          47.000  
G17  20878692.051   109718258.989        1016.685          46.000  
G19  20381031.978   107103039.203        1736.273          47.000  
C 2  37155404.321   193477941.361        1226.479          40.000  
G28  21883767.443   114999943.596       -1720.864          42.000  
G 4  24227456.123   127316153.313        1638.494          40.000  
G 9  23396440.406   122949171.565        2957.520          39.000  
C 1  37582785.334   195703425.490        1179.474          43.000  
C27  24345228.864   126772005.900        3117.358          40.000  
C 3  36119335.405   188082855.242        1194.072          44.000  
C 4  38501410.376   200486943.945        1176.605          40.000  
C10  36164932.701   188320278.327         279.879          43.000  
C13  36697649.493   191094296.688         909.852          44.000  
C14  23133118.417   120460221.288        -224.377          45.000  
C23  26011344.575   135447901.189       -1368.707          36.000  
C28  22210441.295   115655595.989        1685.982          49.000  
G12  23763451.640   124877789.455        4188.478          40.000  
G 5  23827569.900   125214670.192        4856.881          37.000  
G23  23521915.184   123608519.026        3100.769          41.000  
C 7  36979648.258   192562726.015        -116.919          42.000  
C 8  36682436.882   191015069.600         773.479          44.000  
C16  40598252.690   211405753.348        2591.130          35.000  
C 5  39171909.969   203978417.267        1215.428          37.000  
C11  25864770.948   134684618.371        -531.877          39.000  
C 6  39806193.903   207281295.827        2565.225          34.000  
> 2020  6  5  7 59 52.9990000  0 27                     
G 2  22587999.302   118700753.441        2198.050          43.000  
G 3  25049959.956   131638441.041       -2347.691          31.000  
G 6  20961021.986   110150916.108        1058.765          47.000  
G17  20878498.353   109717242.242        1016.945          46.000  
G19  20380701.733   107101302.827        1736.616          47.000  
C 2  37155168.673   193476714.669        1227.015          40.000  
G28  21884094.705   115001664.698       -1721.167          42.000  
G 4  24227144.375   127314514.857        1638.835          40.000  
G 9  23395877.566   122946213.562        2958.185          39.000  
C 1  37582558.760   195702245.741        1179.874          43.000  
C27  24344630.060   126768888.049        3118.142          40.000  
C 3  36119106.074   188081660.805        1194.911          44.000  
C 4  38501184.448   200485766.982        1177.203          40.000  
C10  36164878.641   188319998.183         280.444          43.000  
C13  36697475.009   191093386.573         910.582          44.000  
C14  23133161.781   120460445.667        -224.329          45.000  
C23  26011607.096   135449269.433       -1367.924          36.000  
C28  22210117.594   115653909.807        1686.575          49.000  
G12  23762654.340   124873600.876        4188.872          40.000  
G 5  23826645.806   125209813.005        4857.554          37.000  
G23  23521325.314   123605418.202        3101.038          41.000  
C 7  36979670.664   192562842.715        -116.032          42.000  
C 8  36682288.206   191014295.752         774.209          44.000  
C16  40597755.254   211403162.448        2591.272          35.000  
C 5  39171676.624   203977201.687        1216.162          37.000  
C11  25864873.311   134685149.800        -530.987          38.000  
C 6  39805701.319   207278729.858        2566.204          34.000  
> 2020  6  5  7 59 53.9990000  0 27                     
G 2  22587581.090   118698555.786        2197.492          43.000  
G 3  25050406.804   131640788.937       -2348.080          32.000  
G 6  20960820.331   110149857.786        1057.961          47.000  
G17  20878304.970   109716225.756        1016.151          46.000  
G19  20380371.435   107099566.732        1735.622          47.000  
C 2  37154933.112   193475487.944        1226.637          40.000  
G28  21884422.297   115003386.036       -1721.632          42.000  
G 4  24226832.627   127312876.847        1637.651          40.000  
G 9  23395314.709   122943255.808        2957.605          39.000  
C 1  37582332.361   195701065.917        1179.725          43.000  
C27  24344031.116   126765770.144        3117.725          40.000  
C 3  36118876.743   188080466.335        1194.237          44.000  
C 4  38500958.450   200484589.987        1176.642          40.000  
C10  36164824.999   188319718.149         279.709          43.000  
C13  36697300.315   191092476.426         909.808          44.000  
C14  23133204.743   120460670.485        -225.315          45.000  
C23  26011869.635   135450637.514       -1368.488          36.000  
C28  22209793.665   115652223.698        1685.851          49.000  
G12  23761857.475   124869412.617        4187.806          40.000  
G 5  23825721.486   125204955.969        4856.310          37.000  
G23  23520735.183   123602317.485        3100.323          41.000  
C 7  36979693.175   192562959.485        -116.931          42.000  
C 8  36682139.635   191013521.784         773.857          44.000  
C16  40597257.958   211400571.339        2591.299          35.000  
C 5  39171443.280   203975986.078        1215.183          37.000  
C11  25864975.290   134685681.325        -531.561          39.000  
C 6  39805208.472   207276163.816        2565.153          34.000  
> 2020  6  5  7 59 54.9990000  0 27                     
G 2  22587163.175   118696358.465        2196.791          43.000  
G 3  25050853.669   131643137.140       -2348.733          32.000  
G 6  20960618.973   110148799.833        1057.519          47.000  
G17  20878111.517   109715209.782        1015.568          46.000  
G19  20380041.138   107097831.145        1735.081          47.000  
C 2  37154697.604   193474261.376        1226.643          40.000  
G28  21884749.908   115005107.894       -1722.216          42.000  
G 4  24226520.983   127311239.492        1636.910          40.000  
G 9  23394752.184   122940298.582        2956.708          39.000  
C 1  37582105.979   195699886.302        1179.431          43.000  
C27  24343432.260   126762652.363        3117.587          40.000  
C 3  36118647.273   188079272.055        1193.951          44.000  
C 4  38500732.417   200483413.193        1176.422          40.000  
C10  36164771.287   188319438.456         279.219          43.000  
C13  36697125.429   191091566.429         909.706          44.000  
C14  23133248.020   120460895.983        -225.983          45.000  
C23  26012132.278   135452005.601       -1368.539          36.000  
C28  22209469.964   115650537.876        1685.431          49.000  
G12  23761060.751   124865224.918        4187.228          40.000  
G 5  23824797.776   125200099.242        4856.450          37.000  
G23  23520145.296   123599217.122        3100.232          41.000  
C 7  36979715.406   192563076.569        -117.467          42.000  
C 8  36681991.012   191012747.987         773.422          44.000  
C16  40596760.627   211397980.356        2591.090          35.000  
C 5  39171209.796   203974770.626        1215.292          37.000  
C11  25865077.618   134686213.161        -531.984          39.000  
C 6  39804715.730   207273597.803        2565.323          34.000  
> 2020  6  5  7 59 55.9990000  0 27                     
G 2  22586744.736   118694161.517        2197.269          43.000  
G 3  25051300.743   131645485.624       -2347.948          32.000  
G 6  20960417.703   110147742.322        1057.461          47.000  
G17  20877918.221   109714194.375        1015.243          46.000  
G19  20379711.154   107096096.150        1734.756          47.000  
C 2  37154462.271   193473035.091        1226.497          40.000  
G28  21885077.937   115006830.347       -1722.796          42.000  
G 4  24226209.829   127309602.872        1636.143          40.000  
G 9  23394189.327   122937341.881        2956.616          39.000  
C 1  37581879.545   195698706.951        1179.279          43.000  
C27  24342833.543   126759534.829        3117.249          40.000  
C 3  36118417.890   188078078.040        1193.943          44.000  
C 4  38500506.280   200482236.640        1176.263          40.000  
C10  36164717.628   188319159.144         279.319          43.000  
C13  36696950.577   191090656.689         909.651          44.000  
C14  23133291.436   120461122.223        -226.511          45.000  
C23  26012395.026   135453373.793       -1367.867          36.000  
C28  22209146.367   115648852.422        1685.320          49.000  
G12  23760263.852   124861037.823        4186.842          40.000  
G 5  23823873.822   125195242.951        4855.901          38.000  
G23  23519555.443   123596117.199        3099.188          40.000  
C 7  36979738.249   192563193.997        -117.549          42.000  
C 8  36681842.353   191011974.380         773.464          44.000  
C16  40596263.034   211395389.497        2591.050          35.000  
C 5  39170976.452   203973555.451        1215.145          37.000  
C11  25865179.963   134686745.371        -532.232          39.000  
C 6  39804222.901   207271031.977        2565.607          33.000  
> 2020  6  5  7 59 56.9990000  0 27                     
G 2  22586326.768   118691964.908        2196.742          43.000  
G 3  25051747.644   131647834.467       -2348.882          32.000  
G 6  20960216.432   110146685.199        1056.948          47.000  
G17  20877725.187   109713179.473        1014.732          46.000  
G19  20379380.978   107094361.665        1734.233          47.000  
C 2  37154226.745   193471808.997        1226.242          40.000  
G28  21885406.123   115008553.305       -1723.155          43.000  
G 4  24225898.726   127307966.923        1635.571          40.000  
G 9  23393626.698   122934385.705        2955.737          39.000  
C 1  37581652.989   195697527.777        1179.350          43.000  
C27  24342234.791   126756417.444        3117.387          40.000  
C 3  36118188.646   188076884.215        1193.812          44.000  
C 4  38500280.299   200481060.296        1176.105          40.000  
C10  36164663.951   188318880.221         278.885          43.000  
C13  36696775.970   191089747.101         909.467          44.000  
C14  23133334.974   120461349.146        -227.329          45.000  
C23  26012657.966   135454742.054       -1368.331          36.000  
C28  22208822.665   115647167.259        1685.028          49.000  
G12  23759467.145   124856851.287        4186.334          40.000  
G 5  23822949.972   125190387.019        4855.833          38.000  
G23  23518965.678   123593017.589        3099.365          40.000  
C 7  36979760.829   192563311.729        -117.875          42.000  
C 8  36681693.712   191011200.909         773.324          44.000  
C16  40595765.441   211392798.727        2590.521          35.000  
C 5  39170743.038   203972340.471        1214.813          37.000  
C11  25865282.326   134687277.905        -532.643          39.000  
C 6  39803729.915   207268466.241        2566.032          33.000  
> 2020  6  5  7 59 57.9990000  0 27                     
G 2  22585908.731   118689768.285        2196.260          44.000  
G 3  25052194.613   131650183.264       -2349.294          32.000  
G 6  20960015.213   110145628.109        1056.653          47.000  
G17  20877531.943   109712164.733        1014.185          46.000  
G19  20379050.838   107092627.353        1733.906          47.000  
C 2  37153991.150   193470582.747        1226.099          40.000  
G28  21885734.048   115010276.443       -1723.470          42.000  
G 4  24225587.484   127306331.281        1635.051          40.000  
G 9  23393064.068   122931429.617        2956.012          39.000  
C 1  37581426.468   195696348.470        1178.916          43.000  
C27  24341635.899   126753299.859        3117.318          40.000  
C 3  36117959.280   188075690.240        1193.701          44.000  
C 4  38500054.581   200479883.785        1176.031          40.000  
C10  36164610.309   188318601.302         278.721          43.000  
C13  36696601.224   191088837.345         909.552          44.000  
C14  23133378.565   120461576.396        -227.611          45.000  
C23  26012920.975   135456110.006       -1368.370          37.000  
C28  22208499.121   115645482.060        1684.854          49.000  
G12  23758670.664   124852664.978        4185.945          40.000  
G 5  23822026.262   125185531.076        4855.532          38.000  
G23  23518375.809   123589918.009        3099.066          40.000  
C 7  36979783.637   192563429.397        -117.891          42.000  
C 8  36681545.211   191010427.213         773.500          44.000  
C16  40595267.900   211390207.660        2591.014          35.000  
C 5  39170509.693   203971125.344        1214.800          37.000  
C11  25865384.445   134687810.382        -532.903          39.000  
C 6  39803237.191   207265900.276        2565.541          33.000  
> 2020  6  5  7 59 58.9990000  0 27                     
G 2  22585490.763   118687571.672        2196.654          44.000  
G 3  25052641.461   131652531.955       -2348.477          32.000  
G 6  20959814.152   110144571.068        1057.207          47.000  
G17  20877338.839   109711150.168        1014.724          46.000  
G19  20378720.837   107090893.241        1734.260          47.000  
C 2  37153755.729   193469356.377        1226.617          40.000  
G28  21886062.042   115011999.810       -1723.418          42.000  
G 4  24225276.294   127304695.984        1635.463          40.000  
G 9  23392501.455   122928473.766        2955.798          39.000  
C 1  37581200.121   195695169.011        1179.782          43.000  
C27  24341036.990   126750182.115        3117.938          40.000  
C 3  36117730.037   188074496.146        1194.479          44.000  
C 4  38499828.583   200478707.172        1176.514          40.000  
C10  36164556.876   188318322.409         279.095          43.000  
C13  36696426.408   191087927.462         910.367          44.000  
C14  23133422.295   120461804.024        -227.668          45.000  
C23  26013183.758   135457477.676       -1367.037          37.000  
C28  22208175.350   115643796.842        1685.396          49.000  
G12  23757874.044   124848478.869        4186.361          40.000  
G 5  23821102.204   125180675.196        4856.017          38.000  
G23  23517786.044   123586818.476        3099.548          40.000  
C 7  36979806.235   192563547.072        -117.433          42.000  
C 8  36681396.745   191009653.367         774.246          44.000  
C16  40594770.587   211387616.397        2591.632          35.000  
C 5  39170276.279   203969910.081        1215.537          37.000  
C11  25865486.581   134688342.849        -532.052          39.000  
C 6  39802744.327   207263334.068        2566.697          33.000  
> 2020  6  5  7 59 59.9990000  0 27                     
G 2  22585072.865   118685375.109        2196.767          43.000  
G 3  25053088.518   131654880.723       -2348.151          32.000  
G 6  20959613.125   110143514.173        1057.131          47.000  
G17  20877145.944   109710135.873        1014.374          46.000  
G19  20378390.905   107089159.396        1733.934          47.000  
C 2  37153520.133   193468129.946        1226.657          40.000  
G28  21886389.967   115013723.422       -1723.794          42.000  
G 4  24224965.454   127303061.123        1634.840          40.000  
G 9  23391939.174   122925518.132        2955.566          39.000  
C 1  37580973.443   195693989.512        1179.814          43.000  
C27  24340438.256   126747064.289        3118.224          40.000  
C 3  36117500.846   188073302.007        1194.506          45.000  
C 4  38499602.516   200477530.492        1176.752          40.000  
C10  36164503.391   188318043.620         278.788          43.000  
C13  36696251.766   191087017.539         910.120          44.000  
C14  23133466.183   120462032.079        -227.968          45.000  
C23  26013446.314   135458845.128       -1366.978          37.000  
C28  22207851.753   115642111.675        1685.364          49.000  
G12  23757077.407   124844293.116        4185.708          40.000  
G 5  23820178.319   125175819.376        4855.895          38.000  
G23  23517196.436   123583719.029        3099.750          40.000  
C 7  36979828.815   192563664.806        -117.555          42.000  
C 8  36681248.034   191008879.415         774.082          44.000  
C16  40594273.011   211385024.929        2592.011          35.000  
C 5  39170042.900   203968694.785        1215.507          37.000  
C11  25865588.996   134688875.401        -532.269          39.000  
C 6  39802251.271   207260767.716        2566.581          33.000  
> 2020  6  5  8  0  0.9990000  0 27                     
G 2  22584654.845   118683178.537        2196.916          43.000  
G 3  25053535.383   131657229.452       -2348.573          32.000  
G 6  20959411.785   110142457.297        1057.276          47.000  
G17  20876952.700   109709121.735        1014.472          46.000  
G19  20378061.131   107087425.713        1734.030          47.000  
C 2  37153284.573   193466903.370        1226.786          40.000  
G28  21886717.926   115015447.190       -1723.198          42.000  
G 4  24224654.526   127301426.574        1634.509          40.000  
G 9  23391376.893   122922562.630        2955.896          39.000  
C 1  37580746.764   195692809.858        1180.071          43.000  
C27  24339839.504   126743946.262        3118.635          40.000  
C 3  36117271.672   188072107.718        1194.677          44.000  
C 4  38499376.204   200476353.651        1177.405          40.000  
C10  36164450.011   188317764.806         278.904          43.000  
C13  36696076.967   191086107.455         910.517          44.000  
C14  23133510.175   120462260.470        -228.221          45.000  
C23  26013709.219   135460212.320       -1367.094          37.000  
C28  22207528.313   115640426.459        1685.585          49.000  
G12  23756280.874   124840107.548        4185.638          40.000  
G 5  23819254.138   125170963.568        4856.183          37.000  
G23  23516606.549   123580619.593        3099.908          40.000  
C 7  36979851.535   192563782.475        -117.323          42.000  
C 8  36681099.393   191008105.247         774.689          44.000  
C16  40593775.348   211382433.211        2592.282          36.000  
C 5  39169809.608   203967479.334        1215.664          37.000  
C11  25865691.185   134689407.923        -532.087          39.000  
C 6  39801758.198   207258201.132        2566.793          33.000  
> 2020  6  5  8  0  1.9990000  0 27                     
G 2  22584237.052   118680981.971        2196.335          43.000  
G 3  25053982.092   131659578.118       -2348.299          32.000  
G 6  20959210.846   110141400.483        1056.530          47.000  
G17  20876759.875   109708107.785        1013.500          46.000  
G19  20377731.340   107085692.230        1733.008          47.000  
C 2  37153049.065   193465676.673        1226.515          40.000  
G28  21887045.990   115017171.172       -1724.294          42.000  
G 4  24224343.371   127299792.357        1633.849          40.000  
G 9  23390814.386   122919607.330        2955.047          39.000  
C 1  37580520.330   195691630.067        1179.646          43.000  
C27  24339240.804   126740828.086        3117.920          40.000  
C 3  36117042.219   188070913.300        1194.225          45.000  
C 4  38499150.293   200475176.707        1176.538          40.000  
C10  36164396.509   188317486.021         278.563          43.000  
C13  36695902.203   191085197.211         910.182          44.000  
C14  23133553.835   120462489.217        -229.240          45.000  
C23  26013971.583   135461579.190       -1366.880          37.000  
C28  22207204.594   115638741.226        1684.944          49.000  
G12  23755484.464   124835922.172        4185.521          40.000  
G 5  23818329.643   125166107.787        4855.692          37.000  
G23  23516016.766   123577520.206        3098.999          40.000  
C 7  36979873.854   192563900.119        -117.927          42.000  
C 8  36680950.543   191007330.907         774.145          44.000  
C16  40593277.825   211379841.275        2592.173          35.000  
C 5  39169576.264   203966263.712        1215.404          37.000  
C11  25865793.304   134689940.433        -532.801          39.000  
C 6  39801265.264   207255634.329        2565.586          33.000  
> 2020  6  5  8  0  2.9990000  0 27                     
G 2  22583819.015   118678785.307        2196.726          43.000  
G 3  25054428.904   131661926.659       -2348.080          31.000  
G 6  20959009.592   110140343.631        1056.851          47.000  
G17  20876566.859   109707093.918        1013.693          46.000  
G19  20377401.164   107083958.838        1733.306          47.000  
C 2  37152813.260   193464449.745        1227.119          40.000  
G28  21887373.705   115018895.262       -1724.130          42.000  
G 4  24224032.164   127298158.383        1634.025          40.000  
G 9  23390251.982   122916652.082        2955.267          39.000  
C 1  37580293.635   195690450.079        1180.068          43.000  
C27  24338641.878   126737709.626        3118.657          40.000  
C 3  36116812.714   188069718.663        1194.713          44.000  
C 4  38498924.383   200473999.537        1177.417          40.000  
C10  36164342.989   188317207.181         278.827          43.000  
C13  36695727.195   191084286.749         910.471          44.000  
C14  23133598.124   120462718.219        -229.090          45.000  
C23  26014234.034   135462945.704       -1366.424          36.000  
C28  22206880.840   115637055.876        1685.263          49.000  
G12  23754688.245   124831736.993        4185.123          40.000  
G 5  23817405.323   125161251.968        4855.639          37.000  
G23  23515426.670   123574420.735        3099.518          41.000  
C 7  36979896.540   192564017.650        -117.507          42.000  
C 8  36680801.692   191006556.282         774.663          44.000  
C16  40592779.936   211377248.983        2592.518          36.000  
C 5  39169342.745   203965047.893        1215.824          37.000  
C11  25865895.701   134690472.827        -532.444          39.000  
C 6  39800772.208   207253067.203        2566.340          33.000  
> 2020  6  5  8  0  3.9990000  0 27                     
G 2  22583400.995   118676588.652        2196.490          43.000  
G 3  25054875.770   131664275.170       -2348.528          31.000  
G 6  20958808.531   110139286.846        1056.601          47.000  
G17  20876374.016   109706080.238        1013.381          46.000  
G19  20377071.669   107082225.646        1732.904          47.000  
C 2  37152577.595   193463222.696        1226.837          40.000  
G28  21887701.926   115020619.547       -1724.632          42.000  
G 4  24223721.550   127296524.783        1633.396          40.000  
G 9  23389689.824   122913697.031        2954.816          39.000  
C 1  37580066.991   195689269.949        1179.953          43.000  
C27  24338043.196   126734591.027        3118.349          40.000  
C 3  36116583.296   188068523.906        1194.523          44.000  
C 4  38498698.123   200472822.229        1177.307          40.000  
C10  36164289.434   188316928.365         278.595          43.000  
C13  36695552.518   191083376.132         910.597          44.000  
C14  23133642.081   120462947.592        -229.701          45.000  
C23  26014496.399   135464311.950       -1365.970          36.000  
C28  22206557.383   115635370.512        1685.136          49.000  
G12  23753891.713   124827552.048        4184.480          40.000  
G 5  23816481.037   125156396.188        4855.096          37.000  
G23  23514836.817   123571321.310        3099.103          40.000  
C 7  36979919.138   192564135.149        -117.624          42.000  
C 8  36680653.191   191005781.469         774.795          44.000  
C16  40592282.028   211374656.440        2592.532          36.000  
C 5  39169109.017   203963831.982        1215.366          37.000  
C11  25865997.995   134691005.231        -532.660          39.000  
C 6  39800279.292   207250499.803        2567.779          33.000  
> 2020  6  5  8  0  4.9990000  0 27                     
G 2  22582982.888   118674392.231        2196.073          44.000  
G 3  25055322.687   131666623.884       -2348.559          31.000  
G 6  20958607.522   110138230.347        1056.010          47.000  
G17  20876181.226   109705066.978        1012.802          46.000  
G19  20376741.999   107080492.885        1732.352          47.000  
C 2  37152341.982   193461995.773        1226.332          40.000  
G28  21888030.217   115022344.256       -1725.215          42.000  
G 4  24223410.796   127294891.743        1632.538          40.000  
G 9  23389127.351   122910742.360        2954.205          39.000  
C 1  37579840.348   195688089.927        1179.549          43.000  
C27  24337444.305   126731472.488        3118.014          40.000  
C 3  36116353.668   188067329.238        1194.412          45.000  
C 4  38498472.108   200471645.025        1177.289          40.000  
C10  36164236.036   188316649.803         278.281          43.000  
C13  36695377.597   191082465.580         910.086          44.000  
C14  23133686.230   120463177.560        -230.281          45.000  
C23  26014758.710   135465678.151       -1366.598          36.000  
C28  22206233.646   115633685.353        1684.793          49.000  
G12  23753095.337   124823367.544        4183.823          40.000  
G 5  23815557.048   125151540.601        4855.461          37.000  
G23  23514247.087   123568222.126        3098.798          40.000  
C 7  36979941.683   192564252.883        -118.311          42.000  
C 8  36680504.497   191005006.706         774.519          44.000  
C16  40591784.296   211372063.890        2592.785          36.000  
C 5  39168875.637   203962616.141        1215.245          37.000  
C11  25866100.340   134691537.844        -532.948          39.000  
C 6  39799786.131   207247932.458        2567.445          33.000  
> 2020  6  5  8  0  5.9990000  0 27                     
G 2  22582564.868   118672195.984        2196.366          43.000  
G 3  25055769.622   131668972.735       -2349.145          32.000  
G 6  20958406.408   110137174.080        1056.071          47.000  
G17  20875988.332   109704054.071        1012.735          46.000  
G19  20376412.190   107078760.499        1732.193          47.000  
C 2  37152106.369   193460768.863        1227.109          40.000  
G28  21888358.177   115024069.339       -1725.188          42.000  
G 4  24223100.322   127293259.225        1632.443          40.000  
G 9  23388564.965   122907788.051        2953.961          39.000  
C 1  37579613.687   195686909.935        1179.875          43.000  
C27  24336845.431   126728353.969        3118.493          40.000  
C 3  36116124.425   188066134.637        1194.481          44.000  
C 4  38498246.075   200470467.894        1176.843          40.000  
C10  36164182.517   188316371.446         278.389          43.000  
C13  36695202.833   191081555.076         910.481          44.000  
C14  23133730.553   120463408.064        -230.691          45.000  
C23  26015021.161   135467044.242       -1366.024          36.000  
C28  22205910.154   115632000.355        1684.856          49.000  
G12  23752299.311   124819183.447        4183.689          40.000  
G 5  23814632.867   125146685.286        4855.462          37.000  
G23  23513657.706   123565123.167        3099.048          40.000  
C 7  36979964.561   192564370.733        -117.938          42.000  
C 8  36680355.612   191004231.935         774.729          44.000  
C16  40591286.598   211369471.303        2592.587          36.000  
C 5  39168642.101   203961400.347        1215.474          37.000  
C11  25866202.755   134692070.642        -532.959          38.000  
C 6  39799293.040   207245365.075        2567.641          33.000  
> 2020  6  5  8  0  6.9990000  0 27                     
G 2  22582146.673   118669999.830        2196.118          43.000  
G 3  25056216.487   131671321.643       -2349.239          31.000  
G 6  20958205.364   110136117.940        1055.896          47.000  
G17  20875795.559   109703041.425        1012.466          46.000  
G19  20376082.591   107077028.371        1731.920          47.000  
C 2  37151870.913   193459541.924        1227.083          40.000  
G28  21888686.380   115025794.692       -1725.328          42.000  
G 4  24222789.708   127291627.131        1631.981          40.000  
G 9  23388002.806   122904833.998        2953.595          39.000  
C 1  37579387.061   195685729.915        1179.904          43.000  
C27  24336246.487   126725235.326        3118.895          40.000  
C 3  36115895.059   188064939.972        1194.681          45.000  
C 4  38498020.060   200469290.690        1177.264          40.000  
C10  36164128.944   188316093.189         278.104          43.000  
C13  36695027.790   191080644.508         910.423          44.000  
C14  23133775.017   120463638.992        -231.104          45.000  
C23  26015283.386   135468410.143       -1365.881          36.000  
C28  22205586.435   115630315.397        1685.046          49.000  
G12  23751503.162   124814999.655        4184.083          40.000  
G 5  23813708.895   125141830.076        4854.820          37.000  
G23  23513067.836   123562024.331        3098.932          40.000  
C 7  36979986.844   192564488.662        -117.812          42.000  
C 8  36680206.832   191003457.038         774.873          44.000  
C16  40590788.552   211366878.514        2592.740          36.000  
C 5  39168408.495   203960184.507        1216.005          37.000  
C11  25866304.996   134692603.476        -532.906          38.000  
C 6  39798799.845   207242797.534        2567.561          34.000  
> 2020  6  5  8  0  7.9990000  0 27                     
G 2  22581728.932   118667803.684        2196.417          44.000  
G 3  25056663.492   131673670.526       -2349.409          31.000  
G 6  20958004.355   110135061.878        1056.157          47.000  
G17  20875602.978   109702028.984        1012.502          46.000  
G19  20375753.165   107075296.462        1732.133          47.000  
C 2  37151635.109   193458314.879        1227.208          40.000  
G28  21889014.706   115027520.276       -1725.430          42.000  
G 4  24222479.112   127289995.401        1631.592          40.000  
G 9  23387440.648   122901880.111        2953.949          39.000  
C 1  37579160.348   195684549.753        1180.700          43.000  
C27  24335647.665   126722116.569        3118.978          40.000  
C 3  36115665.606   188063745.223        1194.873          45.000  
C 4  38497793.992   200468113.380        1177.747          40.000  
C10  36164075.407   188315814.985         278.331          43.000  
C13  36694853.114   191079733.813         910.900          44.000  
C14  23133819.410   120463870.310        -231.327          45.000  
C23  26015545.645   135469775.757       -1365.291          36.000  
C28  22205263.013   115628630.460        1685.030          49.000  
G12  23750706.961   124810816.165        4183.227          40.000  
G 5  23812784.749   125136974.887        4854.947          37.000  
G23  23512478.194   123558925.568        3098.956          40.000  
C 7  36980009.495   192564606.581        -117.759          42.000  
C 8  36680057.981   191002682.017         775.205          44.000  
C16  40590290.627   211364285.529        2593.286          36.000  
C 5  39168175.029   203958968.566        1216.207          37.000  
C11  25866407.359   134693136.333        -532.647          38.000  
C 6  39798307.016   207240229.792        2567.724          34.000  
> 2020  6  5  8  0  8.9990000  0 27                     
G 2  22581310.755   118665607.624        2195.980          43.000  
G 3  25057110.584   131676019.427       -2349.433          31.000  
G 6  20957803.398   110134005.951        1055.679          47.000  
G17  20875410.468   109701016.811        1011.756          46.000  
G19  20375423.583   107073564.834        1731.457          47.000  
C 2  37151399.618   193457087.781        1226.945          40.000  
G28  21889343.102   115029246.112       -1726.006          42.000  
G 4  24222168.655   127288364.090        1630.852          40.000  
G 9  23386878.681   122898926.490        2953.430          39.000  
C 1  37578933.722   195683369.571        1179.990          43.000  
C27  24335048.721   126718997.721        3118.852          40.000  
C 3  36115436.066   188062550.417        1194.581          45.000  
C 4  38497567.873   200466936.032        1177.185          40.000  
C10  36164022.027   188315536.882         277.817          43.000  
C13  36694678.088   191078823.066         910.754          44.000  
C14  23133863.943   120464102.068        -232.137          45.000  
C23  26015807.660   135471141.200       -1365.659          36.000  
C28  22204939.399   115626945.565        1684.753          49.000  
G12  23749910.829   124806632.938        4182.927          40.000  
G 5  23811860.952   125132119.795        4855.103          37.000  
G23  23511888.463   123555826.899        3098.218          40.000  
C 7  36980032.215   192564724.563        -118.147          42.000  
C 8  36679909.114   191001906.878         775.072          44.000  
C16  40589793.052   211361692.356        2593.166          36.000  
C 5  39167941.405   203957752.576        1215.933          37.000  
C11  25866509.810   134693669.293        -533.433          39.000  
C 6  39797813.872   207237661.892        2567.464          34.000  
> 2020  6  5  8  0  9.9990000  0 27                     
G 2  22580892.945   118663411.571        2195.996          43.000  
G 3  25057557.589   131678368.312       -2349.629          31.000  
G 6  20957602.546   110132950.075        1055.784          47.000  
G17  20875217.957   109700004.812        1011.859          46.000  
G19  20375093.966   107071833.398        1731.300          47.000  
C 2  37151163.831   193455860.537        1227.391          40.000  
G28  21889671.794   115030972.173       -1726.448          42.000  
G 4  24221858.320   127286733.126        1630.616          40.000  
G 9  23386316.784   122895973.065        2953.113          39.000  
C 1  37578707.061   195682189.252        1180.257          43.000  
C27  24334449.690   126715878.716        3118.998          40.000  
C 3  36115206.596   188061355.479        1194.814          44.000  
C 4  38497341.875   200465758.563        1177.557          40.000  
C10  36163968.804   188315258.776         277.773          43.000  
C13  36694503.115   191077912.170         910.800          44.000  
C14  23133908.458   120464334.168        -232.311          45.000  
C23  26016069.867   135472506.353       -1364.953          36.000  
C28  22204615.767   115625260.653        1684.882          49.000  
G12  23749114.873   124802449.969        4182.668          40.000  
G 5  23810937.242   125127264.784        4854.753          37.000  
G23  23511298.472   123552728.259        3098.578          40.000  
C 7  36980054.831   192564842.516        -118.141          42.000  
C 8  36679760.124   191001131.562         775.444          44.000  
C16  40589295.040   211359098.959        2593.568          36.000  
C 5  39167707.694   203956536.466        1216.079          37.000  
C11  25866612.155   134694202.211        -533.153          39.000  
C 6  39797320.555   207235093.724        2568.847          34.000  
> 2020  6  5  8  0 10.9990000  0 27                     
G 2  22580475.134   118661215.816        2195.714          43.000  
G 3  25058004.629   131680717.462       -2349.253          31.000  
G 6  20957401.642   110131894.577        1055.279          47.000  
G17  20875025.620   109698993.310        1011.288          46.000  
G19  20374764.558   107070102.467        1730.600          47.000  
C 2  37150928.096   193454633.497        1226.769          40.000  
G28  21890000.504   115032698.705       -1726.712          42.000  
G 4  24221548.369   127285102.809        1630.067          40.000  
G 9  23385754.957   122893020.079        2952.692          39.000  
C 1  37578480.505   195681009.121        1179.895          43.000  
C27  24333850.642   126712759.829        3118.789          40.000  
C 3  36114977.213   188060160.731        1194.547          44.000  
C 4  38497115.912   200464581.266        1177.032          40.000  
C10  36163915.336   188314981.023         277.549          43.000  
C13  36694328.211   191077001.436         910.734          44.000  
C14  23133953.201   120464566.951        -233.132          45.000  
C23  26016332.057   135473871.555       -1365.435          36.000  
C28  22204292.240   115623576.023        1684.575          49.000  
G12  23748319.090   124798267.520        4182.254          40.000  
G 5  23810013.777   125122410.074        4854.274          37.000  
G23  23510709.108   123549629.964        3098.279          40.000  
C 7  36980077.324   192564960.750        -118.436          42.000  
C 8  36679611.029   191000356.373         775.100          44.000  
C16  40588796.958   211356505.625        2593.414          36.000  
C 5  39167474.019   203955320.534        1215.485          37.000  
C11  25866714.431   134694735.434        -533.439          39.000  
C 6  39796827.447   207232525.726        2567.855          34.000  
> 2020  6  5  8  0 11.9990000  0 27                     
G 2  22580057.324   118659020.306        2195.595          43.000  
G 3  25058451.808   131683066.813       -2349.358          31.000  
G 6  20957200.877   110130839.359        1055.280          47.000  
G17  20874833.371   109697982.232        1011.144          46.000  
G19  20374435.046   107068371.963        1730.549          47.000  
C 2  37150692.378   193453406.565        1226.933          40.000  
G28  21890329.318   115034425.697       -1726.979          42.000  
G 4  24221238.506   127283473.089        1629.532          40.000  
G 9  23385193.444   122890067.528        2952.704          39.000  
C 1  37578253.879   195679829.084        1180.256          43.000  
C27  24333251.785   126709641.034        3119.021          40.000  
C 3  36114747.690   188058966.093        1194.689          44.000  
C 4  38496889.792   200463404.077        1177.490          39.000  
C10  36163861.921   188314703.540         277.413          43.000  
C13  36694153.290   191076090.798         910.724          44.000  
C14  23133997.908   120464800.308        -233.318          45.000  
C23  26016594.089   135475236.679       -1364.804          36.000  
C28  22203968.678   115621891.612        1684.620          49.000  
G12  23747523.221   124794085.532        4182.673          40.000  
G 5  23809090.084   125117555.650        4853.927          37.000  
G23  23510119.674   123546531.940        3098.126          40.000  
C 7  36980100.009   192565079.194        -118.205          42.000  
C 8  36679462.283   190999581.226         775.291          44.000  
C16  40588299.034   211353912.287        2593.697          36.000  
C 5  39167240.517   203954104.715        1215.966          37.000  
C11  25866816.864   134695268.885        -533.123          39.000  
C 6  39796334.199   207229957.691        2568.533          34.000  
> 2020  6  5  8  0 12.9990000  0 27                     
G 2  22579639.635   118656825.104        2194.998          43.000  
G 3  25058898.987   131685416.444       -2349.688          31.000  
G 6  20956999.816   110129784.511        1054.765          47.000  
G17  20874640.983   109696971.641        1010.365          46.000  
G19  20374105.813   107066641.957        1729.684          47.000  
C 2  37150456.783   193452179.811        1226.592          40.000  
G28  21890657.993   115036153.165       -1727.824          42.000  
G 4  24220928.764   127281844.009        1628.798          40.000  
G 9  23384631.547   122887115.457        2951.910          39.000  
C 1  37578027.165   195678649.213        1179.729          43.000  
C27  24332652.876   126706522.366        3118.628          40.000  
C 3  36114518.080   188057771.631        1194.427          44.000  
C 4  38496663.707   200462227.062        1177.026          40.000  
C10  36163808.628   188314426.364         277.025          43.000  
C13  36693978.509   191075180.327         910.306          44.000  
C14  23134042.947   120465034.351        -234.513          45.000  
C23  26016856.157   135476601.868       -1365.124          36.000  
C28  22203645.308   115620207.493        1683.920          49.000  
G12  23746727.665   124789904.158        4180.977          40.000  
G 5  23808166.706   125112701.536        4853.896          38.000  
G23  23509530.136   123543434.250        3097.473          40.000  
C 7  36980122.642   192565197.935        -118.646          42.000  
C 8  36679313.415   190998806.194         775.043          44.000  
C16  40587800.882   211351319.003        2593.345          36.000  
C 5  39167007.260   203952889.067        1215.012          37.000  
C11  25866919.506   134695802.652        -533.931          39.000  
C 6  39795841.352   207227389.768        2567.467          34.000  
> 2020  6  5  8  0 13.9990000  0 27                     
G 2  22579221.912   118654630.154        2194.935          43.000  
G 3  25059346.166   131687766.328       -2350.638          31.000  
G 6  20956799.260   110128729.981        1054.548          47.000  
G17  20874448.646   109695961.490        1010.013          46.000  
G19  20373776.719   107064912.401        1729.546          47.000  
C 2  37150221.414   193450953.181        1226.545          40.000  
G28  21890986.511   115037881.100       -1727.945          42.000  
G 4  24220618.814   127280215.520        1628.617          40.000  
G 9  23384069.737   122884163.807        2951.782          39.000  
C 1  37577800.644   195677469.474        1180.008          43.000  
C27  24332054.107   126703403.793        3118.684          40.000  
C 3  36114288.906   188056577.301        1194.480          44.000  
C 4  38496437.744   200461050.175        1176.965          40.000  
C10  36163755.457   188314149.479         276.953          43.000  
C13  36693803.588   191074269.953         910.437          44.000  
C14  23134087.847   120465268.983        -234.588          45.000  
C23  26017118.154   135477966.987       -1364.843          36.000  
C28  22203322.078   115618523.594        1683.911          49.000  
G12  23745932.197   124785723.212        4181.055          40.000  
G 5  23807243.188   125107847.754        4853.725          38.000  
G23  23508940.720   123540336.847        3097.430          40.000  
C 7  36980145.694   192565316.921        -119.164          42.000  
C 8  36679164.687   190998031.246         774.904          44.000  
C16  40587302.748   211348725.759        2593.108          36.000  
C 5  39166773.706   203951673.525        1215.834          37.000  
C11  25867022.008   134696336.625        -533.875          39.000  
C 6  39795348.366   207224821.849        2567.725          34.000  
> 2020  6  5  8  0 14.9990000  0 27                     
G 2  22578804.450   118652435.493        2194.308          43.000  
G 3  25059793.450   131690116.339       -2349.339          31.000  
G 6  20956598.548   110127675.782        1054.200          47.000  
G17  20874256.572   109694951.814        1009.434          46.000  
G19  20373447.660   107063183.348        1728.825          47.000  
C 2  37149985.993   193449726.697        1226.613          40.000  
G28  21891315.360   115039609.507       -1728.617          42.000  
G 4  24220309.160   127278587.687        1627.548          40.000  
G 9  23383507.892   122881212.624        2950.635          39.000  
C 1  37577574.420   195676289.909        1179.467          43.000  
C27  24331455.233   126700285.337        3118.442          40.000  
C 3  36114059.314   188055383.137        1194.014          44.000  
C 4  38496211.764   200459873.462        1176.508          40.000  
C10  36163702.531   188313872.919         276.450          43.000  
C13  36693628.841   191073359.741         910.044          44.000  
C14  23134133.217   120465504.282        -235.710          45.000  
C23  26017380.466   135479332.134       -1364.992          36.000  
C28  22202998.795   115616839.961        1683.499          49.000  
G12  23745136.677   124781542.819        4180.040          40.000  
G 5  23806319.566   125102994.253        4853.452          38.000  
G23  23508351.130   123537239.769        3096.783          40.000  
C 7  36980168.397   192565436.158        -119.426          42.000  
C 8  36679015.924   190997256.408         774.767          44.000  
C16  40586804.719   211346132.529        2593.211          36.000  
C 5  39166540.467   203950458.165        1215.341          37.000  
C11  25867124.424   134696870.895        -534.253          39.000  
C 6  39794855.153   207222253.992        2567.542          34.000  
> 2020  6  5  8  0 15.9990000  0 27                     
G 2  22578386.971   118650241.011        2194.389          44.000  
G 3  25060240.734   131692466.614       -2350.617          31.000  
G 6  20956398.097   110126621.833        1053.873          47.000  
G17  20874064.672   109693942.490        1009.136          46.000  
G19  20373118.706   107061454.654        1728.538          47.000  
C 2  37149750.555   193448500.270        1226.498          40.000  
G28  21891644.367   115041338.296       -1728.966          42.000  
G 4  24219999.261   127276960.365        1627.102          40.000  
G 9  23382946.152   122878261.764        2950.792          39.000  
C 1  37577347.863   195675110.377        1179.448          43.000  
C27  24330856.463   126697166.889        3118.482          40.000  
C 3  36113830.193   188054189.028        1193.933          44.000  
C 4  38495985.696   200458696.783        1176.678          40.000  
C10  36163649.569   188313596.568         276.133          43.000  
C13  36693453.955   191072449.560         910.323          44.000  
C14  23134178.535   120465740.104        -236.086          45.000  
C23  26017642.708   135480697.182       -1365.165          36.000  
C28  22202675.530   115615156.488        1683.435          49.000  
G12  23744341.278   124777362.846        4179.564          40.000  
G 5  23805396.100   125098140.993        4852.970          38.000  
G23  23507761.923   123534142.885        3097.314          40.000  
C 7  36980191.483   192565555.547        -119.515          42.000  
C 8  36678867.231   190996481.540         774.802          44.000  
C16  40586306.725   211343539.222        2593.544          35.000  
C 5  39166307.070   203949242.862        1215.073          37.000  
C11  25867226.944   134697405.335        -534.657          39.000  
C 6  39794362.289   207219686.109        2567.786          34.000  
> 2020  6  5  8  0 16.9990000  0 27                     
G 2  22577969.143   118648046.347        2194.542          44.000  
G 3  25060687.791   131694816.584       -2348.993          31.000  
G 6  20956197.734   110125567.730        1054.139          47.000  
G17  20873872.632   109692933.174        1009.102          46.000  
G19  20372789.752   107059725.962        1728.563          47.000  
C 2  37149514.855   193447273.529        1226.778          40.000  
G28  21891973.286   115043067.094       -1728.986          42.000  
G 4  24219689.747   127275333.198        1626.827          40.000  
G 9  23382384.691   122875310.906        2950.830          39.000  
C 1  37577121.255   195673930.535        1179.634          43.000  
C27  24330257.520   126694048.101        3118.805          40.000  
C 3  36113601.001   188052994.584        1194.449          44.000  
C 4  38495759.594   200457519.777        1177.118          40.000  
C10  36163596.364   188313320.038         276.505          43.000  
C13  36693279.261   191071539.023         910.512          44.000  
C14  23134224.028   120465976.103        -236.398          45.000  
C23  26017904.740   135482061.765       -1364.389          36.000  
C28  22202352.142   115613472.807        1683.635          49.000  
G12  23743545.758   124773182.877        4179.908          40.000  
G 5  23804472.757   125093287.541        4853.416          38.000  
G23  23507172.752   123531045.859        3097.083          40.000  
C 7  36980214.674   192565674.727        -119.239          42.000  
C 8  36678718.223   190995706.293         775.238          44.000  
C16  40585808.643   211340945.500        2594.093          35.000  
C 5  39166073.743   203948027.203        1215.902          37.000  
C11  25867329.656   134697939.567        -534.296          39.000  
C 6  39793868.919   207217117.741        2568.980          34.000  
> 2020  6  5  8  0 17.9990000  0 27                     
G 2  22577551.682   118645851.678        2194.835          44.000  
G 3  25061135.128   131697166.602       -2350.059          31.000  
G 6  20955997.126   110124513.696        1054.074          47.000  
G17  20873680.662   109691924.036        1008.893          47.000  
G19  20372460.885   107057997.470        1728.498          47.000  
C 2  37149279.364   193446046.667        1227.119          40.000  
G28  21892302.170   115044796.073       -1728.892          42.000  
G 4  24219380.005   127273706.357        1627.012          40.000  
G 9  23381823.283   122872360.221        2950.776          39.000  
C 1  37576894.699   195672750.559        1180.168          43.000  
C27  24329658.768   126690929.130        3118.990          40.000  
C 3  36113371.601   188051800.023        1194.661          44.000  
C 4  38495533.491   200456342.640        1177.673          40.000  
C10  36163543.280   188313043.539         276.543          43.000  
C13  36693104.375   191070628.376         910.702          44.000  
C14  23134269.207   120466212.450        -236.432          45.000  
C23  26018166.982   135483426.061       -1363.876          36.000  
C28  22202028.877   115611789.098        1683.826          49.000  
G12  23742750.290   124769003.159        4179.637          40.000  
G 5  23803549.204   125088434.142        4853.482          38.000  
G23  23506583.493   123527948.869        3096.887          40.000  
C 7  36980237.656   192565793.886        -119.299          42.000  
C 8  36678569.408   190994930.865         775.649          44.000  
C16  40585310.544   211338351.525        2594.765          35.000  
C 5  39165840.399   203946811.463        1215.632          37.000  
C11  25867432.420   134698473.771        -533.948          39.000  
C 6  39793375.933   207214549.237        2568.789          34.000  
> 2020  6  5  8  0 18.9990000  0 27                     
G 2  22577134.220   118643657.045        2194.363          44.000  
G 3  25061582.255   131699516.512       -2349.981          31.000  
G 6  20955796.501   110123459.744        1053.677          47.000  
G17  20873488.693   109690915.096        1008.638          47.000  
G19  20372131.931   107056269.190        1727.971          47.000  
C 2  37149043.751   193444819.706        1226.833          40.000  
G28  21892631.473   115046525.276       -1729.498          42.000  
G 4  24219070.456   127272079.920        1626.016          40.000  
G 9  23381261.805   122869409.723        2950.441          39.000  
C 1  37576667.741   195671570.478        1180.177          43.000  
C27  24329059.911   126687810.031        3118.918          40.000  
C 3  36113142.218   188050605.366        1194.485          45.000  
C 4  38495307.441   200455165.416        1177.417          40.000  
C10  36163490.040   188312767.066         276.235          43.000  
C13  36692929.367   191069717.616         910.645          44.000  
C14  23134314.350   120466449.198        -237.184          45.000  
C23  26018429.137   135484790.110       -1364.207          37.000  
C28  22201705.524   115610105.396        1683.537          49.000  
G12  23741954.787   124764823.726        4179.146          40.000  
G 5  23802625.459   125083580.795        4853.273          37.000  
G23  23505994.199   123524851.912        3097.119          40.000  
C 7  36980260.586   192565913.022        -119.282          42.000  
C 8  36678420.278   190994155.318         775.354          44.000  
C16  40584812.463   211335757.372        2593.660          35.000  
C 5  39165606.845   203945595.614        1215.232          37.000  
C11  25867535.149   134699008.024        -534.544          39.000  
C 6  39792882.720   207211980.526        2568.078          34.000  
> 2020  6  5  8  0 19.9990000  0 27                     
G 2  22576716.427   118641462.539        2194.319          44.000  
G 3  25062029.329   131701866.610       -2350.321          32.000  
G 6  20955595.841   110122405.977        1053.418          47.000  
G17  20873296.827   109689906.480        1008.328          47.000  
G19  20371803.169   107054541.245        1727.600          47.000  
C 2  37148808.086   193443592.757        1226.662          40.000  
G28  21892960.602   115048254.824       -1729.931          42.000  
G 4  24218761.064   127270453.941        1625.618          40.000  
G 9  23380700.553   122866459.562        2949.705          39.000  
C 1  37576440.941   195670390.402        1180.040          43.000  
C27  24328461.020   126684690.881        3118.996          40.000  
C 3  36112912.765   188049410.721        1194.462          45.000  
C 4  38495081.496   200453988.221        1176.947          40.000  
C10  36163436.973   188312490.771         275.940          43.000  
C13  36692754.603   191068806.820         910.764          44.000  
C14  23134360.105   120466686.424        -237.610          45.000  
C23  26018691.187   135486153.996       -1363.808          37.000  
C28  22201382.172   115608421.807        1683.356          49.000  
G12  23741159.423   124760644.611        4179.390          40.000  
G 5  23801701.941   125078727.623        4852.812          37.000  
G23  23505404.713   123521755.152        3096.753          40.000  
C 7  36980283.446   192566032.290        -119.562          42.000  
C 8  36678271.288   190993379.701         775.432          44.000  
C16  40584314.224   211333163.056        2594.431          35.000  
C 5  39165373.431   203944379.735        1215.850          37.000  
C11  25867637.722   134699542.392        -534.463          39.000  
C 6  39792389.647   207209411.689        2568.508          34.000  
> 2020  6  5  8  0 20.9990000  0 27                     
G 2  22576299.070   118639268.314        2194.589          44.000  
G 3  25062476.509   131704216.938       -2349.998          32.000  
G 6  20955395.268   110121352.540        1053.709          47.000  
G17  20873104.892   109688898.335        1008.288          47.000  
G19  20371474.407   107052813.774        1727.810          47.000  
C 2  37148572.648   193442365.935        1227.133          40.000  
G28  21893289.975   115049984.810       -1729.797          42.000  
G 4  24218451.776   127268828.588        1625.565          40.000  
G 9  23380139.389   122863509.833        2949.643          39.000  
C 1  37576214.507   195669210.475        1180.448          43.000  
C27  24327861.866   126681571.856        3119.636          40.000  
C 3  36112683.242   188048216.213        1194.999          44.000  
C 4  38494855.568   200452811.162        1177.472          40.000  
C10  36163383.872   188312214.769         276.329          43.000  
C13  36692579.664   191067896.155         911.000          44.000  
C14  23134405.755   120466924.284        -237.608          45.000  
C23  26018953.045   135487517.911       -1363.453          37.000  
C28  22201058.784   115606738.473        1683.674          49.000  
G12  23740364.391   124756466.067        4178.862          40.000  
G 5  23800778.424   125073874.739        4853.395          37.000  
G23  23504815.332   123518658.697        3096.631          40.000  
C 7  36980306.480   192566151.804        -119.152          42.000  
C 8  36678122.351   190992604.168         775.951          44.000  
C16  40583815.846   211330568.820        2594.631          35.000  
C 5  39165139.930   203943164.017        1216.146          37.000  
C11  25867740.556   134700077.026        -534.341          39.000  
C 6  39791896.294   207206842.908        2569.094          34.000  
> 2020  6  5  8  0 21.9990000  0 27                     
G 2  22575881.469   118637074.348        2194.489          44.000  
G 3  25062923.775   131706567.413       -2349.868          32.000  
G 6  20955194.870   110120299.433        1053.209          47.000  
G17  20872913.027   109687890.638        1007.632          47.000  
G19  20371145.819   107051086.768        1727.085          47.000  
C 2  37148337.035   193441139.256        1227.035          40.000  
G28  21893619.662   115051715.285       -1730.429          42.000  
G 4  24218142.802   127267203.860        1624.456          40.000  
G 9  23379578.661   122860560.530        2949.336          39.000  
C 1  37575988.020   195668030.696        1179.878          43.000  
C27  24327262.923   126678452.942        3119.244          40.000  
C 3  36112453.946   188047021.863        1194.473          44.000  
C 4  38494629.675   200451634.241        1177.203          40.000  
C10  36163331.016   188311939.066         275.795          43.000  
C13  36692404.813   191066985.620         910.668          44.000  
C14  23134451.701   120467162.781        -238.547          45.000  
C23  26019215.217   135488881.780       -1363.157          37.000  
C28  22200735.589   115605055.383        1683.445          49.000  
G12  23739569.132   124752288.007        4178.204          40.000  
G 5  23799855.098   125069022.186        4852.825          37.000  
G23  23504226.404   123515562.535        3096.210          40.000  
C 7  36980329.619   192566271.572        -119.475          42.000  
C 8  36677973.466   190991828.749         775.700          44.000  
C16  40583317.555   211327974.580        2595.053          35.000  
C 5  39164906.516   203941948.460        1215.745          37.000  
C11  25867843.285   134700611.921        -534.562          38.000  
C 6  39791402.994   207204274.205        2568.455          34.000  
> 2020  6  5  8  0 22.9990000  0 27                     
G 2  22575464.112   118634880.501        2193.495          44.000  
G 3  25063371.234   131708918.032       -2351.146          32.000  
G 6  20954994.594   110119246.457        1052.725          47.000  
G17  20872721.424   109686883.199        1007.146          47.000  
G19  20370817.302   107049360.033        1726.555          47.000  
C 2  37148101.213   193439912.531        1226.653          40.000  
G28  21893949.226   115053446.024       -1731.087          42.000  
G 4  24217833.619   127265579.538        1623.898          40.000  
G 9  23379017.654   122857611.507        2948.875          39.000  
C 1  37575761.377   195666850.857        1179.646          43.000  
C27  24326664.049   126675333.943        3118.646          40.000  
C 3  36112224.598   188045827.450        1194.333          45.000  
C 4  38494403.520   200450457.257        1177.258          40.000  
C10  36163278.072   188311663.462         275.444          43.000  
C13  36692229.857   191066075.036         910.494          44.000  
C14  23134497.595   120467401.697        -239.303          46.000  
C23  26019477.371   135490245.456       -1363.858          37.000  
C28  22200412.568   115603372.359        1682.842          49.000  
G12  23738774.066   124748110.250        4177.681          40.000  
G 5  23798931.807   125064169.742        4852.118          37.000  
G23  23503637.041   123512466.483        3095.770          40.000  
C 7  36980352.304   192566391.404        -120.084          42.000  
C 8  36677824.702   190991053.197         775.583          44.000  
C16  40582819.508   211325380.188        2594.476          35.000  
C 5  39164672.979   203940732.846        1215.618          37.000  
C11  25867945.962   134701146.886        -535.271          38.000  
C 6  39790909.798   207201705.275        2569.346          34.000  
> 2020  6  5  8  0 23.9990000  0 27                     
G 2  22575046.930   118632686.692        2193.372          44.000  
G 3  25063818.762   131711268.614       -2351.102          32.000  
G 6  20954794.265   110118193.604        1052.490          47.000  
G17  20872529.821   109685876.023        1006.748          47.000  
G19  20370488.801   107047633.577        1725.962          47.000  
C 2  37147865.896   193438685.795        1226.317          40.000  
G28  21894278.564   115055177.017       -1731.519          42.000  
G 4  24217524.471   127263955.637        1623.245          40.000  
G 9  23378456.892   122854662.738        2948.141          39.000  
C 1  37575535.065   195665670.966        1179.452          43.000  
C27  24326065.018   126672214.840        3118.685          40.000  
C 3  36111995.197   188044632.987        1194.220          44.000  
C 4  38494177.505   200449280.245        1176.526          40.000  
C10  36163225.163   188311387.972         275.088          43.000  
C13  36692054.727   191065164.381         910.349          44.000  
C14  23134543.454   120467641.036        -239.895          46.000  
C23  26019739.055   135491608.907       -1363.123          36.000  
C28  22200089.338   115601689.378        1682.583          49.000  
G12  23737979.051   124743932.835        4176.257          40.000  
G 5  23798008.271   125059317.391        4851.482          37.000  
G23  23503047.974   123509370.539        3095.556          40.000  
C 7  36980375.478   192566511.257        -120.213          42.000  
C 8  36677675.625   190990277.549         775.271          44.000  
C16  40582321.200   211322785.617        2594.516          35.000  
C 5  39164439.513   203939517.172        1215.236          37.000  
C11  25868048.779   134701681.907        -535.311          39.000  
C 6  39790416.306   207199136.299        2568.338          34.000  
> 2020  6  5  8  0 24.9990000  0 27                     
G 2  22574629.591   118630493.560        2193.019          44.000  
G 3  25064265.994   131713619.860       -2351.501          33.000  
G 6  20954593.989   110117141.494        1051.718          47.000  
G17  20872338.304   109684869.702        1005.974          47.000  
G19  20370160.109   107045907.972        1725.193          47.000  
C 2  37147630.371   193437459.540        1225.919          40.000  
G28  21894608.147   115056908.874       -1732.144          42.000  
G 4  24217215.498   127262332.747        1622.500          40.000  
G 9  23377895.972   122851714.797        2947.402          39.000  
C 1  37575308.334   195664491.604        1179.205          43.000  
C27  24325466.370   126669096.232        3118.405          41.000  
C 3  36111765.849   188043439.076        1193.613          44.000  
C 4  38493951.699   200448103.754        1176.227          40.000  
C10  36163172.515   188311113.159         274.580          43.000  
C13  36691880.033   191064254.236         910.031          44.000  
C14  23134589.558   120467881.410        -240.791          45.000  
C23  26020001.087   135492972.788       -1363.990          37.000  
C28  22199766.369   115600007.041        1682.034          49.000  
G12  23737184.368   124739756.266        4176.201          40.000  
G 5  23797085.242   125054465.720        4851.365          37.000  
G23  23502459.046   123506275.295        3095.392          40.000  
C 7  36980398.600   192566631.750        -120.609          42.000  
C 8  36677526.740   190989502.362         774.943          44.000  
C16  40581822.891   211320191.509        2593.643          35.000  
C 5  39164206.238   203938302.042        1214.681          37.000  
C11  25868151.596   134702217.599        -536.170          39.000  
C 6  39789923.006   207196567.699        2568.589          34.000  
> 2020  6  5  8  0 25.9990000  0 27                     
G 2  22574212.251   118628300.709        2192.739          44.000  
G 3  25064713.714   131715971.324       -2351.287          32.000  
G 6  20954393.661   110116089.695        1051.688          47.000  
G17  20872146.893   109683863.849        1005.640          46.000  
G19  20369831.992   107044182.850        1724.934          47.000  
C 2  37147395.002   193436233.464        1226.103          40.000  
G28  21894937.799   115058641.211       -1732.405          42.000  
G 4  24216906.873   127260710.489        1622.051          40.000  
G 9  23377334.878   122848767.283        2947.253          39.000  
C 1  37575081.761   195663312.384        1179.304          43.000  
C27  24324867.653   126665977.739        3118.325          41.000  
C 3  36111536.588   188042245.293        1193.772          44.000  
C 4  38493725.631   200446927.400        1176.453          40.000  
C10  36163119.798   188310838.654         274.479          43.000  
C13  36691705.391   191063344.234         909.973          44.000  
C14  23134635.731   120468122.422        -241.296          45.000  
C23  26020262.910   135494336.645       -1363.829          37.000  
C28  22199443.418   115598324.962        1682.017          49.000  
G12  23736389.807   124735580.236        4175.801          40.000  
G 5  23796162.108   125049614.358        4851.461          38.000  
G23  23501870.363   123503180.364        3094.788          40.000  
C 7  36980421.861   192566752.523        -120.809          42.000  
C 8  36677377.802   190988727.278         775.116          44.000  
C16  40581324.670   211317597.391        2593.714          35.000  
C 5  39163973.261   203937087.062        1214.899          37.000  
C11  25868254.535   134702753.544        -536.027          39.000  
C 6  39789429.880   207193999.157        2568.516          34.000  
> 2020  6  5  8  0 26.9990000  0 27                     
G 2  22573794.982   118626108.020        2192.569          44.000  
G 3  25065161.521   131718322.908       -2350.778          32.000  
G 6  20954193.681   110115038.144        1051.232          47.000  
G17  20871955.499   109682858.349        1005.201          47.000  
G19  20369503.736   107042458.098        1724.493          47.000  
C 2  37147159.459   193435007.406        1226.068          40.000  
G28  21895267.695   115060373.904       -1732.913          42.000  
G 4  24216598.214   127259088.746        1621.505          40.000  
G 9  23376773.609   122845820.123        2947.301          39.000  
C 1  37574855.239   195662133.208        1179.258          43.000  
C27  24324269.094   126662859.249        3118.397          41.000  
C 3  36111307.223   188041051.575        1193.636          44.000  
C 4  38493499.860   200445751.102        1176.135          40.000  
C10  36163067.151   188310564.324         274.266          43.000  
C13  36691530.644   191062434.239         909.895          44.000  
C14  23134682.096   120468363.956        -241.625          45.000  
C23  26020524.733   135495700.362       -1363.523          37.000  
C28  22199120.257   115596643.026        1681.814          49.000  
G12  23735595.474   124731404.628        4175.167          40.000  
G 5  23795239.201   125044763.229        4851.014          38.000  
G23  23501281.628   123500085.632        3094.818          41.000  
C 7  36980445.174   192566873.427        -121.063          42.000  
C 8  36677229.039   190987952.161         775.148          44.000  
C16  40580826.310   211315003.194        2594.364          35.000  
C 5  39163740.073   203935872.106        1215.314          37.000  
C11  25868357.491   134703289.647        -536.078          39.000  
C 6  39788936.685   207191430.570        2568.260          33.000  
> 2020  6  5  8  0 27.9990000  0 27                     
G 2  22573377.607   118623915.188        2192.766          44.000  
G 3  25065609.154   131720674.403       -2351.705          33.000  
G 6  20953993.335   110113986.470        1051.785          47.000  
G17  20871764.175   109681852.861        1005.432          46.000  
G19  20369175.568   107040733.385        1724.546          47.000  
C 2  37146923.916   193433781.080        1226.536          40.000  
G28  21895597.522   115062106.637       -1732.778          42.000  
G 4  24216289.642   127257467.177        1621.743          40.000  
G 9  23376212.480   122842872.988        2947.019          39.000  
C 1  37574628.701   195660953.765        1179.364          43.000  
C27  24323670.272   126659740.431        3118.963          41.000  
C 3  36111078.031   188039857.564        1194.061          44.000  
C 4  38493273.985   200444574.523        1176.532          40.000  
C10  36163014.259   188310289.890         274.365          43.000  
C13  36691355.846   191061523.983         910.272          44.000  
C14  23134728.549   120468605.707        -241.852          45.000  
C23  26020786.347   135497063.679       -1363.321          37.000  
C28  22198797.149   115594960.911        1682.115          49.000  
G12  23734801.000   124727229.070        4175.674          41.000  
G 5  23794316.294   125039911.938        4851.293          38.000  
G23  23500692.840   123496990.787        3095.081          41.000  
C 7  36980468.593   192566994.165        -120.752          42.000  
C 8  36677080.241   190987176.715         775.565          44.000  
C16  40580328.071   211312408.636        2594.778          35.000  
C 5  39163506.764   203934656.910        1214.797          37.000  
C11  25868460.116   134703825.597        -535.989          39.000  
C 6  39788443.472   207188861.589        2569.242          34.000  
> 2020  6  5  8  0 28.9990000  0 27                     
G 2  22572960.582   118621722.429        2192.654          44.000  
G 3  25066056.299   131723025.815       -2351.553          33.000  
G 6  20953793.338   110112934.946        1051.531          47.000  
G17  20871572.903   109680847.649        1005.159          46.000  
G19  20368847.312   107039008.934        1724.378          47.000  
C 2  37146688.356   193432554.720        1226.293          40.000  
G28  21895927.069   115063839.658       -1733.330          42.000  
G 4  24215981.261   127255846.064        1620.784          40.000  
G 9  23375651.612   122839926.104        2946.616          39.000  
C 1  37574402.110   195659774.252        1179.416          43.000  
C27  24323071.433   126656621.540        3118.925          41.000  
C 3  36110848.666   188038663.512        1194.060          45.000  
C 4  38493047.952   200443397.897        1176.544          40.000  
C10  36162961.734   188310015.548         274.406          43.000  
C13  36691181.064   191060613.650         910.287          44.000  
C14  23134775.019   120468847.874        -242.452          45.000  
C23  26021048.170   135498426.799       -1363.124          36.000  
C28  22198474.093   115593278.868        1681.943          49.000  
G12  23734006.404   124723053.864        4174.853          41.000  
G 5  23793393.299   125035060.771        4851.353          38.000  
G23  23500103.860   123493896.051        3094.757          41.000  
C 7  36980491.767   192567114.945        -120.660          42.000  
C 8  36676931.286   190986401.174         775.467          44.000  
C16  40579829.640   211309813.853        2595.867          35.000  
C 5  39163273.297   203933441.621        1215.155          37.000  
C11  25868562.932   134704361.617        -536.276          39.000  
C 6  39787950.259   207186292.493        2568.736          34.000  
> 2020  6  5  8  0 29.9990000  0 27                     
G 2  22572543.434   118619529.905        2192.730          44.000  
G 3  25066503.809   131725377.485       -2351.659          32.000  
G 6  20953593.359   110111883.723        1051.204          46.000  
G17  20871381.666   109679842.870        1004.639          46.000  
G19  20368519.370   107037284.935        1723.950          47.000  
C 2  37146452.848   193431328.449        1226.208          40.000  
G28  21896256.861   115065573.091       -1733.620          42.000  
G 4  24215672.794   127254225.518        1620.211          40.000  
G 9  23375091.233   122836979.657        2946.270          39.000  
C 1  37574175.763   195658594.844        1179.478          43.000  
C27  24322472.384   126653502.717        3119.029          41.000  
C 3  36110619.492   188037469.583        1193.918          45.000  
C 4  38492821.937   200442221.380        1176.672          40.000  
C10  36162909.087   188309741.488         274.070          43.000  
C13  36691006.248   191059703.437         910.246          44.000  
C14  23134821.593   120469090.656        -243.037          45.000  
C23  26021309.766   135499789.886       -1363.208          36.000  
C28  22198151.142   115591597.036        1681.874          49.000  
G12  23733212.088   124718879.133        4174.479          41.000  
G 5  23792470.096   125030209.915        4850.657          38.000  
G23  23499515.020   123490801.578        3094.647          40.000  
C 7  36980514.888   192567235.958        -121.136          42.000  
C 8  36676782.436   190985625.679         775.447          44.000  
C16  40579331.280   211307219.154        2594.724          35.000  
C 5  39163039.866   203932226.469        1214.501          37.000  
C11  25868665.836   134704897.853        -536.366          39.000  
C 6  39787456.906   207183723.382        2569.325          34.000  
> 2020  6  5  8  0 30.9990000  0 27                     
G 2  22572126.444   118617337.482        2192.421          44.000  
G 3  25066951.163   131727729.193       -2351.836          32.000  
G 6  20953393.222   110110832.632        1051.078          46.000  
G17  20871190.447   109678838.363        1004.400          46.000  
G19  20368191.602   107035561.225        1723.544          47.000  
C 2  37146217.322   193430102.147        1226.407          40.000  
G28  21896586.879   115067306.813       -1733.526          42.000  
G 4  24215364.623   127252605.409        1619.838          40.000  
G 9  23374530.732   122834033.476        2945.845          39.000  
C 1  37573949.451   195657415.430        1179.510          43.000  
C27  24321873.632   126650383.824        3118.994          41.000  
C 3  36110390.161   188036275.609        1193.976          44.000  
C 4  38492596.096   200441044.840        1176.752          40.000  
C10  36162856.562   188309467.517         273.888          43.000  
C13  36690831.379   191058793.157         910.434          44.000  
C14  23134868.395   120469333.878        -243.479          45.000  
C23  26021571.607   135501152.777       -1363.157          36.000  
C28  22197828.313   115589915.281        1681.663          49.000  
G12  23732417.946   124714704.731        4174.015          41.000  
G 5  23791546.944   125025359.138        4850.773          38.000  
G23  23498926.023   123487707.276        3094.305          41.000  
C 7  36980538.079   192567357.020        -121.038          42.000  
C 8  36676633.324   190984850.084         775.816          44.000  
C16  40578833.041   211304624.256        2595.051          35.000  
C 5  39162806.469   203931011.255        1215.260          37.000  
C11  25868768.932   134705434.194        -536.182          38.000  
C 6  39786963.589   207181154.154        2569.062          33.000  
> 2020  6  5  8  0 31.9990000  0 27                     
G 2  22571709.000   118615145.108        2192.136          44.000  
G 3  25067398.831   131730080.947       -2352.205          32.000  
G 6  20953193.278   110109781.651        1050.757          46.000  
G17  20870999.402   109677834.080        1003.974          46.000  
G19  20367863.643   107033837.752        1723.161          47.000  
C 2  37145981.936   193428875.729        1226.696          40.000  
G28  21896916.601   115069040.777       -1734.175          42.000  
G 4  24215056.330   127250985.699        1619.218          40.000  
G 9  23373970.371   122831087.480        2945.638          39.000  
C 1  37573722.947   195656235.914        1179.237          43.000  
C27  24321274.584   126647264.812        3119.097          41.000  
C 3  36110160.970   188035081.559        1193.834          45.000  
C 4  38492370.186   200439868.205        1176.654          40.000  
C10  36162803.967   188309193.640         273.700          43.000  
C13  36690656.755   191057882.785         910.135          44.000  
C14  23134915.231   120469577.492        -243.874          45.000  
C23  26021833.186   135502515.411       -1362.810          37.000  
C28  22197505.274   115588233.544        1681.546          49.000  
G12  23731623.699   124710530.595        4173.796          41.000  
G 5  23790623.758   125020508.424        4850.609          38.000  
G23  23498337.200   123484612.984        3094.446          41.000  
C 7  36980561.637   192567478.107        -121.323          42.000  
C 8  36676484.613   190984074.369         775.716          44.000  
C16  40578334.645   211302029.176        2594.898          35.000  
C 5  39162572.793   203929795.962        1215.538          37.000  
C11  25868872.115   134705970.583        -536.526          39.000  
C 6  39786470.027   207178584.731        2569.721          33.000  
> 2020  6  5  8  0 32.9990000  0 27                     
G 2  22571291.975   118612953.005        2191.989          44.000  
G 3  25067846.272   131732432.894       -2352.092          32.000  
G 6  20952993.246   110108730.995        1050.455          46.000  
G17  20870808.182   109676830.262        1003.640          46.000  
G19  20367535.614   107032114.752        1722.697          47.000  
C 2  37145746.428   193427649.513        1226.115          40.000  
G28  21897246.358   115070775.211       -1734.494          42.000  
G 4  24214748.159   127249366.586        1619.056          40.000  
G 9  23373410.097   122828141.956        2945.347          39.000  
C 1  37573496.531   195655056.538        1179.291          43.000  
C27  24320675.500   126644145.909        3118.673          41.000  
C 3  36109931.692   188033887.655        1193.916          45.000  
C 4  38492144.083   200438691.725        1176.794          40.000  
C10  36162751.477   188308920.034         273.326          43.000  
C13  36690482.078   191056972.541         910.110          44.000  
C14  23134962.068   120469821.759        -244.563          45.000  
C23  26022095.166   135503878.034       -1362.816          37.000  
C28  22197182.253   115586552.068        1681.362          49.000  
G12  23730829.208   124706356.976        4173.473          41.000  
G 5  23789700.851   125015658.072        4849.999          38.000  
G23  23497748.552   123481519.060        3093.713          41.000  
C 7  36980584.968   192567599.457        -121.539          42.000  
C 8  36676335.693   190983298.747         775.462          44.000  
C16  40577836.110   211299434.131        2595.081          35.000  
C 5  39162339.536   203928580.853        1214.872          37.000  
C11  25868975.002   134706507.205        -536.778          38.000  
C 6  39785976.622   207176015.367        2569.484          33.000  
> 2020  6  5  8  0 33.9990000  0 27                     
G 2  22570875.019   118610761.062        2191.550          44.000  
G 3  25068293.940   131734784.936       -2351.833          32.000  
G 6  20952793.388   110107680.550        1050.170          46.000  
G17  20870617.277   109675826.778        1003.156          46.000  
G19  20367207.741   107030392.094        1722.249          47.000  
C 2  37145511.112   193426423.295        1226.262          40.000  
G28  21897576.167   115072509.993       -1735.069          42.000  
G 4  24214440.128   127247747.992        1618.183          40.000  
G 9  23372849.561   122825196.762        2944.925          40.000  
C 1  37573270.079   195653877.190        1179.201          43.000  
C27  24320076.469   126641026.986        3118.747          41.000  
C 3  36109702.361   188032693.780        1193.698          44.000  
C 4  38491918.120   200437515.262        1176.355          40.000  
C10  36162698.777   188308646.608         273.027          43.000  
C13  36690307.157   191056062.277         910.304          44.000  
C14  23135009.113   120470066.527        -245.330          45.000  
C23  26022356.936   135505240.531       -1362.378          37.000  
C28  22196859.355   115584870.720        1681.086          49.000  
G12  23730035.066   124702183.753        4172.825          41.000  
G 5  23788777.891   125010807.854        4850.248          38.000  
G23  23497159.799   123478425.286        3093.402          41.000  
C 7  36980608.194   192567720.910        -121.587          42.000  
C 8  36676186.633   190982523.062         775.637          44.000  
C16  40577337.784   211296839.005        2594.689          35.000  
C 5  39162106.227   203927365.746        1214.641          37.000  
C11  25869078.063   134707043.977        -537.098          39.000  
C 6  39785482.973   207173445.933        2569.421          33.000  
> 2020  6  5  8  0 34.9990000  0 27                     
G 2  22570457.889   118608569.515        2191.337          44.000  
G 3  25068741.713   131737137.398       -2352.809          32.000  
G 6  20952593.688   110106630.560        1049.794          46.000  
G17  20870426.441   109674823.879        1002.608          46.000  
G19  20366880.253   107028670.036        1721.795          47.000  
C 2  37145275.586   193425197.373        1225.651          40.000  
G28  21897906.046   115074245.364       -1735.657          42.000  
G 4  24214132.166   127246130.123        1617.671          39.000  
G 9  23372289.322   122822252.135        2944.268          39.000  
C 1  37573043.540   195652698.110        1179.133          43.000  
C27  24319477.438   126637908.291        3118.604          41.000  
C 3  36109473.205   188031500.158        1193.708          45.000  
C 4  38491692.367   200436339.056        1176.379          40.000  
C10  36162646.339   188308373.597         272.915          43.000  
C13  36690132.254   191055152.291         909.895          44.000  
C14  23135056.369   120470312.027        -245.770          45.000  
C23  26022618.672   135506603.152       -1362.682          37.000  
C28  22196536.595   115583189.748        1680.797          49.000  
G12  23729240.977   124698011.164        4172.055          41.000  
G 5  23787855.246   125005958.114        4849.211          38.000  
G23  23496571.046   123475331.954        3093.213          41.000  
C 7  36980631.613   192567842.746        -121.792          42.000  
C 8  36676037.730   190981747.617         775.451          44.000  
C16  40576839.458   211294243.992        2595.100          35.000  
C 5  39161872.778   203926150.888        1214.803          37.000  
C11  25869181.246   134707581.136        -537.419          39.000  
C 6  39784989.620   207170876.671        2569.299          33.000  
> 2020  6  5  8  0 35.9990000  0 27                     
G 2  22570041.021   118606378.421        2190.919          44.000  
G 3  25069189.363   131739490.175       -2352.261          32.000  
G 6  20952394.040   110105581.032        1049.336          46.000  
G17  20870235.693   109673821.577        1002.091          46.000  
G19  20366552.608   107026948.592        1721.196          47.000  
C 2  37145040.095   193423971.702        1225.558          40.000  
G28  21898236.413   115075981.360       -1736.292          42.000  
G 4  24213824.345   127244513.033        1617.054          39.000  
G 9  23371729.082   122819308.092        2943.675          39.000  
C 1  37572817.106   195651519.312        1178.765          43.000  
C27  24318878.826   126634789.859        3118.107          41.000  
C 3  36109244.136   188030306.847        1193.264          45.000  
C 4  38491466.456   200435163.162        1175.641          40.000  
C10  36162594.023   188308101.008         272.657          43.000  
C13  36689957.350   191054242.586         909.745          44.000  
C14  23135103.746   120470558.320        -246.694          45.000  
C23  26022880.600   135507965.891       -1362.769          37.000  
C28  22196214.133   115581509.165        1680.344          49.000  
G12  23728447.166   124693839.210        4171.688          41.000  
G 5  23786932.531   125001108.793        4849.146          38.000  
G23  23495982.660   123472239.074        3092.462          41.000  
C 7  36980655.066   192567964.984        -122.394          42.000  
C 8  36675888.810   190980972.379         775.298          44.000  
C16  40576340.940   211291649.176        2594.884          35.000  
C 5  39161639.643   203924936.313        1214.994          37.000  
C11  25869284.638   134708118.713        -538.018          39.000  
C 6  39784496.058   207168307.617        2568.967          33.000  
> 2020  6  5  8  0 36.9990000  0 27                     
G 2  22569624.240   118604187.431        2191.215          44.000  
G 3  25069637.188   131741843.109       -2352.944          32.000  
G 6  20952194.130   110104531.688        1049.516          46.000  
G17  20870044.944   109672819.584        1002.091          46.000  
G19  20366225.050   107025227.470        1721.153          47.000  
C 2  37144804.587   193422746.019        1226.061          40.000  
G28  21898566.589   115077717.656       -1736.273          42.000  
G 4  24213516.435   127242896.416        1616.604          39.000  
G 9  23371169.087   122816364.351        2943.891          39.000  
C 1  37572590.794   195650340.518        1179.084          43.000  
C27  24318280.039   126631671.369        3118.780          41.000  
C 3  36109014.857   188029113.533        1193.472          45.000  
C 4  38491240.720   200433987.244        1176.294          40.000  
C10  36162541.690   188307828.627         272.424          43.000  
C13  36689782.761   191053332.859         909.973          44.000  
C14  23135151.106   120470805.085        -246.816          45.000  
C23  26023142.231   135509328.502       -1362.729          37.000  
C28  22195891.286   115579828.682        1680.612          49.000  
G12  23727653.129   124689667.616        4171.996          41.000  
G 5  23786009.798   124996259.632        4849.181          38.000  
G23  23495394.256   123469146.355        3092.657          41.000  
C 7  36980678.623   192568087.314        -122.079          42.000  
C 8  36675739.873   190980197.092         775.597          44.000  
C16  40575842.649   211289054.236        2595.723          35.000  
C 5  39161406.543   203923721.800        1214.360          37.000  
C11  25869387.909   134708656.383        -537.422          39.000  
C 6  39784002.339   207165738.433        2569.806          33.000  
> 2020  6  5  8  0 37.9990000  0 27                     
G 2  22569207.441   118601996.532        2190.871          44.000  
G 3  25070085.048   131744196.045       -2353.606          32.000  
G 6  20951994.552   110103482.479        1049.181          46.000  
G17  20869854.144   109671817.846        1001.656          46.000  
G19  20365897.631   107023506.621        1720.802          47.000  
C 2  37144569.254   193421520.288        1226.052          40.000  
G28  21898897.044   115079454.210       -1736.536          42.000  
G 4  24213209.120   127241280.215        1615.926          40.000  
G 9  23370608.726   122813420.841        2943.476          39.000  
C 1  37572364.430   195649161.652        1178.915          43.000  
C27  24317681.148   126628552.799        3118.472          41.000  
C 3  36108785.492   188027920.146        1193.320          45.000  
C 4  38491014.688   200432811.292        1175.946          40.000  
C10  36162489.305   188307556.283         272.303          43.000  
C13  36689608.102   191052423.043         910.060          44.000  
C14  23135198.675   120471052.273        -247.271          45.000  
C23  26023404.089   135510690.867       -1362.379          37.000  
C28  22195568.544   115578148.245        1680.569          49.000  
G12  23726859.528   124685496.348        4171.247          41.000  
G 5  23785086.978   124991410.570        4848.774          38.000  
G23  23494805.747   123466053.732        3092.542          41.000  
C 7  36980702.338   192568209.703        -122.446          42.000  
C 8  36675591.092   190979421.720         775.389          44.000  
C16  40575344.393   211286459.118        2595.630          35.000  
C 5  39161173.286   203922507.150        1214.812          37.000  
C11  25869491.179   134709194.123        -537.700          39.000  
C 6  39783509.074   207163169.112        2569.731          33.000  
> 2020  6  5  8  0 38.9990000  0 27                     
G 2  22568790.486   118599805.807        2190.588          44.000  
G 3  25070532.733   131746549.078       -2353.066          32.000  
G 6  20951794.992   110102433.480        1049.103          46.000  
G17  20869663.727   109670816.464        1001.230          46.000  
G19  20365570.161   107021786.137        1720.380          47.000  
C 2  37144333.868   193420294.607        1225.713          40.000  
G28  21899227.656   115081191.131       -1737.216          42.000  
G 4  24212901.577   127239664.502        1615.758          40.000  
G 9  23370048.853   122810477.699        2943.142          39.000  
C 1  37572138.014   195647982.827        1178.923          43.000  
C27  24317082.064   126625434.198        3118.750          41.000  
C 3  36108556.388   188026726.804        1193.475          45.000  
C 4  38490788.777   200431635.356        1175.922          40.000  
C10  36162436.849   188307284.145         272.130          43.000  
C13  36689433.320   191051513.258         909.874          44.000  
C14  23135246.367   120471299.996        -247.826          45.000  
C23  26023665.947   135512053.135       -1362.168          37.000  
C28  22195245.768   115576467.971        1680.246          49.000  
G12  23726065.945   124681325.477        4170.750          41.000  
G 5  23784164.106   124986561.724        4848.573          38.000  
G23  23494217.361   123462961.326        3092.285          41.000  
C 7  36980725.826   192568332.236        -122.759          42.000  
C 8  36675442.207   190978646.318         775.619          44.000  
C16  40574846.294   211283863.949        2595.642          35.000  
C 5  39160939.942   203921292.572        1214.803          37.000  
C11  25869594.781   134709732.038        -538.017          39.000  
C 6  39783015.634   207160599.750        2569.253          33.000  
> 2020  6  5  8  0 39.9990000  0 27                     
G 2  22568373.757   118597615.228        2190.093          44.000  
G 3  25070980.418   131748902.265       -2353.584          32.000  
G 6  20951595.379   110101384.709        1048.344          47.000  
G17  20869473.293   109669815.435        1000.491          46.000  
G19  20365242.812   107020066.018        1719.614          47.000  
C 2  37144098.621   193419068.993        1225.067          40.000  
G28  21899558.040   115082928.404       -1737.658          42.000  
G 4  24212594.453   127238049.332        1614.508          40.000  
G 9  23369489.190   122807534.890        2942.240          39.000  
C 1  37571911.737   195646804.037        1178.404          43.000  
C27  24316483.086   126622315.626        3118.402          41.000  
C 3  36108327.214   188025533.518        1192.887          44.000  
C 4  38490563.111   200430459.465        1175.684          40.000  
C10  36162384.568   188307012.229         271.292          43.000  
C13  36689258.556   191050603.500         909.411          44.000  
C14  23135294.058   120471548.240        -248.893          45.000  
C23  26023927.508   135513415.294       -1362.397          37.000  
C28  22194923.148   115574787.828        1679.715          49.000  
G12  23725272.483   124677155.023        4169.610          41.000  
G 5  23783241.461   124981713.058        4848.018          38.000  
G23  23493628.905   123459869.123        3091.644          41.000  
C 7  36980749.436   192568454.896        -122.951          42.000  
C 8  36675293.112   190977870.892         775.041          44.000  
C16  40574348.195   211281268.701        2595.468          35.000  
C 5  39160706.650   203920078.053        1213.975          37.000  
C11  25869698.244   134710270.077        -538.520          39.000  
C 6  39782522.090   207158030.306        2568.646          33.000  
> 2020  6  5  8  0 40.9990000  0 27                     
G 2  22567956.872   118595424.805        2190.660          44.000  
G 3  25071428.488   131751255.577       -2352.931          32.000  
G 6  20951395.940   110100336.165        1048.710          47.000  
G17  20869282.928   109668814.744        1000.806          46.000  
G19  20364915.551   107018346.268        1719.777          47.000  
C 2  37143863.165   193417843.374        1225.774          40.000  
G28  21899888.757   115084666.059       -1737.759          42.000  
G 4  24212287.103   127236434.652        1614.680          40.000  
G 9  23368929.265   122804592.431        2942.326          39.000  
C 1  37571685.372   195645625.297        1178.936          43.000  
C27  24315884.264   126619197.053        3118.816          41.000  
C 3  36108098.145   188024340.255        1193.528          44.000  
C 4  38490337.322   200429283.612        1176.074          40.000  
C10  36162332.305   188306740.498         271.821          43.000  
C13  36689083.932   191049693.788         909.794          44.000  
C14  23135341.854   120471797.008        -248.704          45.000  
C23  26024189.314   135514777.336       -1361.951          37.000  
C28  22194600.441   115573107.832        1680.093          49.000  
G12  23724478.743   124672984.944        4170.110          41.000  
G 5  23782318.746   124976864.594        4848.785          38.000  
G23  23493040.466   123456777.111        3092.236          41.000  
C 7  36980773.430   192568577.706        -122.633          42.000  
C 8  36675144.192   190977095.442         775.758          44.000  
C16  40573849.712   211278673.386        2595.545          36.000  
C 5  39160473.532   203918863.555        1214.456          37.000  
C11  25869801.531   134710808.303        -537.940          39.000  
C 6  39782028.650   207155460.788        2569.529          33.000  
> 2020  6  5  8  0 41.9990000  0 27                     
G 2  22567540.178   118593234.457        2190.185          44.000  
G 3  25071876.173   131753608.892       -2353.688          32.000  
G 6  20951196.467   110099287.728        1047.970          46.000  
G17  20869092.372   109667814.303        1000.128          46.000  
G19  20364588.202   107016626.763        1719.115          47.000  
C 2  37143627.832   193416617.696        1225.223          40.000  
G28  21900219.386   115086403.933       -1738.357          42.000  
G 4  24211979.891   127234820.384        1613.920          40.000  
G 9  23368369.514   122801650.181        2941.980          40.000  
C 1  37571459.043   195644446.478        1178.429          43.000  
C27  24315285.355   126616078.359        3118.551          41.000  
C 3  36107869.041   188023146.941        1193.036          44.000  
C 4  38490111.517   200428107.678        1176.019          40.000  
C10  36162280.164   188306468.820         271.295          43.000  
C13  36688909.308   191048783.964         909.633          44.000  
C14  23135389.668   120472046.185        -249.531          45.000  
C23  26024450.910   135516139.146       -1362.053          37.000  
C28  22194277.857   115571427.876        1679.618          49.000  
G12  23723685.299   124668815.177        4169.292          41.000  
G 5  23781395.751   124972016.223        4847.981          38.000  
G23  23492452.167   123453685.193        3091.754          40.000  
C 7  36980797.058   192568700.552        -122.994          42.000  
C 8  36674995.429   190976319.865         775.373          44.000  
C16  40573351.439   211276077.864        2595.068          36.000  
C 5  39160240.240   203917648.973        1214.077          37.000  
C11  25869904.872   134711346.562        -538.513          39.000  
C 6  39781534.983   207152891.138        2569.191          33.000  
> 2020  6  5  8  0 42.9990000  0 27                     
G 2  22567123.135   118591044.034        2190.110          44.000  
G 3  25072323.806   131755962.081       -2352.569          32.000  
G 6  20950996.766   110098239.255        1048.328          46.000  
G17  20868901.938   109666813.961        1000.182          46.000  
G19  20364260.993   107014907.373        1719.158          47.000  
C 2  37143392.393   193415391.807        1225.982          40.000  
G28  21900550.033   115088141.931       -1738.139          42.000  
G 4  24211672.768   127233206.380        1613.769          40.000  
G 9  23367809.554   122798708.048        2941.769          40.000  
C 1  37571232.609   195643267.441        1179.105          43.000  
C27  24314686.394   126612959.437        3118.631          41.000  
C 3  36107639.990   188021953.408        1193.512          44.000  
C 4  38489885.571   200426931.558        1176.013          40.000  
C10  36162228.162   188306197.114         271.501          43.000  
C13  36688734.648   191047873.934         910.050          44.000  
C14  23135437.638   120472295.635        -249.795          45.000  
C23  26024712.192   135517500.590       -1361.334          37.000  
C28  22193955.220   115569747.810        1680.042          49.000  
G12  23722891.680   124664645.546        4169.636          41.000  
G 5  23780472.879   124967167.798        4848.493          37.000  
G23  23491863.658   123450593.234        3091.577          41.000  
C 7  36980820.651   192568823.302        -122.638          42.000  
C 8  36674846.631   190975544.021         775.967          44.000  
C16  40572853.131   211273482.013        2596.034          36.000  
C 5  39160006.896   203916434.179        1214.810          37.000  
C11  25870008.124   134711884.729        -538.210          39.000  
C 6  39781041.491   207150321.162        2569.746          33.000  
> 2020  6  5  8  0 43.9990000  0 27                     
G 2  22566706.581   118588853.709        2190.283          44.000  
G 3  25072771.823   131758315.359       -2353.155          32.000  
G 6  20950797.101   110097190.958        1048.306          46.000  
G17  20868711.573   109665813.922         999.978          46.000  
G19  20363934.011   107013188.293        1719.074          47.000  
C 2  37143156.868   193414165.912        1225.787          40.000  
G28  21900880.889   115089880.234       -1738.522          42.000  
G 4  24211365.975   127231592.840        1613.317          40.000  
G 9  23367249.577   122795766.179        2941.654          40.000  
C 1  37571006.123   195642088.388        1179.063          43.000  
C27  24314087.659   126609840.438        3119.203          41.000  
C 3  36107410.798   188020759.866        1193.552          45.000  
C 4  38489659.591   200425755.424        1176.190          40.000  
C10  36162176.056   188305925.512         271.676          43.000  
C13  36688560.094   191046963.863         910.249          44.000  
C14  23135485.679   120472545.556        -250.135          45.000  
C23  26024973.754   135518861.876       -1361.252          37.000  
C28  22193632.792   115568067.848        1679.987          49.000  
G12  23722098.289   124660476.288        4169.088          41.000  
G 5  23779550.077   124962319.562        4848.009          38.000  
G23  23491275.341   123447501.407        3092.090          40.000  
C 7  36980844.313   192568946.117        -122.625          42.000  
C 8  36674697.676   190974768.108         775.997          44.000  
C16  40572354.648   211270886.056        2595.945          36.000  
C 5  39159773.778   203915219.369        1215.073          37.000  
C11  25870111.447   134712423.003        -538.130          39.000  
C 6  39780547.720   207147751.068        2570.453          33.000  
> 2020  6  5  8  0 44.9990000  0 27                     
G 2  22566289.748   118586663.593        2189.870          44.000  
G 3  25073219.543   131760668.846       -2354.065          32.000  
G 6  20950597.715   110096142.921        1047.610          46.000  
G17  20868521.226   109664814.291         999.053          46.000  
G19  20363606.837   107011469.635        1718.212          47.000  
C 2  37142921.587   193412940.101        1225.625          40.000  
G28  21901211.850   115091618.942       -1739.207          42.000  
G 4  24211059.201   127229979.856        1612.271          40.000  
G 9  23366689.809   122792824.706        2941.069          40.000  
C 1  37570779.549   195640909.406        1178.833          43.000  
C27  24313488.785   126606721.503        3118.733          41.000  
C 3  36107181.607   188019566.414        1192.931          44.000  
C 4  38489433.837   200424579.363        1175.769          40.000  
C10  36162124.141   188305654.181         270.770          43.000  
C13  36688385.330   191046053.877         909.620          44.000  
C14  23135533.876   120472796.047        -251.008          45.000  
C23  26025235.158   135520223.099       -1361.568          37.000  
C28  22193310.015   115566388.072        1679.413          49.000  
G12  23721305.002   124656307.470        4168.546          41.000  
G 5  23778627.571   124957471.508        4847.714          38.000  
G23  23490687.060   123444409.856        3091.107          41.000  
C 7  36980867.923   192569069.138        -123.495          42.000  
C 8  36674548.372   190973992.222         775.452          44.000  
C16  40571856.235   211268290.063        2595.614          36.000  
C 5  39159540.504   203914004.688        1214.044          37.000  
C11  25870214.875   134712961.475        -538.653          39.000  
C 6  39780054.018   207145180.977        2570.193          33.000  
> 2020  6  5  8  0 45.9990000  0 27                     
G 2  22565872.792   118584473.475        2189.730          44.000  
G 3  25073667.351   131763022.228       -2353.783          32.000  
G 6  20950398.416   110095094.926        1047.562          47.000  
G17  20868331.001   109663814.812         999.007          46.000  
G19  20363279.785   107009751.148        1718.027          47.000  
C 2  37142686.026   193411714.147        1225.603          40.000  
G28  21901542.654   115093357.819       -1739.249          42.000  
G 4  24210752.513   127228367.194        1612.031          40.000  
G 9  23366130.040   122789883.405        2941.052          40.000  
C 1  37570553.377   195639730.307        1178.882          43.000  
C27  24312889.859   126603602.377        3119.033          41.000  
C 3  36106952.294   188018372.800        1193.398          44.000  
C 4  38489208.049   200423403.161        1175.818          40.000  
C10  36162072.017   188305382.830         270.948          43.000  
C13  36688210.601   191045143.720         909.662          44.000  
C14  23135582.039   120473046.885        -251.370          45.000  
C23  26025496.632   135521584.000       -1360.824          37.000  
C28  22192987.483   115564708.262        1679.484          49.000  
G12  23720511.697   124652138.885        4168.057          41.000  
G 5  23777705.048   124952623.524        4848.018          38.000  
G23  23490098.586   123441318.328        3090.967          41.000  
C 7  36980891.499   192569192.126        -123.631          42.000  
C 8  36674399.347   190973216.134         775.960          44.000  
C16  40571357.769   211265693.809        2595.786          36.000  
C 5  39159307.037   203912789.822        1214.494          37.000  
C11  25870318.407   134713499.947        -538.999          39.000  
C 6  39779560.090   207142610.628        2570.104          33.000  
> 2020  6  5  8  0 46.9990000  0 27                     
G 2  22565456.203   118582283.785        2189.287          44.000  
G 3  25074115.280   131765376.015       -2353.777          32.000  
G 6  20950199.187   110094047.427        1047.067          47.000  
G17  20868140.899   109662815.967         998.240          46.000  
G19  20362953.204   107008033.289        1717.333          47.000  
C 2  37142450.727   193410488.490        1225.336          40.000  
G28  21901874.016   115095097.331       -1740.073          42.000  
G 4  24210446.139   127226755.318        1611.270          40.000  
G 9  23365570.325   122786942.712        2940.228          40.000  
C 1  37570327.082   195638551.519        1178.143          43.000  
C27  24312290.880   126600483.542        3118.421          41.000  
C 3  36106723.242   188017179.513        1192.737          44.000  
C 4  38488981.981   200422227.264        1175.708          40.000  
C10  36162019.859   188305111.950         270.616          43.000  
C13  36688035.959   191044233.855         909.378          44.000  
C14  23135630.533   120473298.497        -252.094          46.000  
C23  26025758.088   135522945.081       -1361.389          37.000  
C28  22192665.195   115563028.856        1679.046          49.000  
G12  23719718.341   124647970.961        4167.388          41.000  
G 5  23776782.821   124947776.016        4847.354          38.000  
G23  23489510.496   123438227.257        3090.259          40.000  
C 7  36980915.074   192569315.522        -124.104          42.000  
C 8  36674250.235   190972440.305         775.645          44.000  
C16  40570859.286   211263097.745        2595.631          36.000  
C 5  39159073.885   203911575.269        1213.875          37.000  
C11  25870422.009   134714038.825        -539.449          39.000  
C 6  39779066.685   207140040.513        2569.433          33.000  
> 2020  6  5  8  0 47.9990000  0 27                     
G 2  22565039.405   118580094.661        2188.964          44.000  
G 3  25074563.018   131767730.342       -2354.231          32.000  
G 6  20949999.957   110093000.529        1046.825          47.000  
G17  20867951.145   109661817.857         997.941          46.000  
G19  20362626.379   107006316.190        1716.991          47.000  
C 2  37142215.429   193409263.260        1225.286          40.000  
G28  21902205.465   115096837.593       -1740.359          42.000  
G 4  24210139.539   127225144.342        1610.869          40.000  
G 9  23365011.045   122784002.758        2940.151          40.000  
C 1  37570100.718   195637373.128        1178.527          43.000  
C27  24311691.936   126597365.073        3118.289          41.000  
C 3  36106493.946   188015986.639        1192.937          44.000  
C 4  38488756.193   200421051.795        1175.385          40.000  
C10  36161967.892   188304841.624         270.105          43.000  
C13  36687861.265   191043324.383         909.422          44.000  
C14  23135678.940   120473551.028        -252.563          46.000  
C23  26026019.877   135524306.409       -1361.125          37.000  
C28  22192342.872   115561349.992        1678.811          49.000  
G12  23718925.682   124643803.849        4166.905          41.000  
G 5  23775860.368   124942929.127        4846.747          38.000  
G23  23488922.494   123435136.762        3090.228          40.000  
C 7  36980938.806   192569439.427        -124.057          42.000  
C 8  36674101.367   190971664.841         775.582          44.000  
C16  40570360.838   211260501.994        2595.847          36.000  
C 5  39158840.506   203910361.131        1214.344          37.000  
C11  25870525.785   134714578.259        -539.460          39.000  
C 6  39778573.175   207137470.654        2570.607          33.000  
> 2020  6  5  8  0 48.9990000  0 27                     
G 2  22564622.990   118577905.710        2188.508          44.000  
G 3  25075011.087   131770084.803       -2355.314          32.000  
G 6  20949800.763   110091953.866        1046.366          47.000  
G17  20867761.339   109660820.111         997.420          46.000  
G19  20362299.728   107004599.463        1716.319          47.000  
C 2  37141980.235   193408038.082        1225.071          40.000  
G28  21902536.880   115098578.217       -1741.039          42.000  
G 4  24209833.323   127223533.897        1609.916          40.000  
G 9  23364451.766   122781063.144        2939.484          40.000  
C 1  37569874.232   195636194.781        1178.128          43.000  
C27  24311092.958   126594246.627        3118.068          41.000  
C 3  36106265.139   188014793.829        1192.362          44.000  
C 4  38488530.527   200419876.371        1175.214          40.000  
C10  36161915.943   188304571.549         269.640          43.000  
C13  36687686.431   191042414.942         909.254          44.000  
C14  23135727.521   120473804.104        -253.714          46.000  
C23  26026281.351   135525667.635       -1361.269          37.000  
C28  22192020.392   115559671.277        1678.495          49.000  
G12  23718132.936   124639637.153        4166.042          41.000  
G 5  23774937.862   124938082.404        4846.257          38.000  
G23  23488334.282   123432046.488        3089.661          40.000  
C 7  36980962.835   192569563.483        -124.173          42.000  
C 8  36673952.394   190970889.361         775.228          44.000  
C16  40569862.477   211257906.201        2595.187          36.000  
C 5  39158607.511   203909147.038        1214.117          37.000  
C11  25870629.457   134715117.849        -540.037          40.000  
C 6  39778079.596   207134900.911        2569.184          33.000  
> 2020  6  5  8  0 49.9990000  0 27                     
G 2  22564206.488   118575716.997        2188.989          44.000  
G 3  25075459.034   131772439.440       -2354.034          32.000  
G 6  20949601.778   110090907.514        1046.759          47.000  
G17  20867571.428   109659822.809         997.592          46.000  
G19  20361972.955   107002883.196        1716.433          47.000  
C 2  37141745.006   193406813.025        1225.576          40.000  
G28  21902867.998   115100319.286       -1740.879          42.000  
G 4  24209526.967   127221924.052        1610.021          40.000  
G 9  23363892.451   122778123.984        2939.333          40.000  
C 1  37569647.885   195635016.574        1178.722          43.000  
C27  24310494.031   126591128.263        3118.611          41.000  
C 3  36106035.913   188013601.137        1192.939          45.000  
C 4  38488304.773   200418701.079        1175.299          40.000  
C10  36161864.203   188304301.715         270.194          43.000  
C13  36687511.789   191041505.640         909.825          44.000  
C14  23135776.260   120474057.772        -253.582          46.000  
C23  26026542.807   135527028.856       -1360.970          37.000  
C28  22191698.051   115557992.802        1678.701          49.000  
G12  23717340.138   124635470.926        4166.583          41.000  
G 5  23774015.409   124933235.958        4847.134          37.000  
G23  23487746.541   123428956.509        3090.039          40.000  
C 7  36980986.550   192569687.777        -124.167          42.000  
C 8  36673803.439   190970113.953         775.711          44.000  
C16  40569364.117   211255310.382        2595.941          36.000  
C 5  39158374.358   203907933.121        1214.266          37.000  
C11  25870733.251   134715657.692        -539.860          40.000  
C 6  39777586.104   207132331.049        2570.463          33.000  
> 2020  6  5  8  0 50.9990000  0 27                     
G 2  22563790.091   118573528.384        2188.508          44.000  
G 3  25075907.313   131774794.142       -2354.345          33.000  
G 6  20949402.776   110089861.312        1045.914          47.000  
G17  20867381.884   109658825.782         996.790          46.000  
G19  20361646.444   107001167.208        1715.745          47.000  
C 2  37141509.707   193405587.937        1225.152          40.000  
G28  21903199.273   115102060.628       -1741.461          42.000  
G 4  24209220.680   127220314.643        1609.094          40.000  
G 9  23363333.346   122775185.069        2938.614          40.000  
C 1  37569421.817   195633838.337        1178.032          43.000  
C27  24309895.018   126588009.809        3118.340          41.000  
C 3  36105806.757   188012408.412        1192.538          44.000  
C 4  38488079.177   200417525.739        1175.146          40.000  
C10  36161812.445   188304032.018         269.617          43.000  
C13  36687337.026   191040596.268         909.195          44.000  
C14  23135825.138   120474311.889        -254.495          46.000  
C23  26026804.264   135528389.873       -1361.352          37.000  
C28  22191375.763   115556314.391        1678.236          49.000  
G12  23716547.287   124631305.039        4165.534          41.000  
G 5  23773092.833   124928389.651        4846.375          37.000  
G23  23487158.521   123425866.646        3089.478          41.000  
C 7  36981010.509   192569812.124        -124.505          42.000  
C 8  36673654.676   190969338.444         775.432          44.000  
C16  40568865.616   211252714.389        2595.861          36.000  
C 5  39158141.153   203906719.124        1213.882          37.000  
C11  25870836.957   134716197.575        -539.858          40.000  
C 6  39777092.454   207129761.065        2570.293          33.000  
> 2020  6  5  8  0 51.9990000  0 27                     
G 2  22563373.432   118571339.637        2189.060          44.000  
G 3  25076355.347   131777148.717       -2354.697          33.000  
G 6  20949203.530   110088815.026        1046.431          47.000  
G17  20867192.375   109657828.806         997.033          46.000  
G19  20361319.829   106999451.296        1715.829          47.000  
C 2  37141274.495   193404362.596        1225.625          40.000  
G28  21903530.426   115103802.052       -1741.424          42.000  
G 4  24208914.586   127218705.452        1608.976          40.000  
G 9  23362774.084   122772246.191        2938.938          40.000  
C 1  37569195.575   195632659.814        1178.702          43.000  
C27  24309295.760   126584891.066        3118.872          41.000  
C 3  36105577.531   188011215.435        1193.174          44.000  
C 4  38487853.476   200416350.152        1175.800          40.000  
C10  36161760.653   188303762.196         270.055          43.000  
C13  36687162.227   191039686.638         909.727          44.000  
C14  23135873.824   120474566.236        -254.459          46.000  
C23  26027065.406   135529750.457       -1360.351          37.000  
C28  22191053.440   115554635.830        1678.787          49.000  
G12  23715754.698   124627139.273        4165.624          41.000  
G 5  23772170.414   124923543.276        4846.040          38.000  
G23  23486570.501   123422776.699        3089.771          41.000  
C 7  36981034.433   192569936.331        -124.217          42.000  
C 8  36673505.756   190968562.631         776.058          44.000  
C16  40568367.029   211250118.086        2596.526          36.000  
C 5  39157907.984   203905504.864        1214.556          37.000  
C11  25870940.490   134716737.388        -539.722          40.000  
C 6  39776599.154   207127190.809        2570.347          33.000  
> 2020  6  5  8  0 52.9990000  0 27                     
G 2  22562957.332   118569150.776        2188.825          44.000  
G 3  25076803.294   131779503.057       -2354.221          32.000  
G 6  20949004.580   110087768.673        1046.404          47.000  
G17  20867002.586   109656831.893         996.900          46.000  
G19  20360993.195   106997735.434        1715.949          47.000  
C 2  37141039.232   193403136.999        1225.780          40.000  
G28  21903861.962   115105543.529       -1741.386          42.000  
G 4  24208608.370   127217096.456        1609.065          40.000  
G 9  23362214.910   122769307.380        2938.812          40.000  
C 1  37568969.194   195631481.052        1178.970          43.000  
C27  24308696.990   126581772.045        3119.049          41.000  
C 3  36105348.514   188010022.203        1193.379          45.000  
C 4  38487627.722   200415174.301        1175.934          40.000  
C10  36161708.896   188303492.299         269.999          43.000  
C13  36686987.550   191038776.717         909.964          44.000  
C14  23135922.842   120474820.811        -254.596          46.000  
C23  26027326.846   135531110.635       -1359.576          37.000  
C28  22190730.960   115552957.124        1678.839          49.000  
G12  23714961.970   124622973.588        4165.779          41.000  
G 5  23771248.275   124918696.775        4846.074          37.000  
G23  23485982.324   123419686.645        3090.094          40.000  
C 7  36981058.201   192570060.368        -123.808          42.000  
C 8  36673356.696   190967786.490         776.458          44.000  
C16  40567868.371   211247521.370        2596.769          36.000  
C 5  39157674.849   203904290.370        1214.537          37.000  
C11  25871044.004   134717277.021        -539.514          39.000  
C 6  39776105.453   207124620.146        2570.921          33.000  
> 2020  6  5  8  0 53.9990000  0 27                     
G 2  22562540.499   118566961.734        2188.967          44.000  
G 3  25077251.468   131781857.244       -2354.522          32.000  
G 6  20948805.350   110086722.202        1046.362          47.000  
G17  20866813.007   109655834.999         996.742          46.000  
G19  20360666.649   106996019.613        1715.520          46.000  
C 2  37140803.776   193401911.112        1225.877          40.000  
G28  21904193.534   115107285.028       -1741.869          42.000  
G 4  24208302.276   127215487.668        1608.379          40.000  
G 9  23361655.735   122766368.574        2938.591          40.000  
C 1  37568742.672   195630301.995        1178.954          43.000  
C27  24308098.064   126578652.669        3119.393          41.000  
C 3  36105119.323   188008828.678        1193.564          45.000  
C 4  38487401.725   200413998.150        1176.447          40.000  
C10  36161657.016   188303222.256         269.839          43.000  
C13  36686812.838   191037866.503         910.269          44.000  
C14  23135971.807   120475075.574        -255.024          46.000  
C23  26027587.779   135532470.376       -1359.270          37.000  
C28  22190408.376   115551278.235        1678.905          49.000  
G12  23714169.328   124618807.989        4165.348          41.000  
G 5  23770325.944   124913850.114        4846.411          38.000  
G23  23485394.356   123416596.463        3090.155          40.000  
C 7  36981082.107   192570184.230        -123.945          42.000  
C 8  36673207.549   190967010.040         776.269          44.000  
C16  40567369.452   211244924.281        2596.858          36.000  
C 5  39157441.696   203903075.563        1214.893          37.000  
C11  25871147.589   134717816.492        -539.739          39.000  
C 6  39775611.768   207122049.085        2571.564          33.000  
> 2020  6  5  8  0 54.9990000  0 27                     
G 2  22562123.997   118564773.077        2188.574          44.000  
G 3  25077699.189   131784211.759       -2354.786          32.000  
G 6  20948606.453   110085676.165        1046.094          47.000  
G17  20866623.567   109654838.659         996.381          46.000  
G19  20360340.278   106994304.354        1715.153          46.000  
C 2  37140568.372   193400685.455        1225.918          40.000  
G28  21904524.896   115109027.095       -1742.246          42.000  
G 4  24207996.321   127213879.584        1608.088          40.000  
G 9  23361096.420   122763430.296        2938.279          40.000  
C 1  37568516.221   195629123.172        1178.972          43.000  
C27  24307499.015   126575533.529        3119.349          41.000  
C 3  36104890.080   188007635.398        1193.479          44.000  
C 4  38487175.849   200412822.278        1175.946          40.000  
C10  36161604.962   188302952.617         269.644          43.000  
C13  36686638.092   191036956.518         910.060          44.000  
C14  23136020.982   120475331.070        -255.691          46.000  
C23  26027848.834   135533830.235       -1359.750          37.000  
C28  22190086.000   115549599.700        1678.514          49.000  
G12  23713376.652   124614642.989        4165.317          41.000  
G 5  23769403.979   124909003.908        4845.938          38.000  
G23  23484806.092   123413506.702        3089.923          40.000  
C 7  36981105.875   192570308.450        -124.246          42.000  
C 8  36673058.315   190966233.741         776.329          44.000  
C16  40566870.725   211242327.314        2596.846          36.000  
C 5  39157208.457   203901861.028        1214.598          37.000  
C11  25871251.226   134718356.334        -539.655          39.000  
C 6  39775118.154   207119478.200        2571.206          33.000  
> 2020  6  5  8  0 55.9990000  0 27                     
G 2  22561707.792   118562584.894        2187.727          44.000  
G 3  25078147.345   131786566.700       -2355.339          32.000  
G 6  20948407.712   110084630.657        1045.103          47.000  
G17  20866434.302   109653842.998         995.122          46.000  
G19  20360014.046   106992589.777        1714.066          46.000  
C 2  37140332.969   193399460.163        1224.850          40.000  
G28  21904856.642   115110769.826       -1743.214          42.000  
G 4  24207690.384   127212272.339        1606.567          40.000  
G 9  23360537.490   122760492.726        2936.769          40.000  
C 1  37568289.839   195627944.714        1178.097          43.000  
C27  24306900.194   126572414.684        3118.456          41.000  
C 3  36104661.098   188006442.472        1192.726          44.000  
C 4  38486950.200   200411646.733        1175.122          40.000  
C10  36161553.257   188302683.458         268.916          43.000  
C13  36686463.485   191036046.858         909.241          44.000  
C14  23136070.226   120475587.402        -256.838          46.000  
C23  26028110.116   135535190.267       -1360.294          38.000  
C28  22189763.887   115547921.617        1677.594          49.000  
G12  23712584.186   124610478.738        4163.568          41.000  
G 5  23768482.032   124904158.176        4845.259          38.000  
G23  23484217.898   123410417.457        3088.953          40.000  
C 7  36981129.938   192570433.127        -125.131          42.000  
C 8  36672909.308   190965457.748         775.652          44.000  
C16  40566372.085   211239730.580        2596.257          36.000  
C 5  39156975.427   203900646.835        1213.881          37.000  
C11  25871354.653   134718896.641        -540.615          39.000  
C 6  39774624.487   207116907.541        2570.797          33.000  
> 2020  6  5  8  0 56.9990000  0 27                     
G 2  22561291.150   118560396.981        2187.766          44.000  
G 3  25078595.449   131788921.859       -2354.913          32.000  
G 6  20948208.623   110083585.496        1044.879          47.000  
G17  20866244.845   109652847.788         994.976          47.000  
G19  20359687.745   106990875.676        1713.895          46.000  
C 2  37140097.705   193398234.999        1225.131          40.000  
G28  21905188.493   115112513.027       -1743.459          42.000  
G 4  24207384.586   127210665.727        1606.132          40.000  
G 9  23359978.577   122757555.566        2936.942          40.000  
C 1  37568063.719   195626766.403        1178.001          43.000  
C27  24306301.250   126569295.964        3118.648          41.000  
C 3  36104432.168   188005249.704        1192.743          45.000  
C 4  38486724.569   200410471.345        1175.201          40.000  
C10  36161501.692   188302414.602         268.905          43.000  
C13  36686288.931   191035137.317         909.512          44.000  
C14  23136119.575   120475844.367        -257.204          46.000  
C23  26028371.485   135536550.298       -1360.339          38.000  
C28  22189441.721   115546243.788        1677.738          49.000  
G12  23711791.684   124606314.986        4163.471          41.000  
G 5  23767559.666   124899312.755        4845.608          38.000  
G23  23483629.738   123407328.540        3088.684          40.000  
C 7  36981153.845   192570558.030        -124.966          42.000  
C 8  36672760.335   190964681.859         775.716          44.000  
C16  40565873.166   211237133.877        2596.818          36.000  
C 5  39156742.361   203899432.808        1213.600          37.000  
C11  25871458.412   134719437.203        -540.579          39.000  
C 6  39774130.768   207114336.942        2571.445          33.000  
> 2020  6  5  8  0 57.9990000  0 27                     
G 2  22560874.788   118558209.259        2187.866          44.000  
G 3  25079043.710   131791277.196       -2355.697          32.000  
G 6  20948009.760   110082540.560        1044.832          47.000  
G17  20866055.458   109651852.962         994.632          47.000  
G19  20359361.740   106989161.958        1713.636          46.000  
C 2  37139862.354   193397009.933        1225.309          40.000  
G28  21905520.431   115114256.615       -1743.558          42.000  
G 4  24207079.033   127209059.623        1606.088          40.000  
G 9  23359419.804   122754618.771        2936.874          40.000  
C 1  37567837.477   195625588.125        1178.330          43.000  
C27  24305702.428   126566177.259        3118.885          41.000  
C 3  36104203.152   188004056.993        1192.788          44.000  
C 4  38486498.676   200409296.025        1175.140          40.000  
C10  36161450.231   188302145.970         268.497          43.000  
C13  36686114.167   191034227.839         909.522          44.000  
C14  23136168.977   120476101.873        -257.609          46.000  
C23  26028632.855   135537910.228       -1360.010          38.000  
C28  22189119.590   115544566.133        1677.706          49.000  
G12  23710999.549   124602151.654        4163.535          41.000  
G 5  23766637.596   124894467.599        4844.951          38.000  
G23  23483042.067   123404239.851        3088.220          40.000  
C 7  36981177.927   192570683.114        -125.051          42.000  
C 8  36672611.380   190963905.956         776.039          44.000  
C16  40565374.351   211234537.120        2596.926          36.000  
C 5  39156509.139   203898218.787        1214.218          37.000  
C11  25871562.101   134719977.958        -540.621          39.000  
C 6  39773636.962   207111766.338        2570.738          33.000  
> 2020  6  5  8  0 58.9990000  0 27                     
G 2  22560458.443   118556021.799        2187.721          44.000  
G 3  25079491.902   131793632.701       -2354.512          32.000  
G 6  20947810.950   110081495.925        1044.799          47.000  
G17  20865866.298   109650858.558         994.564          47.000  
G19  20359035.508   106987448.695        1713.222          47.000  
C 2  37139627.125   193395784.964        1225.291          40.000  
G28  21905852.439   115116000.636       -1743.988          42.000  
G 4  24206773.532   127207454.139        1605.554          40.000  
G 9  23358861.170   122751682.434        2936.311          40.000  
C 1  37567611.061   195624409.994        1178.190          43.000  
C27  24305103.607   126563058.643        3118.946          41.000  
C 3  36103974.187   188002864.406        1192.805          44.000  
C 4  38486273.027   200408120.795        1175.787          40.000  
C10  36161398.910   188301877.611         268.516          43.000  
C13  36685939.699   191033318.473         909.654          44.000  
C14  23136218.623   120476359.983        -258.090          46.000  
C23  26028894.102   135539270.141       -1360.164          38.000  
C28  22188797.424   115542888.699        1677.707          49.000  
G12  23710207.518   124597988.823        4163.040          42.000  
G 5  23765715.527   124889622.679        4845.150          38.000  
G23  23482454.466   123401151.408        3088.867          40.000  
C 7  36981202.147   192570808.440        -125.079          42.000  
C 8  36672462.425   190963130.102         776.225          44.000  
C16  40564875.606   211231940.367        2597.062          36.000  
C 5  39156276.057   203897004.910        1213.995          37.000  
C11  25871665.913   134720518.962        -541.003          39.000  
C 6  39773143.453   207109195.768        2570.625          33.000  
> 2020  6  5  8  0 59.9990000  0 27                     
G 2  22560042.378   118553834.499        2187.252          44.000  
G 3  25079940.180   131795988.393       -2356.396          32.000  
G 6  20947612.279   110080451.530        1044.053          47.000  
G17  20865677.015   109649864.527         993.761          47.000  
G19  20358709.590   106985735.788        1712.633          46.000  
C 2  37139391.722   193394560.042        1224.689          40.000  
G28  21906184.569   115117745.018       -1744.622          42.000  
G 4  24206468.275   127205849.158        1604.830          40.000  
G 9  23358302.274   122748746.447        2935.576          40.000  
C 1  37567384.714   195623231.877        1178.010          43.000  
C27  24304504.645   126559940.038        3118.287          41.000  
C 3  36103745.118   188001671.873        1192.214          45.000  
C 4  38486047.221   200406945.635        1174.969          40.000  
C10  36161347.380   188301609.444         267.662          43.000  
C13  36685765.023   191032409.128         909.148          44.000  
C14  23136268.443   120476618.628        -259.177          46.000  
C23  26029155.245   135540629.915       -1360.127          38.000  
C28  22188475.223   115541211.436        1677.022          49.000  
G12  23709415.558   124593826.407        4162.272          41.000  
G 5  23764793.562   124884777.989        4844.594          37.000  
G23  23481866.568   123398063.241        3087.695          40.000  
C 7  36981226.089   192570933.909        -125.623          42.000  
C 8  36672313.487   190962354.261         775.746          44.000  
C16  40564376.862   211229343.576        2596.550          36.000  
C 5  39156042.992   203895791.074        1213.796          37.000  
C11  25871769.864   134721060.114        -541.358          39.000  
C 6  39772649.751   207106625.112        2570.675          33.000  
> 2020  6  5  8  1  0.9990000  0 27                     
G 2  22559626.434   118551647.415        2186.712          44.000  
G 3  25080388.407   131798344.219       -2356.081          32.000  
G 6  20947413.661   110079407.387        1043.774          47.000  
G17  20865488.117   109648870.874         993.428          47.000  
G19  20358383.672   106984023.273        1712.254          47.000  
C 2  37139156.493   193393335.186        1224.358          40.000  
G28  21906516.611   115119489.790       -1745.131          42.000  
G 4  24206163.036   127204244.730        1604.156          40.000  
G 9  23357743.501   122745810.798        2935.338          40.000  
C 1  37567158.402   195622053.863        1177.631          43.000  
C27  24303905.876   126556821.447        3118.390          41.000  
C 3  36103516.014   188000479.397        1192.339          45.000  
C 4  38485821.573   200405770.527        1174.957          40.000  
C10  36161295.832   188301341.467         267.959          43.000  
C13  36685590.329   191031499.836         909.071          44.000  
C14  23136318.159   120476877.822        -259.732          46.000  
C23  26029416.527   135541989.590       -1359.663          38.000  
C28  22188153.336   115539534.328        1676.822          49.000  
G12  23708623.579   124589664.417        4161.763          42.000  
G 5  23763871.649   124879933.529        4844.103          37.000  
G23  23481279.089   123394975.262        3087.543          40.000  
C 7  36981249.978   192571059.546        -126.170          42.000  
C 8  36672164.497   190961578.422         775.749          44.000  
C16  40563878.187   211226746.692        2596.913          36.000  
C 5  39155809.578   203894577.334        1213.936          37.000  
C11  25871873.797   134721601.458        -541.699          39.000  
C 6  39772155.823   207104054.449        2569.982          33.000  
> 2020  6  5  8  1  1.9990000  0 27                     
G 2  22559210.386   118549460.357        2187.046          44.000  
G 3  25080836.755   131800700.067       -2355.837          32.000  
G 6  20947215.130   110078363.333        1044.018          47.000  
G17  20865299.113   109647877.443         993.409          47.000  
G19  20358057.964   106982311.006        1712.348          46.000  
C 2  37138921.316   193392110.237        1225.089          40.000  
G28  21906848.567   115121234.801       -1745.210          42.000  
G 4  24205857.657   127202640.704        1604.022          40.000  
G 9  23357184.867   122742875.391        2935.474          39.000  
C 1  37566932.369   195620875.728        1178.339          43.000  
C27  24303306.810   126553702.735        3118.923          41.000  
C 3  36103286.928   187999286.842        1192.631          45.000  
C 4  38485596.063   200404595.346        1175.330          40.000  
C10  36161244.389   188301073.572         268.164          43.000  
C13  36685415.687   191030590.411         909.651          44.000  
C14  23136367.927   120477137.403        -259.588          46.000  
C23  26029677.512   135543349.063       -1359.395          38.000  
C28  22187831.258   115537857.247        1677.119          49.000  
G12  23707831.619   124585502.718        4161.637          42.000  
G 5  23762949.789   124875089.132        4844.521          38.000  
G23  23480691.523   123391887.374        3087.744          40.000  
C 7  36981274.322   192571185.172        -125.552          42.000  
C 8  36672015.612   190960802.425         776.298          44.000  
C16  40563379.442   211224149.650        2597.231          36.000  
C 5  39155576.373   203893363.497        1214.219          37.000  
C11  25871977.713   134722142.831        -541.340          39.000  
C 6  39771661.929   207101483.567        2571.272          33.000  
> 2020  6  5  8  1  2.9990000  0 27                     
G 2  22558794.164   118547273.115        2187.433          44.000  
G 3  25081284.999   131803055.657       -2354.978          32.000  
G 6  20947016.389   110077319.164        1044.350          47.000  
G17  20865110.197   109646884.026         993.472          47.000  
G19  20357731.959   106980598.765        1712.318          46.000  
C 2  37138686.157   193390884.990        1225.566          40.000  
G28  21907180.680   115122979.809       -1744.847          42.000  
G 4  24205552.296   127201036.842        1603.698          40.000  
G 9  23356626.181   122739939.991        2935.507          39.000  
C 1  37566706.145   195619697.311        1178.497          43.000  
C27  24302707.831   126550583.711        3119.004          41.000  
C 3  36103057.946   187998093.985        1193.057          44.000  
C 4  38485370.292   200403419.855        1176.044          40.000  
C10  36161192.893   188300805.529         268.301          43.000  
C13  36685240.958   191029680.682         909.989          44.000  
C14  23136417.765   120477397.180        -259.856          46.000  
C23  26029938.393   135544708.062       -1359.001          38.000  
C28  22187508.935   115536179.973        1677.532          49.000  
G12  23707039.728   124581341.086        4161.506          42.000  
G 5  23762027.789   124870244.629        4844.535          38.000  
G23  23480103.729   123388799.352        3087.756          40.000  
C 7  36981298.665   192571310.612        -125.160          42.000  
C 8  36671866.361   190960026.075         776.555          44.000  
C16  40562880.767   211221552.188        2597.400          36.000  
C 5  39155343.168   203892149.370        1213.876          37.000  
C11  25872082.031   134722684.020        -540.999          39.000  
C 6  39771168.053   207098912.301        2572.056          33.000  
> 2020  6  5  8  1  3.9990000  0 27                     
G 2  22558377.958   118545085.764        2187.391          44.000  
G 3  25081733.138   131805411.122       -2355.390          32.000  
G 6  20946817.649   110076274.929        1044.313          47.000  
G17  20864921.124   109645890.687         993.237          47.000  
G19  20357406.251   106978886.601        1712.241          46.000  
C 2  37138450.666   193389659.504        1225.735          40.000  
G28  21907512.792   115124724.910       -1745.198          42.000  
G 4  24205247.336   127199433.194        1603.730          40.000  
G 9  23356067.407   122737004.643        2935.521          39.000  
C 1  37566479.676   195618518.633        1178.922          43.000  
C27  24302108.591   126547464.368        3119.608          41.000  
C 3  36102828.581   187996900.897        1193.179          44.000  
C 4  38485144.504   200402244.149        1175.574          40.000  
C10  36161141.153   188300537.415         268.137          43.000  
C13  36685066.351   191028770.716         909.931          44.000  
C14  23136467.620   120477657.186        -260.025          46.000  
C23  26030199.378   135546066.650       -1358.569          38.000  
C28  22187186.786   115534502.565        1677.573          49.000  
G12  23706247.785   124577179.571        4161.268          42.000  
G 5  23761105.964   124865400.047        4844.116          38.000  
G23  23479516.024   123385711.220        3088.324          40.000  
C 7  36981322.711   192571435.932        -125.188          42.000  
C 8  36671717.056   190959249.441         776.679          44.000  
C16  40562381.761   211218954.323        2598.165          36.000  
C 5  39155110.155   203890934.961        1214.430          37.000  
C11  25872185.789   134723225.091        -540.860          39.000  
C 6  39770674.055   207096340.722        2571.737          32.000  
> 2020  6  5  8  1  4.9990000  0 27                     
G 2  22557961.788   118542898.729        2186.637          44.000  
G 3  25082181.486   131807766.821       -2355.895          32.000  
G 6  20946618.978   110075231.052        1043.615          47.000  
G17  20864732.365   109644897.835         992.329          47.000  
G19  20357080.333   106977174.946        1711.248          47.000  
C 2  37138215.245   193388434.200        1225.085          40.000  
G28  21907844.887   115126470.523       -1746.502          42.000  
G 4  24204942.445   127197830.213        1602.502          40.000  
G 9  23355508.931   122734069.780        2934.676          39.000  
C 1  37566253.451   195617340.163        1178.083          43.000  
C27  24301509.595   126544345.179        3119.090          41.000  
C 3  36102599.564   187995707.982        1192.535          44.000  
C 4  38484918.803   200401068.611        1175.275          40.000  
C10  36161089.815   188300269.603         267.736          43.000  
C13  36684891.639   191027860.931         909.442          44.000  
C14  23136517.859   120477917.861        -261.195          46.000  
C23  26030460.416   135547425.261       -1358.445          38.000  
C28  22186864.603   115532825.449        1676.800          49.000  
G12  23705455.981   124573018.597        4160.535          42.000  
G 5  23760184.104   124860555.777        4843.789          38.000  
G23  23478928.562   123382623.466        3087.231          40.000  
C 7  36981346.775   192571561.527        -126.013          42.000  
C 8  36671567.717   190958472.942         776.256          44.000  
C16  40561882.650   211216356.563        2597.761          36.000  
C 5  39154877.195   203889720.756        1214.335          37.000  
C11  25872289.950   134723766.464        -541.569          39.000  
C 6  39770180.179   207093769.262        2570.911          32.000  
> 2020  6  5  8  1  5.9990000  0 27                     
G 2  22557545.356   118540711.951        2186.460          44.000  
G 3  25082630.114   131810122.762       -2356.342          32.000  
G 6  20946420.569   110074187.483        1043.423          47.000  
G17  20864543.746   109643905.428         992.228          47.000  
G19  20356754.712   106975463.753        1710.832          46.000  
C 2  37137980.086   193387209.035        1224.966          40.000  
G28  21908177.261   115128216.553       -1746.422          42.000  
G 4  24204637.852   127196227.828        1602.078          40.000  
G 9  23354950.209   122731135.354        2934.001          39.000  
C 1  37566027.192   195616161.799        1178.215          43.000  
C27  24300910.651   126541226.110        3118.816          41.000  
C 3  36102370.443   187994515.196        1192.565          44.000  
C 4  38484692.997   200399893.182        1175.415          40.000  
C10  36161038.493   188300002.102         267.382          43.000  
C13  36684716.840   191026951.258         909.359          44.000  
C14  23136568.116   120478179.144        -261.721          46.000  
C23  26030721.454   135548783.857       -1358.276          38.000  
C28  22186542.786   115531148.569        1676.645          49.000  
G12  23704664.195   124568858.128        4160.154          42.000  
G 5  23759262.209   124855711.796        4843.895          38.000  
G23  23478341.013   123379536.003        3087.048          40.000  
C 7  36981370.996   192571687.360        -126.029          42.000  
C 8  36671418.850   190957696.484         776.529          44.000  
C16  40561383.696   211213758.807        2597.526          36.000  
C 5  39154644.043   203888506.702        1213.986          37.000  
C11  25872393.814   134724308.093        -541.705          39.000  
C 6  39769686.338   207091197.751        2571.519          32.000  
> 2020  6  5  8  1  6.9990000  0 27                     
G 2  22557129.343   118538525.644        2185.918          44.000  
G 3  25083078.620   131812479.113       -2356.077          32.000  
G 6  20946222.334   110073144.470        1042.611          47.000  
G17  20864355.022   109642913.705         991.191          47.000  
G19  20356429.143   106973753.237        1709.983          47.000  
C 2  37137744.857   193385984.202        1224.464          40.000  
G28  21908509.583   115129963.258       -1746.982          42.000  
G 4  24204332.874   127194626.309        1600.626          40.000  
G 9  23354391.768   122728201.606        2933.123          39.000  
C 1  37565801.089   195614983.787        1177.593          43.000  
C27  24300311.864   126538107.339        3118.186          41.000  
C 3  36102141.600   187993322.769        1191.920          44.000  
C 4  38484467.383   200398718.129        1174.738          40.000  
C10  36160987.137   188299735.073         266.801          43.000  
C13  36684542.111   191026041.890         909.180          44.000  
C14  23136618.320   120478441.272        -262.864          46.000  
C23  26030982.649   135550142.683       -1359.203          38.000  
C28  22186220.829   115529472.150        1676.116          49.000  
G12  23703872.758   124564698.380        4159.461          42.000  
G 5  23758340.681   124850868.347        4843.090          38.000  
G23  23477753.569   123376449.067        3086.499          40.000  
C 7  36981395.147   192571813.667        -126.935          42.000  
C 8  36671269.807   190956920.332         775.653          44.000  
C16  40560884.829   211211161.299        2597.254          36.000  
C 5  39154410.943   203887292.960        1213.888          37.000  
C11  25872497.764   134724850.207        -542.744          39.000  
C 6  39769192.496   207088626.544        2570.319          33.000  
> 2020  6  5  8  1  7.9990000  0 27                     
G 2  22556713.435   118536339.671        2186.047          44.000  
G 3  25083526.898   131814835.828       -2357.179          32.000  
G 6  20946023.960   110072101.823        1042.781          47.000  
G17  20864166.333   109641922.474         991.195          47.000  
G19  20356103.976   106972043.238        1710.061          47.000  
C 2  37137509.663   193384759.563        1224.968          40.000  
G28  21908841.783   115131710.495       -1747.243          42.000  
G 4  24204028.141   127193025.424        1600.560          40.000  
G 9  23353833.535   122725268.322        2933.297          40.000  
C 1  37565574.847   195613805.956        1178.171          43.000  
C27  24299712.938   126534988.717        3118.576          41.000  
C 3  36101912.479   187992130.534        1192.417          44.000  
C 4  38484241.961   200397543.256        1175.238          40.000  
C10  36160936.026   188299468.441         266.682          43.000  
C13  36684367.470   191025132.710         909.453          44.000  
C14  23136668.839   120478704.067        -262.839          46.000  
C23  26031243.669   135551501.513       -1358.739          38.000  
C28  22185898.908   115527796.033        1676.165          49.000  
G12  23703081.286   124560539.206        4159.160          42.000  
G 5  23757418.978   124846025.252        4843.369          38.000  
G23  23477166.160   123373362.476        3086.890          40.000  
C 7  36981419.752   192571940.247        -126.519          42.000  
C 8  36671120.887   190956144.324         776.095          44.000  
C16  40560386.032   211208563.854        2597.953          36.000  
C 5  39154177.668   203886079.428        1213.794          37.000  
C11  25872601.907   134725392.598        -542.045          39.000  
C 6  39768698.638   207086055.435        2570.877          32.000  
> 2020  6  5  8  1  8.9990000  0 27                     
G 2  22556297.718   118534154.036        2185.652          44.000  
G 3  25083975.421   131817192.785       -2357.505          32.000  
G 6  20945825.464   110071059.580        1042.048          47.000  
G17  20863977.713   109640931.783         990.480          47.000  
G19  20355778.861   106970333.786        1709.251          46.000  
C 2  37137274.469   193383535.167        1224.223          40.000  
G28  21909174.157   115133458.257       -1747.805          42.000  
G 4  24203723.879   127191425.240        1599.735          40.000  
G 9  23353275.669   122722335.587        2932.610          40.000  
C 1  37565348.657   195612628.378        1177.385          43.000  
C27  24299114.308   126531870.284        3118.190          41.000  
C 3  36101683.497   187990938.523        1191.910          44.000  
C 4  38484016.470   200396368.605        1174.634          40.000  
C10  36160884.949   188299202.149         266.182          43.000  
C13  36684192.933   191024223.726         909.180          44.000  
C14  23136719.706   120478967.567        -263.851          46.000  
C23  26031504.585   135552860.409       -1358.727          38.000  
C28  22185576.881   115526120.237        1675.646          49.000  
G12  23702290.058   124556380.607        4158.569          42.000  
G 5  23756497.624   124841182.541        4842.854          38.000  
G23  23476578.716   123370276.284        3086.072          40.000  
C 7  36981443.990   192572067.171        -127.136          42.000  
C 8  36670971.984   190955368.499         775.744          44.000  
C16  40559887.043   211205966.556        2597.032          36.000  
C 5  39153944.655   203884866.129        1213.165          37.000  
C11  25872706.190   134725935.347        -542.711          39.000  
C 6  39768204.832   207083484.433        2570.630          32.000  
> 2020  6  5  8  1  9.9990000  0 27                     
G 2  22555882.124   118531968.795        2184.873          44.000  
G 3  25084423.996   131819550.061       -2357.543          32.000  
G 6  20945627.160   110070017.768        1041.386          47.000  
G17  20863789.303   109639941.657         989.678          47.000  
G19  20355453.502   106968624.913        1708.549          46.000  
C 2  37137039.554   193382311.001        1224.043          40.000  
G28  21909506.671   115135206.615       -1748.814          42.000  
G 4  24203419.373   127189825.791        1598.899          40.000  
G 9  23352717.768   122719403.418        2931.852          40.000  
C 1  37565122.572   195611451.020        1177.276          43.000  
C27  24298515.312   126528752.047        3118.015          41.000  
C 3  36101454.673   187989746.764        1191.414          44.000  
C 4  38483790.961   200395194.217        1174.030          40.000  
C10  36160833.994   188298936.269         265.422          43.000  
C13  36684018.413   191023314.997         908.365          44.000  
C14  23136770.469   120479231.799        -264.811          46.000  
C23  26031765.727   135554219.390       -1358.972          38.000  
C28  22185255.134   115524444.802        1675.104          49.000  
G12  23701498.778   124552222.646        4157.409          42.000  
G 5  23755576.078   124836340.264        4841.917          38.000  
G23  23475991.481   123367190.522        3085.437          40.000  
C 7  36981468.385   192572194.429        -127.583          42.000  
C 8  36670822.977   190954592.840         775.379          44.000  
C16  40559388.281   211203369.360        2596.863          36.000  
C 5  39153711.608   203883653.056        1212.924          37.000  
C11  25872810.472   134726478.449        -543.459          39.000  
C 6  39767711.147   207080913.582        2570.642          32.000  
> 2020  6  5  8  1 10.9990000  0 27                     
G 2  22555466.302   118529783.706        2185.243          44.000  
G 3  25084872.694   131821907.516       -2357.574          32.000  
G 6  20945429.013   110068976.178        1041.788          47.000  
G17  20863601.068   109638951.885         989.853          47.000  
G19  20355128.544   106966916.414        1708.632          46.000  
C 2  37136804.430   193381086.890        1224.275          40.000  
G28  21909839.238   115136955.300       -1748.426          41.000  
G 4  24203115.006   127188226.866        1598.851          40.000  
G 9  23352160.094   122716471.586        2932.330          40.000  
C 1  37564896.418   195610273.707        1177.645          43.000  
C27  24297916.403   126525633.819        3118.536          41.000  
C 3  36101226.005   187988555.035        1192.217          44.000  
C 4  38483565.225   200394019.851        1174.805          40.000  
C10  36160783.109   188298670.581         265.848          43.000  
C13  36683844.050   191022406.294         908.954          44.000  
C14  23136821.336   120479496.552        -264.720          46.000  
C23  26032026.643   135555578.269       -1358.318          38.000  
C28  22184933.614   115522769.510        1675.718          49.000  
G12  23700707.375   124548065.080        4157.538          42.000  
G 5  23754655.038   124831498.150        4842.913          37.000  
G23  23475404.107   123364104.941        3085.974          40.000  
C 7  36981492.763   192572321.832        -127.158          42.000  
C 8  36670673.987   190953817.174         775.949          44.000  
C16  40558889.519   211200772.104        2597.676          36.000  
C 5  39153478.595   203882440.033        1213.335          37.000  
C11  25872914.755   134727021.737        -542.937          39.000  
C 6  39767217.516   207078342.664        2571.404          32.000  
> 2020  6  5  8  1 11.9990000  0 27                     
G 2  22555050.376   118527598.687        2185.375          44.000  
G 3  25085321.496   131824264.970       -2357.554          32.000  
G 6  20945231.005   110067934.713        1041.613          47.000  
G17  20863412.902   109637962.363         989.545          47.000  
G19  20354803.411   106965208.171        1708.314          47.000  
C 2  37136569.358   193379862.727        1224.315          40.000  
G28  21910172.031   115138704.267       -1748.846          42.000  
G 4  24202810.622   127186628.326        1598.805          40.000  
G 9  23351602.385   122713540.020        2931.475          40.000  
C 1  37564670.280   195609096.337        1177.504          43.000  
C27  24297317.599   126522515.496        3118.672          41.000  
C 3  36100997.128   187987363.274        1192.028          44.000  
C 4  38483339.750   200392845.439        1174.500          40.000  
C10  36160732.190   188298404.965         265.929          43.000  
C13  36683669.374   191021497.518         909.110          44.000  
C14  23136872.203   120479761.730        -265.130          46.000  
C23  26032287.454   135556936.958       -1358.721          38.000  
C28  22184611.762   115521094.275        1675.541          49.000  
G12  23699916.235   124543907.804        4157.526          42.000  
G 5  23753733.230   124826656.215        4841.661          38.000  
G23  23474816.907   123361019.493        3085.522          40.000  
C 7  36981517.037   192572449.269        -127.261          42.000  
C 8  36670524.910   190953041.385         776.194          44.000  
C16  40558390.617   211198174.662        2598.054          36.000  
C 5  39153245.460   203881226.958        1213.370          37.000  
C11  25873019.160   134727565.062        -542.978          39.000  
C 6  39766723.954   207075771.658        2570.864          32.000  
> 2020  6  5  8  1 12.9990000  0 27                     
G 2  22554634.660   118525413.973        2184.689          44.000  
G 3  25085770.246   131826622.676       -2357.758          32.000  
G 6  20945032.840   110066893.609        1040.805          47.000  
G17  20863224.527   109636973.329         988.729          47.000  
G19  20354478.453   106963500.426        1707.470          47.000  
C 2  37136334.164   193378638.717        1223.960          40.000  
G28  21910504.911   115140453.712       -1749.806          42.000  
G 4  24202506.587   127185030.484        1597.324          39.000  
G 9  23351044.310   122710608.912        2930.766          39.000  
C 1  37564444.178   195607919.136        1177.156          43.000  
C27  24296718.882   126519397.318        3117.999          41.000  
C 3  36100768.356   187986171.663        1191.556          45.000  
C 4  38483114.276   200391671.199        1174.170          40.000  
C10  36160681.253   188298139.695         265.165          43.000  
C13  36683494.854   191020588.875         908.558          44.000  
C14  23136923.228   120480027.575        -266.125          46.000  
C23  26032548.387   135558295.617       -1358.735          38.000  
C28  22184289.980   115519419.322        1674.752          49.000  
G12  23699125.112   124539751.117        4156.266          42.000  
G 5  23752811.858   124821814.569        4841.582          38.000  
G23  23474229.934   123357934.396        3084.882          40.000  
C 7  36981541.781   192572576.986        -127.952          42.000  
C 8  36670375.763   190952265.723         775.444          44.000  
C16  40557891.750   211195577.288        2597.426          36.000  
C 5  39153012.639   203880014.053        1212.460          37.000  
C11  25873123.617   134728108.692        -543.554          39.000  
C 6  39766230.339   207073200.625        2571.227          32.000  
> 2020  6  5  8  1 13.9990000  0 27                     
G 2  22554218.943   118523229.566        2184.147          44.000  
G 3  25086218.891   131828980.681       -2358.788          32.000  
G 6  20944834.815   110065852.850        1040.330          47.000  
G17  20863036.222   109635984.779         988.194          47.000  
G19  20354153.775   106961793.186        1706.797          47.000  
C 2  37136099.145   193377414.880        1223.881          40.000  
G28  21910838.071   115142203.658       -1750.529          42.000  
G 4  24202202.814   127183433.263        1596.608          39.000  
G 9  23350486.688   122707678.291        2930.026          39.000  
C 1  37564218.180   195606742.110        1176.842          43.000  
C27  24296119.973   126516279.266        3117.902          41.000  
C 3  36100539.513   187984980.243        1191.248          44.000  
C 4  38482888.732   200390497.124        1173.877          40.000  
C10  36160630.315   188297874.736         264.706          43.000  
C13  36683320.352   191019680.394         908.177          44.000  
C14  23136974.305   120480294.075        -266.969          46.000  
C23  26032809.372   135559654.316       -1358.906          38.000  
C28  22183968.250   115517744.644        1674.239          49.000  
G12  23698334.250   124535594.939        4155.828          42.000  
G 5  23751890.661   124816973.264        4840.453          38.000  
G23  23473642.943   123354849.599        3084.723          40.000  
C 7  36981566.543   192572704.984        -128.473          42.000  
C 8  36670226.930   190951490.153         775.322          44.000  
C16  40557393.075   211192979.977        2597.377          36.000  
C 5  39152779.557   203878801.318        1212.267          37.000  
C11  25873227.951   134728652.606        -544.272          39.000  
C 6  39765736.620   207070629.757        2570.752          33.000  
> 2020  6  5  8  1 14.9990000  0 27                     
G 2  22553803.140   118521045.019        2184.514          44.000  
G 3  25086667.693   131831338.485       -2358.038          32.000  
G 6  20944636.790   110064812.014        1040.564          47.000  
G17  20862848.108   109634996.291         988.130          47.000  
G19  20353828.886   106960086.016        1706.864          47.000  
C 2  37135864.143   193376190.800        1223.828          40.000  
G28  21911171.178   115143953.656       -1750.458          42.000  
G 4  24201898.796   127181836.265        1596.199          39.000  
G 9  23349929.014   122704747.702        2930.437          39.000  
C 1  37563992.147   195605564.814        1177.073          43.000  
C27  24295520.942   126513160.924        3118.156          41.000  
C 3  36100310.671   187983788.562        1191.448          44.000  
C 4  38482663.048   200389322.799        1174.036          40.000  
C10  36160579.012   188297609.684         264.750          43.000  
C13  36683145.832   191018771.620         908.744          44.000  
C14  23137025.277   120480560.798        -267.154          46.000  
C23  26033070.271   135561012.590       -1358.120          38.000  
C28  22183646.643   115516069.821        1674.570          49.000  
G12  23697543.459   124531438.893        4155.559          42.000  
G 5  23750969.499   124812131.855        4841.023          37.000  
G23  23473055.970   123351764.741        3084.882          40.000  
C 7  36981591.043   192572832.814        -127.854          42.000  
C 8  36670078.010   190950714.295         775.626          44.000  
C16  40556894.383   211190382.275        2597.745          36.000  
C 5  39152546.875   203877588.307        1213.136          37.000  
C11  25873332.443   134729196.392        -543.865          39.000  
C 6  39765242.797   207068058.507        2570.812          32.000  
> 2020  6  5  8  1 15.9990000  0 27                     
G 2  22553387.493   118518860.762        2183.938          44.000  
G 3  25087116.460   131833696.498       -2357.960          32.000  
G 6  20944438.922   110063771.518        1040.261          47.000  
G17  20862660.222   109634008.283         987.502          46.000  
G19  20353504.155   106958379.320        1706.316          47.000  
C 2  37135629.280   193374966.865        1223.292          40.000  
G28  21911504.303   115145704.115       -1750.991          42.000  
G 4  24201594.900   127180239.881        1595.878          39.000  
G 9  23349371.654   122701817.592        2929.822          39.000  
C 1  37563765.975   195604387.669        1176.954          43.000  
C27  24294922.486   126510042.677        3118.360          41.000  
C 3  36100081.899   187982597.030        1191.355          44.000  
C 4  38482437.714   200388148.612        1174.243          40.000  
C10  36160528.389   188297344.936         264.382          43.000  
C13  36682971.522   191017863.014         908.417          44.000  
C14  23137076.668   120480828.146        -267.953          46.000  
C23  26033330.942   135562370.866       -1358.455          38.000  
C28  22183325.158   115514395.255        1674.250          49.000  
G12  23696752.563   124527283.346        4155.101          42.000  
G 5  23750048.372   124807290.744        4840.979          38.000  
G23  23472469.172   123348680.184        3084.485          40.000  
C 7  36981615.578   192572960.913        -128.352          42.000  
C 8  36669929.002   190949938.515         775.501          44.000  
C16  40556395.586   211187784.609        2598.146          36.000  
C 5  39152313.845   203876375.471        1212.351          37.000  
C11  25873436.935   134729740.454        -544.715          39.000  
C 6  39764749.008   207065487.316        2570.587          33.000  
> 2020  6  5  8  1 16.9990000  0 27                     
G 2  22552971.724   118516676.598        2184.141          44.000  
G 3  25087565.332   131836054.615       -2357.914          32.000  
G 6  20944240.880   110062731.170        1040.279          47.000  
G17  20862472.370   109633020.551         987.647          47.000  
G19  20353179.476   106956672.933        1706.323          47.000  
C 2  37135394.139   193373742.890        1223.847          40.000  
G28  21911837.637   115147454.860       -1750.707          42.000  
G 4  24201291.092   127178643.960        1595.672          39.000  
G 9  23348814.189   122698887.752        2930.013          39.000  
C 1  37563539.907   195603210.509        1177.207          43.000  
C27  24294323.525   126506924.410        3117.962          41.000  
C 3  36099853.004   187981405.482        1191.410          44.000  
C 4  38482212.204   200386974.420        1174.310          40.000  
C10  36160477.451   188297080.317         264.364          43.000  
C13  36682797.125   191016954.348         908.834          44.000  
C14  23137128.093   120481095.945        -267.989          46.000  
C23  26033591.840   135563728.977       -1358.284          38.000  
C28  22183003.568   115512720.769        1674.477          49.000  
G12  23695962.085   124523128.145        4154.949          42.000  
G 5  23749127.227   124802449.776        4841.463          38.000  
G23  23471882.112   123345595.792        3084.503          40.000  
C 7  36981639.991   192573089.087        -128.264          42.000  
C 8  36669780.117   190949162.658         775.807          44.000  
C16  40555896.614   211185186.837        2598.272          36.000  
C 5  39152080.832   203875162.611        1213.293          37.000  
C11  25873541.410   134730284.567        -543.973          39.000  
C 6  39764255.132   207062915.977        2571.626          32.000  
> 2020  6  5  8  1 17.9990000  0 27                     
G 2  22552555.938   118514492.162        2184.658          44.000  
G 3  25088013.995   131838412.428       -2357.781          32.000  
G 6  20944042.802   110061690.617        1040.517          47.000  
G17  20862284.274   109632032.744         987.773          47.000  
G19  20352854.955   106954966.485        1706.386          47.000  
C 2  37135158.945   193372518.523        1224.430          40.000  
G28  21912170.779   115149205.553       -1750.748          42.000  
G 4  24200987.371   127177048.126        1595.716          39.000  
G 9  23348256.236   122695957.838        2929.860          39.000  
C 1  37563313.822   195602032.952        1177.736          43.000  
C27  24293724.704   126503805.670        3118.908          41.000  
C 3  36099624.110   187980213.534        1192.109          44.000  
C 4  38481986.748   200385799.834        1174.713          40.000  
C10  36160426.636   188296815.454         264.883          43.000  
C13  36682622.500   191016045.278         909.180          44.000  
C14  23137179.414   120481363.845        -267.949          46.000  
C23  26033852.424   135565086.513       -1357.285          38.000  
C28  22182681.960   115511045.997        1674.933          49.000  
G12  23695171.259   124518972.940        4154.992          42.000  
G 5  23748205.961   124797608.631        4841.079          38.000  
G23  23471294.790   123342511.170        3084.607          40.000  
C 7  36981664.439   192573216.963        -127.792          42.000  
C 8  36669630.883   190948386.363         776.504          44.000  
C16  40555397.573   211182588.549        2598.473          36.000  
C 5  39151847.942   203873949.363        1213.617          37.000  
C11  25873645.867   134730828.456        -544.057          39.000  
C 6  39763761.291   207060344.148        2572.515          33.000  
> 2020  6  5  8  1 18.9990000  0 27                     
G 2  22552140.221   118512307.805        2184.467          44.000  
G 3  25088462.780   131840770.221       -2357.476          32.000  
G 6  20943844.672   110060650.177        1040.603          47.000  
G17  20862096.161   109631045.187         987.568          47.000  
G19  20352530.189   106953260.284        1706.202          46.000  
C 2  37134923.820   193371294.115        1224.611          40.000  
G28  21912504.060   115150956.473       -1750.816          42.000  
G 4  24200683.702   127175452.688        1595.453          39.000  
G 9  23347699.033   122693028.178        2929.497          40.000  
C 1  37563087.703   195600855.332        1177.870          43.000  
C27  24293125.725   126500686.841        3119.141          41.000  
C 3  36099395.146   187979021.531        1192.177          44.000  
C 4  38481760.872   200384625.168        1174.847          40.000  
C10  36160375.926   188296550.691         264.847          43.000  
C13  36682447.928   191015136.150         909.316          44.000  
C14  23137231.067   120481632.165        -268.470          46.000  
C23  26034112.991   135566443.859       -1357.318          38.000  
C28  22182360.248   115509371.280        1674.886          49.000  
G12  23694380.677   124514818.011        4155.024          42.000  
G 5  23747285.095   124792767.550        4841.237          38.000  
G23  23470707.852   123339426.641        3084.375          40.000  
C 7  36981689.078   192573344.891        -127.659          42.000  
C 8  36669481.806   190947609.939         776.690          44.000  
C16  40554898.497   211179990.087        2598.582          36.000  
C 5  39151614.981   203872736.053        1213.066          37.000  
C11  25873750.481   134731372.387        -543.589          39.000  
C 6  39763267.327   207057772.192        2572.531          33.000  
> 2020  6  5  8  1 19.9990000  0 27                     
G 2  22551724.522   118510123.522        2184.213          44.000  
G 3  25088911.460   131843128.086       -2357.898          32.000  
G 6  20943646.839   110059609.875        1040.215          47.000  
G17  20861908.047   109630057.899         987.140          47.000  
G19  20352205.423   106951554.371        1705.804          47.000  
C 2  37134688.469   193370069.656        1224.622          40.000  
G28  21912836.906   115152707.679       -1751.305          42.000  
G 4  24200380.069   127173857.696        1594.567          39.000  
G 9  23347142.144   122690098.764        2929.328          40.000  
C 1  37562861.426   195599677.657        1177.406          43.000  
C27  24292526.589   126497567.932        3119.089          41.000  
C 3  36099166.181   187977829.485        1192.021          44.000  
C 4  38481535.241   200383450.470        1174.512          40.000  
C10  36160325.198   188296286.002         264.514          43.000  
C13  36682273.199   191014226.978         909.093          44.000  
C14  23137282.702   120481900.919        -269.125          46.000  
C23  26034373.540   135567800.963       -1357.115          38.000  
C28  22182038.640   115507696.616        1674.612          49.000  
G12  23693590.356   124510663.427        4154.449          42.000  
G 5  23746364.073   124787926.582        4841.124          38.000  
G23  23470120.844   123336342.203        3084.509          40.000  
C 7  36981713.491   192573472.877        -127.988          42.000  
C 8  36669332.571   190946833.421         776.305          44.000  
C16  40554399.438   211177391.472        2598.645          35.000  
C 5  39151381.986   203871522.653        1213.571          37.000  
C11  25873854.990   134731916.377        -544.144          39.000  
C 6  39762773.399   207055200.102        2572.120          32.000  
> 2020  6  5  8  1 20.9990000  0 27                     
G 2  22551308.893   118507939.295        2184.211          44.000  
G 3  25089360.052   131845485.956       -2357.672          32.000  
G 6  20943449.111   110058569.682        1040.088          47.000  
G17  20861720.213   109629070.895         986.781          47.000  
G19  20351880.779   106949848.719        1705.437          47.000  
C 2  37134453.345   193368845.126        1224.729          40.000  
G28  21913170.118   115154459.128       -1751.678          42.000  
G 4  24200076.574   127172263.102        1594.202          39.000  
G 9  23346584.942   122687169.587        2929.096          40.000  
C 1  37562635.445   195598499.910        1177.936          43.000  
C27  24291927.645   126494448.928        3119.150          41.000  
C 3  36098937.409   187976637.375        1192.240          44.000  
C 4  38481309.592   200382275.701        1174.530          40.000  
C10  36160274.296   188296021.413         264.424          43.000  
C13  36682098.470   191013317.701         909.204          44.000  
C14  23137334.268   120482170.092        -269.596          46.000  
C23  26034634.194   135569157.859       -1356.775          38.000  
C28  22181717.050   115506022.004        1674.441          49.000  
G12  23692799.809   124506509.145        4153.989          42.000  
G 5  23745443.242   124783085.738        4840.607          38.000  
G23  23469534.028   123333257.908        3084.021          40.000  
C 7  36981737.869   192573600.931        -128.265          42.000  
C 8  36669183.337   190946056.765         776.572          44.000  
C16  40553900.240   211174792.622        2599.376          36.000  
C 5  39151148.939   203870309.245        1213.284          37.000  
C11  25873959.447   134732460.449        -544.491          39.000  
C 6  39762279.383   207052627.827        2572.388          33.000  
> 2020  6  5  8  1 21.9990000  0 27                     
G 2  22550893.386   118505755.287        2183.716          44.000  
G 3  25089808.697   131847844.017       -2358.164          32.000  
G 6  20943251.225   110057529.751        1039.793          47.000  
G17  20861532.589   109628084.272         986.225          47.000  
G19  20351556.379   106948143.471        1704.985          47.000  
C 2  37134218.291   193367620.675        1224.422          40.000  
G28  21913503.574   115156210.967       -1752.023          42.000  
G 4  24199773.464   127170669.072        1593.726          39.000  
G 9  23346027.390   122684240.799        2928.687          40.000  
C 1  37562409.325   195597322.252        1177.654          43.000  
C27  24291328.632   126491329.955        3119.053          41.000  
C 3  36098708.602   187975445.356        1191.854          44.000  
C 4  38481084.205   200381101.010        1174.622          40.000  
C10  36160223.516   188295757.042         264.196          43.000  
C13  36681923.863   191012408.471         909.320          44.000  
C14  23137386.130   120482439.825        -269.953          46.000  
C23  26034894.691   135570514.670       -1356.777          38.000  
C28  22181395.251   115504347.571        1674.249          49.000  
G12  23692009.436   124502355.301        4153.565          42.000  
G 5  23744522.167   124778245.117        4840.239          38.000  
G23  23468947.142   123330173.830        3084.088          40.000  
C 7  36981762.352   192573729.149        -128.431          42.000  
C 8  36669034.382   190945280.140         776.509          44.000  
C16  40553400.937   211172193.796        2598.848          36.000  
C 5  39150915.664   203869095.887        1213.159          37.000  
C11  25874063.852   134733004.706        -544.498          39.000  
C 6  39761785.420   207050055.545        2572.052          32.000  
> 2020  6  5  8  1 22.9990000  0 27                     
G 2  22550477.617   118503571.394        2184.185          44.000  
G 3  25090257.308   131850202.159       -2358.670          31.000  
G 6  20943053.183   110056490.012        1039.986          47.000  
G17  20861344.789   109627097.968         986.355          47.000  
G19  20351231.788   106946438.561        1704.926          47.000  
C 2  37133983.114   193366396.227        1224.863          40.000  
G28  21913836.925   115157963.151       -1752.352          42.000  
G 4  24199470.424   127169075.509        1593.773          39.000  
G 9  23345469.855   122681312.311        2928.941          40.000  
C 1  37562183.013   195596144.598        1177.938          43.000  
C27  24290729.461   126488210.956        3119.302          41.000  
C 3  36098479.725   187974253.330        1192.155          44.000  
C 4  38480858.835   200379926.324        1175.049          40.000  
C10  36160172.893   188295492.845         264.471          43.000  
C13  36681749.379   191011499.258         909.507          44.000  
C14  23137437.922   120482710.051        -270.270          46.000  
C23  26035155.397   135571871.359       -1356.601          38.000  
C28  22181073.957   115502673.259        1674.453          49.000  
G12  23691219.483   124498201.834        4153.557          42.000  
G 5  23743601.058   124773404.660        4840.682          38.000  
G23  23468360.413   123327089.934        3084.058          40.000  
C 7  36981787.218   192573857.464        -128.121          42.000  
C 8  36668885.043   190944503.461         776.816          44.000  
C16  40552901.703   211169594.861        2599.429          36.000  
C 5  39150682.704   203867882.527        1213.612          37.000  
C11  25874168.448   134733549.080        -544.068          39.000  
C 6  39761291.596   207047483.190        2572.451          33.000  
> 2020  6  5  8  1 23.9990000  0 27                     
G 2  22550062.075   118501387.659        2183.319          44.000  
G 3  25090706.092   131852560.368       -2358.652          32.000  
G 6  20942855.315   110055450.464        1039.237          47.000  
G17  20861157.025   109626111.988         985.481          47.000  
G19  20350907.406   106944733.982        1704.098          47.000  
C 2  37133747.972   193365171.788        1224.175          40.000  
G28  21914170.643   115159715.622       -1752.767          42.000  
G 4  24199167.401   127167482.443        1592.728          39.000  
G 9  23344912.513   122678384.179        2927.559          39.000  
C 1  37561957.085   195594966.950        1177.305          43.000  
C27  24290130.430   126485091.939        3118.586          41.000  
C 3  36098250.848   187973061.316        1191.702          44.000  
C 4  38480633.239   200378751.653        1174.335          40.000  
C10  36160122.095   188295228.817         263.564          43.000  
C13  36681574.876   191010590.014         908.961          44.000  
C14  23137490.011   120482980.765        -271.243          46.000  
C23  26035416.016   135573227.880       -1356.737          38.000  
C28  22180752.402   115500999.066        1673.808          49.000  
G12  23690429.058   124494048.735        4152.718          42.000  
G 5  23742680.541   124768564.388        4840.016          38.000  
G23  23467773.685   123324006.236        3083.111          40.000  
C 7  36981812.102   192573985.903        -128.861          42.000  
C 8  36668735.809   190943726.731         776.425          44.000  
C16  40552402.714   211166995.802        2598.743          36.000  
C 5  39150449.743   203866669.230        1212.605          37.000  
C11  25874273.202   134734093.581        -544.641          39.000  
C 6  39760797.668   207044910.699        2572.379          33.000  
> 2020  6  5  8  1 24.9990000  0 27                     
G 2  22549646.393   118499204.237        2183.286          44.000  
G 3  25091154.912   131854918.874       -2358.986          32.000  
G 6  20942657.569   110054411.288        1038.910          47.000  
G17  20860969.522   109625126.506         985.255          47.000  
G19  20350583.163   106943029.916        1703.807          47.000  
C 2  37133512.813   193363947.550        1224.389          40.000  
G28  21914504.536   115161468.617       -1753.124          42.000  
G 4  24198864.378   127165890.041        1592.434          39.000  
G 9  23344355.257   122675456.501        2927.397          39.000  
C 1  37561730.826   195593789.497        1177.204          43.000  
C27  24289531.556   126481973.058        3118.688          41.000  
C 3  36098021.796   187971869.499        1191.597          44.000  
C 4  38480407.747   200377577.176        1174.341          40.000  
C10  36160071.350   188294965.122         263.519          43.000  
C13  36681400.287   191009680.936         908.978          44.000  
C14  23137542.065   120483252.142        -271.544          46.000  
C23  26035676.757   135574584.441       -1356.834          38.000  
C28  22180430.795   115499325.163        1673.727          49.000  
G12  23689639.034   124489896.194        4152.617          42.000  
G 5  23741759.728   124763724.470        4839.723          38.000  
G23  23467186.956   123320922.878        3083.008          40.000  
C 7  36981836.725   192574114.620        -128.631          42.000  
C 8  36668586.976   190942950.134         776.337          44.000  
C16  40551903.411   211164396.838        2598.637          35.000  
C 5  39150216.992   203865456.030        1213.370          37.000  
C11  25874377.676   134734638.405        -544.967          39.000  
C 6  39760303.565   207042338.365        2572.288          33.000  
> 2020  6  5  8  1 25.9990000  0 27                     
G 2  22549230.938   118497020.877        2183.439          44.000  
G 3  25091603.662   131857277.394       -2358.693          32.000  
G 6  20942459.858   110053372.218        1039.103          47.000  
G17  20860782.020   109624141.264         985.174          47.000  
G19  20350259.043   106941326.112        1703.721          47.000  
C 2  37133277.776   193362723.233        1224.792          40.000  
G28  21914837.887   115163221.874       -1753.456          42.000  
G 4  24198561.389   127164298.074        1591.642          39.000  
G 9  23343798.299   122672529.074        2927.507          39.000  
C 1  37561504.584   195592611.959        1177.602          43.000  
C27  24288932.333   126478854.067        3119.056          41.000  
C 3  36097793.041   187970677.613        1191.940          44.000  
C 4  38480181.994   200376402.632        1174.316          40.000  
C10  36160020.692   188294701.509         263.583          43.000  
C13  36681225.628   191008771.812         909.111          44.000  
C14  23137594.224   120483523.956        -272.031          46.000  
C23  26035937.341   135575940.752       -1356.203          38.000  
C28  22180109.466   115497651.298        1673.866          49.000  
G12  23688848.940   124485743.973        4152.292          42.000  
G 5  23740838.898   124758884.651        4839.415          38.000  
G23  23466600.227   123317839.611        3083.252          40.000  
C 7  36981861.521   192574243.393        -128.928          42.000  
C 8  36668437.672   190942173.413         776.801          44.000  
C16  40551404.387   211161797.668        2599.165          36.000  
C 5  39149984.154   203864242.819        1213.280          37.000  
C11  25874482.133   134735183.276        -545.039          39.000  
C 6  39759809.828   207039765.832        2572.344          33.000  
> 2020  6  5  8  1 26.9990000  0 27                     
G 2  22548815.710   118494837.811        2183.009          44.000  
G 3  25092052.813   131859636.151       -2358.832          32.000  
G 6  20942262.199   110052333.499        1038.585          47.000  
G17  20860594.360   109623156.504         984.678          47.000  
G19  20349934.870   106939622.800        1703.217          47.000  
C 2  37133042.687   193361499.108        1224.151          40.000  
G28  21915171.431   115164975.593       -1753.874          42.000  
G 4  24198258.611   127162706.705        1591.240          39.000  
G 9  23343241.235   122669602.142        2926.671          39.000  
C 1  37561278.324   195591434.585        1177.354          43.000  
C27  24288333.424   126475735.198        3119.191          41.000  
C 3  36097564.077   187969485.889        1191.833          44.000  
C 4  38479956.554   200375228.240        1174.231          40.000  
C10  36159970.139   188294438.222         263.110          43.000  
C13  36681051.073   191007862.842         909.051          44.000  
C14  23137646.714   120483796.395        -272.725          46.000  
C23  26036197.681   135577297.090       -1356.383          37.000  
C28  22179787.824   115495977.718        1673.511          49.000  
G12  23688059.021   124481592.300        4151.115          42.000  
G 5  23739918.241   124754045.136        4839.809          38.000  
G23  23466013.377   123314756.670        3083.057          40.000  
C 7  36981886.353   192574372.427        -129.293          42.000  
C 8  36668288.717   190941396.810         776.616          44.000  
C16  40550905.224   211159198.569        2598.992          36.000  
C 5  39149751.176   203863029.757        1213.552          37.000  
C11  25874587.027   134735728.430        -545.186          39.000  
C 6  39759315.848   207037193.346        2572.759          33.000  
> 2020  6  5  8  1 27.9990000  0 27                     
G 2  22548400.273   118492655.035        2182.922          44.000  
G 3  25092501.789   131861995.205       -2359.169          32.000  
G 6  20942064.663   110051295.139        1038.371          47.000  
G17  20860406.858   109622172.247         984.149          46.000  
G19  20349610.680   106937920.001        1702.622          47.000  
C 2  37132807.650   193360275.136        1223.946          40.000  
G28  21915505.323   115166729.820       -1754.393          42.000  
G 4  24197955.727   127161116.040        1590.182          39.000  
G 9  23342684.504   122666675.677        2926.501          40.000  
C 1  37561052.379   195590257.403        1177.319          43.000  
C27  24287734.445   126472616.500        3118.925          41.000  
C 3  36097335.095   187968294.347        1191.740          44.000  
C 4  38479731.045   200374054.033        1174.152          40.000  
C10  36159919.900   188294175.229         263.202          43.000  
C13  36680876.536   191006954.017         908.849          44.000  
C14  23137699.064   120484069.498        -273.293          46.000  
C23  26036457.951   135578653.457       -1356.252          37.000  
C28  22179466.600   115494304.416        1673.253          49.000  
G12  23687268.945   124477441.136        4151.171          42.000  
G 5  23738997.236   124749205.984        4839.306          38.000  
G23  23465426.962   123311674.114        3082.434          40.000  
C 7  36981911.028   192574501.731        -129.226          42.000  
C 8  36668139.605   190940620.318         776.691          44.000  
C16  40550406.270   211156599.501        2599.431          36.000  
C 5  39149518.443   203861816.927        1212.560          37.000  
C11  25874691.606   134736273.884        -545.595          39.000  
C 6  39758822.024   207034620.978        2572.297          33.000  
> 2020  6  5  8  1 28.9990000  0 27                     
G 2  22547984.766   118490472.168        2183.036          44.000  
G 3  25092950.679   131864354.087       -2358.998          32.000  
G 6  20941867.144   110050256.730        1038.386          47.000  
G17  20860219.564   109621188.057         984.238          46.000  
G19  20349287.013   106936217.290        1702.664          47.000  
C 2  37132572.508   193359050.926        1224.321          40.000  
G28  21915839.320   115168484.103       -1754.134          42.000  
G 4  24197652.983   127159525.558        1590.774          39.000  
G 9  23342127.510   122663749.288        2926.437          40.000  
C 1  37560826.433   195589079.970        1177.719          43.000  
C27  24287135.623   126469497.509        3119.220          41.000  
C 3  36097106.270   187967102.587        1191.932          44.000  
C 4  38479505.449   200372879.579        1174.579          40.000  
C10  36159869.503   188293912.194         263.312          43.000  
C13  36680702.121   191006044.937         909.232          44.000  
C14  23137751.555   120484342.854        -273.416          46.000  
C23  26036717.977   135580009.450       -1355.872          37.000  
C28  22179145.132   115492630.988        1673.671          49.000  
G12  23686478.834   124473290.148        4151.034          42.000  
G 5  23738076.458   124744366.762        4839.204          38.000  
G23  23464840.460   123308591.457        3082.928          40.000  
C 7  36981935.981   192574630.908        -129.072          42.000  
C 8  36667990.196   190939843.534         777.053          44.000  
C16  40549907.019   211154000.109        2599.937          36.000  
C 5  39149285.430   203860603.796        1213.374          37.000  
C11  25874796.499   134736819.231        -545.346          39.000  
C 6  39758328.096   207032048.261        2573.232          34.000  
> 2020  6  5  8  1 29.9990000  0 27                     
G 2  22547569.206   118488289.155        2182.934          44.000  
G 3  25093399.464   131866712.787       -2359.027          31.000  
G 6  20941669.450   110049218.250        1038.018          47.000  
G17  20860032.585   109620203.938         983.751          46.000  
G19  20348963.190   106934514.647        1702.441          46.000  
C 2  37132337.244   193357826.480        1224.257          40.000  
G28  21916173.248   115170238.481       -1754.745          42.000  
G 4  24197350.379   127157935.354        1589.702          39.000  
G 9  23341570.848   122660822.962        2926.079          40.000  
C 1  37560600.366   195587902.299        1177.543          43.000  
C27  24286536.575   126466378.252        3119.071          41.000  
C 3  36096877.550   187965910.558        1191.975          44.000  
C 4  38479279.922   200371704.894        1174.536          40.000  
C10  36159818.880   188293649.062         262.886          43.000  
C13  36680527.497   191005135.608         909.051          44.000  
C14  23137803.923   120484616.438        -274.070          46.000  
C23  26036978.177   135581364.967       -1355.048          37.000  
C28  22178823.699   115490957.419        1673.439          49.000  
G12  23685689.072   124469139.276        4150.466          42.000  
G 5  23737155.610   124739527.459        4838.927          38.000  
G23  23464253.871   123305508.762        3082.397          40.000  
C 7  36981960.761   192574759.938        -129.275          42.000  
C 8  36667841.049   190939066.442         776.967          44.000  
C16  40549407.995   211151400.350        2599.892          36.000  
C 5  39149052.487   203859390.440        1213.058          37.000  
C11  25874901.392   134737364.446        -545.618          39.000  
C 6  39757834.132   207029475.214        2573.029          33.000  
> 2020  6  5  8  1 30.9990000  0 27                     
G 2  22547153.786   118486106.116        2183.078          44.000  
G 3  25093848.475   131869071.421       -2358.604          32.000  
G 6  20941471.722   110048179.772        1038.574          47.000  
G17  20859845.310   109619219.957         984.122          47.000  
G19  20348639.087   106932812.169        1702.606          47.000  
C 2  37132102.120   193356601.849        1224.917          40.000  
G28  21916507.105   115171992.983       -1754.194          42.000  
G 4  24197047.601   127156345.421        1590.149          39.000  
G 9  23341013.959   122657896.790        2926.153          40.000  
C 1  37560374.159   195586724.452        1178.040          43.000  
C27  24285937.753   126463258.788        3119.348          41.000  
C 3  36096648.534   187964718.381        1192.354          44.000  
C 4  38479054.343   200370530.035        1175.067          40.000  
C10  36159768.275   188293385.911         263.217          43.000  
C13  36680352.768   191004226.063         909.691          44.000  
C14  23137856.500   120484890.350        -273.914          46.000  
C23  26037238.499   135582720.245       -1355.048          37.000  
C28  22178502.389   115489283.798        1673.847          49.000  
G12  23684899.258   124464988.608        4150.616          42.000  
G 5  23736234.867   124734688.150        4839.086          38.000  
G23  23463667.247   123302426.017        3083.167          40.000  
C 7  36981985.540   192574888.905        -128.796          42.000  
C 8  36667691.954   190938289.118         777.620          44.000  
C16  40548908.832   211148800.326        2600.314          36.000  
C 5  39148819.579   203858176.926        1213.606          37.000  
C11  25875006.059   134737909.594        -544.742          39.000  
C 6  39757340.047   207026901.925        2573.146          33.000  
> 2020  6  5  8  1 31.9990000  0 27                     
G 2  22546738.122   118483923.236        2182.594          44.000  
G 3  25094297.399   131871430.176       -2359.441          32.000  
G 6  20941274.081   110047141.512        1038.156          47.000  
G17  20859658.331   109618236.335         983.396          47.000  
G19  20348315.159   106931110.063        1701.852          47.000  
C 2  37131867.223   193355377.275        1224.605          40.000  
G28  21916841.050   115173747.869       -1755.235          42.000  
G 4  24196745.066   127154756.023        1589.193          39.000  
G 9  23340456.896   122654970.951        2925.532          40.000  
C 1  37560147.952   195585546.636        1177.880          43.000  
C27  24285338.635   126460139.297        3119.364          41.000  
C 3  36096419.517   187963526.238        1192.072          44.000  
C 4  38478828.834   200369355.220        1174.683          40.000  
C10  36159717.582   188293122.944         262.676          43.000  
C13  36680178.178   191003316.555         909.394          44.000  
C14  23137909.409   120485164.774        -274.772          46.000  
C23  26037498.700   135584075.344       -1355.088          37.000  
C28  22178180.973   115487610.327        1673.274          49.000  
G12  23684109.636   124460838.332        4150.058          42.000  
G 5  23735314.019   124729849.029        4838.854          38.000  
G23  23463080.536   123299343.510        3082.550          40.000  
C 7  36982010.302   192575018.031        -129.318          42.000  
C 8  36667542.685   190937511.802         777.119          44.000  
C16  40548409.529   211146200.214        2600.459          36.000  
C 5  39148586.549   203856963.410        1213.549          37.000  
C11  25875110.673   134738454.913        -545.380          39.000  
C 6  39756846.188   207024328.581        2572.535          34.000  
> 2020  6  5  8  1 32.9990000  0 27                     
G 2  22546322.685   118481740.472        2182.603          44.000  
G 3  25094746.324   131873788.988       -2358.524          32.000  
G 6  20941076.579   110046103.434        1038.129          47.000  
G17  20859470.968   109617253.020         983.383          47.000  
G19  20347991.317   106929408.280        1701.801          47.000  
C 2  37131632.011   193354152.686        1224.813          40.000  
G28  21917174.925   115175503.042       -1755.138          42.000  
G 4  24196442.985   127153167.096        1588.822          39.000  
G 9  23339900.287   122652045.415        2925.332          39.000  
C 1  37559921.675   195584368.820        1178.105          43.000  
C27  24284739.534   126457019.776        3119.780          41.000  
C 3  36096190.483   187962334.094        1192.150          44.000  
C 4  38478603.395   200368180.401        1174.664          40.000  
C10  36159667.028   188292860.108         263.024          43.000  
C13  36680003.414   191002407.010         909.611          44.000  
C14  23137962.388   120485439.683        -275.013          46.000  
C23  26037758.900   135585430.306       -1354.856          37.000  
C28  22177859.540   115485936.953        1673.394          49.000  
G12  23683320.031   124456688.438        4149.939          42.000  
G 5  23734393.276   124725010.074        4839.073          38.000  
G23  23462494.069   123296261.158        3082.464          40.000  
C 7  36982035.186   192575147.245        -129.222          42.000  
C 8  36667393.189   190936734.397         777.762          44.000  
C16  40547910.418   211143599.988        2600.845          36.000  
C 5  39148353.431   203855749.915        1213.721          37.000  
C11  25875215.357   134739000.359        -545.504          39.000  
C 6  39756352.155   207021755.076        2573.388          34.000  
> 2020  6  5  8  1 33.9990000  0 27                     
G 2  22545907.300   118479557.851        2182.267          44.000  
G 3  25095195.196   131876147.895       -2358.907          32.000  
G 6  20940879.025   110045065.545        1037.827          47.000  
G17  20859283.884   109616270.035         982.688          47.000  
G19  20347667.529   106927706.834        1701.022          47.000  
C 2  37131396.904   193352928.104        1224.378          40.000  
G28  21917508.853   115177258.565       -1755.720          42.000  
G 4  24196140.660   127151578.668        1587.836          39.000  
G 9  23339343.363   122649120.196        2924.702          39.000  
C 1  37559695.555   195583191.022        1177.667          43.000  
C27  24284140.573   126453900.241        3119.246          41.000  
C 3  36095961.553   187961141.949        1191.914          44.000  
C 4  38478377.746   200367005.584        1174.762          40.000  
C10  36159616.877   188292597.425         262.743          43.000  
C13  36679828.581   191001497.459         909.484          44.000  
C14  23138015.315   120485715.075        -275.846          46.000  
C23  26038019.100   135586785.113       -1354.761          37.000  
C28  22177538.177   115484263.688        1673.170          49.000  
G12  23682530.321   124452538.925        4149.225          42.000  
G 5  23733472.550   124720171.287        4838.784          38.000  
G23  23461907.794   123293178.997        3081.598          40.000  
C 7  36982060.087   192575276.567        -129.672          42.000  
C 8  36667243.920   190935956.955         777.479          44.000  
C16  40547411.062   211140999.675        2600.215          36.000  
C 5  39148120.436   203854536.439        1213.284          37.000  
C11  25875320.180   134739545.924        -545.802          39.000  
C 6  39755858.087   207019181.500        2573.428          34.000  
