     3.02           OBSERVATION DATA    M: Mixed            RINEX VERSION / TYPE
RTKCONV 2.4.3 b33                       20200602 075854 UTC PGM / RUN BY / DATE 
log: D:\Documents\Visual Studio 2019\rtklib_portToVS\rtkli  COMMENT             
format: u-blox                                              COMMENT             
                                                            MARKER NAME         
                                                            MARKER NUMBER       
                                                            MARKER TYPE         
                                                            OBSERVER / AGENCY   
                                                            REC # / TYPE / VERS 
                                                            ANT # / TYPE        
 -2191130.1970  5198844.5539  2965372.3540                  APPROX POSITION XYZ 
        0.0000        0.0000        0.0000                  ANTENNA: DELTA H/E/N
G    4 C1C L1C D1C S1C                                      SYS / # / OBS TYPES 
C    4 C1I L1I D1I S1I                                      SYS / # / OBS TYPES 
  2020     5    30    12    31    4.0000000     GPS         TIME OF FIRST OBS   
  2020     5    30    12    44    5.0000000     GPS         TIME OF LAST OBS    
G                                                           SYS / PHASE SHIFT   
C                                                           SYS / PHASE SHIFT   
  0                                                         GLONASS SLOT / FRQ #
 C1C    0.000 C1P    0.000 C2C    0.000 C2P    0.000        GLONASS COD/PHS/BIS 
                                                            END OF HEADER       
> 2020  5 30 12 31  4.0000000  0 24                     
G 5  21416889.345   -22267031.406        -945.654          47.250  
C28  22129738.697   -32398027.9662      -1036.172          47.250  
G 2  21763802.396   -27346487.164        -564.346          43.250  
C14  25661826.870     -636619.0372      -2094.990          39.500  
G12  25691673.792    -6296173.6601      -1718.457          28.750  
G 6  24405905.662   -10666241.292       -2087.705          35.250  
G 7  25998933.108       73126.778        -357.627          31.250  
C 3  36443984.613   -13545988.0122        406.963          41.500  
G13  20412093.453   -22174614.253        1254.541          45.500  
C 9  37810311.289    -7573677.6442       1527.266          36.000  
C 8  36517416.385   -19880797.8092        934.297          44.750  
C 1  37884234.844   -12917119.3582        439.033          39.000  
C 2  37364898.739   -14213228.4542        445.947          38.000  
C 4  38844684.288   -12971568.2082        416.104          36.750  
C13  36460475.278   -26538889.2892       1082.246          46.750  
C 5  39396319.175   -13876176.4463        441.836          35.750  
G15  21171558.828   -20184906.638        2895.674          42.250  
C16  36743539.867   -18776618.8442       1222.256          43.250  
C 6  36331551.952   -18527483.1282       1036.123          43.250  
C27  22604862.198   -26123570.1562       2053.301          50.250  
G29  21554033.469   -26076259.560        1565.107          46.500  
G30  24511270.530    -9400309.282         854.814          36.500  
G25  25713900.065    -3848100.1471      -1572.158          28.500  
G18  24883909.111    -4977683.739        3416.582          38.000  
> 2020  5 30 12 31  5.0000000  0 25                     
G 5  21417068.943   -22266085.996        -945.283          47.250  
C28  22129937.665   -32396991.8132      -1036.123          47.250  
G 2  21763909.645   -27345922.931        -564.199          43.250  
C14  25662229.237     -634524.4202      -2094.463          39.500  
G12  25692002.170    -6294455.552       -1717.744          28.750  
G 6  24406303.038   -10664153.727       -2087.422          35.250  
G 7  25999001.059       73484.647        -357.783          31.000  
C 3  36443906.610   -13546395.2412        407.373          41.500  
C10  40664505.688        6724.2253       -866.182          26.750  
G13  20411854.734   -22175868.645        1254.365          45.500  
C 9  37810017.881    -7575205.1502       1527.539          36.000  
C 8  36517237.067   -19881732.4302        934.746          44.750  
C 1  37884150.559   -12917558.8182        439.580          39.000  
C 2  37364813.059   -14213674.7272        446.367          38.000  
C 4  38844604.611   -12971984.7252        416.670          36.750  
C13  36460267.481   -26539971.8792       1082.773          46.750  
C 5  39396234.332   -13876618.5742        442.217          36.000  
G15  21171007.890   -20187802.280        2895.674          42.250  
C16  36743305.057   -18777841.3092       1222.568          43.000  
C 6  36331353.020   -18528519.5072       1036.514          43.250  
C27  22604467.823   -26125623.4702       2053.340          50.250  
G29  21553735.384   -26077824.533        1564.961          46.500  
G30  24511107.894    -9401164.150         854.912          36.750  
G25  25714197.975    -3846528.473       -1571.455          28.250  
G18  24883259.056    -4981100.667        3417.129          38.000  
> 2020  5 30 12 31  6.0000000  0 25                     
G 5  21417248.925   -22265140.747        -945.156          47.250  
C28  22130136.702   -32395955.4452      -1036.367          47.000  
G 2  21764016.894   -27345358.575        -564.316          43.250  
C14  25662631.395     -632430.1792      -2094.150          39.500  
G12  25692329.955    -6292738.004       -1717.246          28.750  
G 6  24406700.345   -10662066.184       -2087.471          35.250  
G 7  25999069.010       73842.692        -358.125          31.500  
C 3  36443828.294   -13546802.7392        407.686          41.500  
C10  40664673.140        7590.1812       -865.596          26.750  
G13  20411616.260   -22177122.658        1253.945          45.500  
C 9  37809724.578    -7576732.7632       1527.725          36.000  
C 8  36517057.434   -19882667.2772        935.000          44.750  
C 1  37884066.135   -12917998.5612        439.902          39.000  
C 2  37364727.343   -14214121.2982        446.768          38.000  
C 4  38844524.584   -12972401.5202        416.865          36.500  
C13  36460059.474   -26541054.7362       1082.988          46.750  
C 5  39396149.455   -13877060.9932        442.510          35.750  
G15  21170456.533   -20190697.705        2895.459          42.250  
C16  36743070.142   -18779063.8982       1222.705          43.000  
C 6  36331154.087   -18529556.0002       1036.621          43.250  
C27  22604073.413   -26127676.6352       2053.203          50.250  
G29  21553437.718   -26079389.145        1564.600          46.500  
G30  24510945.747    -9402018.831         854.736          36.750  
G25  25714494.977    -3844957.181       -1571.104          28.750  
G18  24882608.860    -4984517.959        3417.500          38.000  
> 2020  5 30 12 31  7.0000000  0 25                     
G 5  21417428.697   -22264195.647        -945.068          47.250  
C28  22130335.669   -32394918.8472      -1036.660          47.000  
G 2  21764124.458   -27344794.100        -564.512          43.250  
C14  25663033.517     -630336.2862      -2093.828          39.250  
G12  25692656.867    -6291020.895       -1717.061          28.750  
G 6  24407097.582   -10659978.668       -2087.412          35.500  
G 7  25999136.961       74200.878        -358.242          32.000  
C 3  36443749.907   -13547210.5072        407.871          41.500  
C10  40664837.521        8455.6682       -865.459          26.500  
G13  20411377.680   -22178376.277        1253.525          45.500  
C 9  37809431.135    -7578260.5772       1527.930          36.000  
C 8  36516877.872   -19883602.3602        935.176          44.750  
C 1  37883981.746   -12918438.5332        440.029          39.000  
C 2  37364641.523   -14214568.1222        446.885          37.750  
C 4  38844444.313   -12972818.5802        417.207          36.500  
C13  36459851.572   -26542137.8812       1083.262          46.750  
C 5  39396064.472   -13877503.6842        442.812          36.000  
G15  21169905.420   -20193592.887        2895.078          42.250  
C16  36742835.436   -18780286.5902       1222.715          43.000  
C 6  36330954.980   -18530592.6112       1036.660          43.250  
C27  22603679.352   -26129729.6142       2052.930          50.250  
G29  21553140.157   -26080953.382        1564.141          46.500  
G30  24510783.250    -9402873.357         854.531          36.750  
G25  25714794.179    -3843386.183       -1571.016          28.500  
G18  24881958.526    -4987935.621        3417.812          38.000  
> 2020  5 30 12 31  8.0000000  0 25                     
G 5  21417608.678   -22263250.826        -944.932          47.250  
C28  22130534.741   -32393882.1722      -1036.895          47.000  
G 2  21764231.951   -27344229.626        -564.678          43.250  
C14  25663435.675     -628242.8362      -2093.516          39.500  
G12  25692983.640    -6289304.559       -1716.191          29.000  
G 6  24407494.888   -10657891.299       -2087.539          35.500  
G 7  25999205.401       74559.145        -358.438          31.750  
C 3  36443671.451   -13547618.6572        408.066          41.500  
C10  40665003.577        9320.7252       -865.059          26.500  
G13  20411139.171   -22179629.633        1253.076          45.750  
C 9  37809137.692    -7579788.6372       1527.949          35.750  
C 8  36516698.239   -19884537.7922        935.391          44.750  
C 1  37883897.077   -12918878.9222        440.381          39.000  
C 2  37364555.633   -14215015.3412        447.197          38.000  
C 4  38844364.251   -12973236.0102        417.373          36.750  
C13  36459643.391   -26543221.4352       1083.496          46.750  
C 5  39395979.524   -13877946.7022        442.969          35.750  
G15  21169354.342   -20196487.992        2894.873          42.250  
C16  36742600.626   -18781509.5252       1222.861          43.000  
C 6  36330755.943   -18531629.4502       1036.729          43.250  
C27  22603285.221   -26131782.5532       2052.734          50.250  
G29  21552842.491   -26082517.375        1563.711          46.750  
G30  24510620.754    -9403727.786         854.297          36.750  
G25  25715092.508    -3841815.675       -1570.713          28.250  
G18  24881308.016    -4991353.758        3418.105          38.000  
> 2020  5 30 12 31  9.0000000  0 25                     
G 5  21417788.555   -22262305.917        -944.854          47.500  
C28  22130733.814   -32392845.0482      -1037.168          47.000  
G 2  21764339.444   -27343664.807        -564.814          43.250  
C14  25663837.344     -626149.5232      -2093.193          39.250  
G12  25693308.110    -6287588.440       -1715.996          29.000  
G 6  24407892.334   -10655803.730       -2087.520          35.500  
G 7  25999273.596       74917.817        -358.711          31.750  
C 3  36443592.995   -13548026.8592        408.262          41.500  
C10  40665168.761       10185.5522       -864.697          26.250  
G13  20410900.870   -22180882.351        1252.617          45.750  
C 9  37808844.319    -7581316.6422       1528.018          35.750  
C 8  36516518.572   -19885473.2412        935.537          44.750  
C 1  37883812.304   -12919319.3202        440.479          39.000  
C 2  37364469.813   -14215462.5572        447.295          38.000  
C 4  38844283.945   -12973653.5152        417.588          36.500  
C13  36459435.384   -26544305.0392       1083.711          46.750  
C 5  39395894.507   -13878389.8292        443.281          35.750  
G15  21168803.613   -20199382.632        2894.551          42.250  
C16  36742365.642   -18782732.3402       1222.861          43.000  
C 6  36330556.801   -18532666.1992       1036.797          43.250  
C27  22602890.881   -26133835.1002       2052.510          50.250  
G29  21552545.035   -26084080.756        1563.291          46.750  
G30  24510458.153    -9404581.852         854.033          36.750  
G25  25715390.208    -3840245.270       -1570.371          28.250  
G18  24880657.542    -4994772.023        3418.398          38.000  
> 2020  5 30 12 31 10.0000000  0 25                     
G 5  21417968.432   -22261360.959        -945.137          47.500  
C28  22130933.060   -32391807.5062      -1037.832          47.000  
G 2  21764446.798   -27343099.675        -565.361          43.250  
C14  25664239.432     -624056.3132      -2093.291          39.250  
G12  25693634.533    -6285872.661       -1715.762          28.750  
G 6  24408289.641   -10653715.986       -2087.793          35.500  
G 7  25999341.757       75276.870        -359.375          31.750  
C 3  36443514.539   -13548435.1202        408.193          41.500  
C10  40665334.154       11050.2122       -864.717          26.250  
G13  20410662.710   -22182134.491        1251.826          45.750  
C 9  37808550.702    -7582844.5872       1527.793          35.750  
C 8  36516338.800   -19886408.7102        935.361          44.750  
C 1  37883727.845   -12919759.8252        440.361          39.000  
C 2  37364383.923   -14215909.8712        447.207          38.000  
C 4  38844203.570   -12974071.0492        417.480          36.500  
C13  36459227.134   -26545388.7222       1083.604          46.750  
C 5  39395809.245   -13878833.0162        443.135          35.750  
G15  21168252.745   -20202276.839        2893.945          42.250  
C16  36742130.831   -18783955.0712       1222.559          43.000  
C 6  36330357.415   -18533702.8532       1036.533          43.250  
C27  22602496.855   -26135887.2832       2051.953          50.250  
G29  21552247.613   -26085643.571        1562.539          46.750  
G30  24510295.796    -9405435.507         853.496          36.500  
G25  25715689.654    -3838674.988       -1570.371          28.500  
G18  24880006.719    -4998190.471        3418.379          37.750  
> 2020  5 30 12 31 11.0000000  0 25                     
G 5  21418148.344   -22260416.039        -945.068          47.500  
C28  22131132.446   -32390769.6392      -1038.145          47.000  
G 2  21764554.117   -27342534.299        -565.596          43.250  
C14  25664641.311     -621963.3502      -2093.018          39.500  
G12  25693961.620    -6284157.232       -1715.439          28.750  
G 6  24408687.087   -10651628.155       -2088.037          35.500  
G 7  25999410.301       75636.247        -359.668          31.500  
C 3  36443436.257   -13548843.5192        408.330          41.500  
C10  40665500.629       11914.6552       -864.326          26.250  
G13  20410424.619   -22183386.118        1251.299          45.750  
C 9  37808257.259    -7584372.5612       1527.832          35.750  
C 8  36516159.341   -19887344.3122        935.469          44.750  
C 1  37883643.281   -12920200.4702        440.566          39.000  
C 2  37364298.033   -14216357.3312        447.354          38.000  
C 4  38844123.508   -12974488.7332        417.598          36.750  
C13  36459019.092   -26546472.5542       1083.730          46.750  
C 5  39395724.402   -13879276.3192        443.193          35.750  
G15  21167701.807   -20205170.711        2893.613          42.250  
C16  36741895.951   -18785177.7972       1222.559          43.000  
C 6  36330158.413   -18534739.4862       1036.455          43.250  
C27  22602102.795   -26137939.1782       2051.670          50.250  
G29  21551950.541   -26087205.884        1562.002          46.750  
G30  24510133.265    -9406288.854         853.057          36.500  
G25  25715990.356    -3837105.024       -1570.156          29.000  
G18  24879356.140    -5001609.125        3418.506          38.000  
> 2020  5 30 12 31 12.0000000  0 25                     
G 5  21418327.941   -22259471.147        -944.883          47.500  
C28  22131331.972   -32389731.4432      -1038.311          47.000  
G 2  21764661.680   -27341968.700        -565.635          43.000  
C14  25665043.399     -619870.6332      -2092.637          39.250  
G12  25694288.951    -6282442.206       -1714.775          29.000  
G 6  24409084.324   -10649540.244       -2087.852          35.750  
G 7  25999478.427       75995.932        -359.805          31.000  
C 3  36443357.871   -13549252.0692        408.594          41.500  
C10  40665666.860       12778.7512       -863.975          26.500  
G13  20410186.633   -22184637.236        1250.967          45.750  
C 9  37807963.642    -7585900.6062       1528.037          35.750  
C 8  36515979.534   -19888280.0402        935.742          44.750  
C 1  37883558.508   -12920641.2572        440.859          39.000  
C 2  37364211.899   -14216804.9322        447.607          38.000  
C 4  38844043.272   -12974906.5952        417.969          36.500  
C13  36458810.911   -26547556.5792       1084.062          46.750  
C 5  39395638.826   -13879719.7852        443.486          35.750  
G15  21167151.287   -20208064.241        2893.389          42.250  
C16  36741661.106   -18786400.5412       1222.754          43.000  
C 6  36329959.341   -18535776.1542       1036.689          43.250  
C27  22601708.804   -26139990.7932       2051.553          50.250  
G29  21551653.259   -26088767.727        1561.689          46.750  
G30  24509970.943    -9407141.948         853.008          36.500  
G25  25716295.421    -3835535.270       -1569.521          29.500  
G18  24878705.665    -5005028.071        3419.043          37.750  
> 2020  5 30 12 31 13.0000000  0 25                     
G 5  21418507.714   -22258526.275        -944.844          47.500  
C28  22131531.428   -32388692.8892      -1038.652          47.000  
G 2  21764769.348   -27341402.839        -565.938          43.000  
C14  25665445.242     -617778.0982      -2092.441          39.250  
G12  25694615.061    -6280727.642       -1714.463          29.000  
G 6  24409481.805   -10647452.190       -2087.959          35.750  
G 7  25999547.041       76355.869        -359.990          30.500  
C 3  36443279.380   -13549660.7452        408.760          41.500  
C10  40665831.136       13642.6442       -863.721          26.500  
G13  20409948.542   -22185887.829        1250.449          45.750  
C 9  37807670.199    -7587428.7002       1528.174          35.750  
C 8  36515799.867   -19889215.8502        935.869          44.750  
C 1  37883473.805   -12921082.1702        440.986          38.750  
C 2  37364125.974   -14217252.6492        447.783          38.000  
C 4  38843962.966   -12975324.5422        418.076          36.500  
C13  36458602.730   -26548640.7392       1084.209          46.750  
C 5  39395553.495   -13880163.3422        443.662          35.750  
G15  21166600.733   -20210957.400        2893.086          42.250  
C16  36741426.296   -18787623.2512       1222.764          43.000  
C 6  36329760.164   -18536812.8072       1036.670          43.250  
C27  22601314.847   -26142042.0962       2051.240          50.250  
G29  21551356.221   -26090329.047        1561.201          46.750  
G30  24509808.586    -9407994.671         852.686          36.500  
G25  25716590.365    -3833965.741       -1569.297          29.250  
G18  24878054.737    -5008447.207        3419.238          37.750  
> 2020  5 30 12 31 14.0000000  0 25                     
G 5  21418687.695   -22257581.595        -944.717          47.250  
C28  22131730.919   -32387654.1592      -1038.877          47.000  
G 2  21764877.120   -27340836.899        -566.064          43.000  
C14  25665846.911     -615685.9742      -2092.119          39.500  
G12  25694944.137    -6279013.609       -1713.887          29.000  
G 6  24409879.216   -10645364.226       -2088.096          35.750  
G 7  25999615.551       76716.022        -360.312          30.750  
C 3  36443200.854   -13550069.7252        408.936          41.500  
C10  40665995.936       14506.0802       -863.301          26.500  
G13  20409710.591   -22187138.075        1250.010          45.750  
C 9  37807376.477    -7588956.9092       1528.174          35.500  
C 8  36515620.130   -19890151.9412        936.074          44.750  
C 1  37883389.346   -12921523.4002        441.221          39.000  
C 2  37364040.084   -14217700.6902        447.998          38.000  
C 4  38843882.625   -12975742.8282        418.281          36.500  
C13  36458394.304   -26549725.2112       1084.473          46.750  
C 5  39395468.373   -13880607.2542        443.896          35.750  
G15  21166050.283   -20213850.387        2892.822          42.250  
C16  36741191.172   -18788846.1102       1222.803          43.000  
C 6  36329561.162   -18537849.6002       1036.738          43.250  
C27  22600920.926   -26144093.2792       2051.045          50.250  
G29  21551059.079   -26091890.032        1560.771          46.750  
G30  24509646.439    -9408847.283         852.432          36.500  
G25  25716886.914    -3832396.611       -1568.994          29.250  
G18  24877403.879    -5011866.743        3419.600          37.750  
> 2020  5 30 12 31 15.0000000  0 25                     
G 5  21418867.467   -22256637.156        -944.219          47.250  
C28  22131930.549   -32386615.3102      -1038.760          47.000  
G 2  21764984.858   -27340270.944        -565.801          43.000  
C14  25666248.511     -613594.2502      -2091.387          39.250  
G12  25695270.770    -6277300.143       -1713.135          29.250  
G 6  24410276.732   -10643276.395       -2087.607          36.000  
G 7  25999684.060       77076.181        -359.990          30.500  
C 3  36443122.293   -13550479.0792        409.600          41.500  
C10  40666161.469       15369.0072       -862.803          26.500  
G13  20409472.570   -22188388.027        1250.000          45.750  
C 9  37807082.929    -7590485.4432       1528.721          35.750  
C 8  36515440.253   -19891088.3802        936.680          44.750  
C 1  37883304.538   -12921964.9792        441.758          38.750  
C 2  37363953.984   -14218149.0742        448.594          38.000  
C 4  38843802.180   -12976161.4852        418.965          36.500  
C13  36458185.914   -26550810.0792       1085.156          46.750  
C 5  39395383.216   -13881051.5182        444.541          36.000  
G15  21165499.938   -20216743.235        2892.988          42.250  
C16  36740956.118   -18790069.1872       1223.281          43.000  
C 6  36329362.090   -18538886.6392       1037.266          43.250  
C27  22600527.005   -26146144.3882       2051.240          50.250  
G29  21550761.867   -26093450.750        1560.791          46.500  
G30  24509483.907    -9409699.795         852.607          36.750  
G25  25717178.646    -3830827.871       -1568.564          29.250  
G18  24876752.777    -5015286.730        3420.312          37.750  
> 2020  5 30 12 31 16.0000000  0 25                     
G 5  21419047.030   -22255693.282        -943.691          47.500  
C28  22132130.180   -32385576.6542      -1038.564          47.000  
G 2  21765092.421   -27339705.277        -565.527          42.750  
C14  25666650.005     -611503.2972      -2090.645          39.500  
G12  25695595.833    -6275587.622       -1712.246          29.000  
G 6  24410673.969   -10641188.958       -2087.285          36.000  
G 7  25999752.535       77436.208        -359.990          30.250  
C 3  36443043.627   -13550889.0992        410.273          41.500  
C10  40666330.003       16231.2282       -861.875          26.500  
G13  20409234.654   -22189637.996        1250.000          45.750  
C 9  37806789.277    -7592014.4712       1529.180          35.750  
C 8  36515260.516   -19892025.4262        937.246          44.750  
C 1  37883219.695   -12922407.2442        442.529          39.000  
C 2  37363867.780   -14218598.1252        449.268          38.000  
C 4  38843721.525   -12976580.7962        419.473          36.500  
C13  36457977.663   -26551895.6162       1085.801          46.750  
C 5  39395297.605   -13881496.4402        445.215          36.000  
G15  21164949.593   -20219636.260        2893.096          42.500  
C16  36740721.273   -18791292.7682       1223.750          43.000  
C 6  36329162.843   -18539924.1902       1037.754          43.250  
C27  22600133.223   -26148195.7312       2051.445          50.250  
G29  21550465.108   -26095011.501        1560.801          46.750  
G30  24509321.899    -9410552.566         852.861          36.500  
G25  25717481.268    -3829259.925       -1567.451          29.250  
G18  24876101.569    -5018707.510        3421.084          37.500  
> 2020  5 30 12 31 17.0000000  0 25                     
G 5  21419226.663   -22254749.616        -943.652          47.500  
C28  22132329.741   -32384537.8272      -1038.926          47.250  
G 2  21765200.054   -27339139.548        -565.801          42.750  
C14  25667051.674     -609412.7192      -2090.566          39.250  
G12  25695919.395    -6273875.722       -1711.953          28.750  
G 6  24411070.822   -10639101.660       -2087.227          36.250  
G 7  25999820.975       77796.280        -360.352          30.500  
C 3  36442964.752   -13551299.4232        410.303          41.500  
C10  40666495.431       17092.9462       -861.465          26.250  
G13  20408997.087   -22190887.625        1249.453          45.750  
C 9  37806495.345    -7593543.7152       1529.248          35.750  
C 8  36515080.220   -19892962.7852        937.393          44.750  
C 1  37883134.712   -12922849.8192        442.529          39.000  
C 2  37363781.297   -14219047.4992        449.395          37.750  
C 4  38843641.219   -12977000.4432        419.668          36.500  
C13  36457769.308   -26552981.4812       1085.938          46.750  
C 5  39395212.238   -13881941.6702        445.303          35.750  
G15  21164399.109   -20222529.123        2892.734          42.250  
C16  36740486.288   -18792516.5192       1223.770          43.000  
C 6  36328963.562   -18540961.9092       1037.754          43.250  
C27  22599739.163   -26150246.9552       2051.143          50.250  
G29  21550168.210   -26096571.933        1560.273          46.750  
G30  24509159.438    -9411405.194         852.480          36.500  
G25  25717782.424    -3827692.395       -1567.275          29.000  
G18  24875450.467    -5022128.668        3421.240          37.500  
> 2020  5 30 12 31 18.0000000  0 25                     
G 5  21419406.295   -22253806.101        -943.457          47.500  
C28  22132529.371   -32383498.8042      -1039.082          47.250  
G 2  21765307.513   -27338573.719        -565.869          43.000  
C14  25667453.343     -607322.5252      -2090.029          39.500  
G12  25696243.760    -6272164.292       -1711.152          28.000  
G 6  24411468.128   -10637014.331       -2087.334          36.250  
G 7  25999889.415       78156.562        -360.283          30.500  
C 3  36442885.842   -13551710.0472        410.693          41.500  
C10  40666661.767       17954.2312       -860.977          26.250  
G13  20408759.345   -22192136.874        1249.150          45.500  
C 9  37806201.833    -7595073.1802       1529.551          35.500  
C 8  36514900.169   -19893900.3682        937.676          44.750  
C 1  37883049.765   -12923292.6852        442.988          39.000  
C 2  37363694.744   -14219497.1492        449.736          37.750  
C 4  38843560.355   -12977420.3522        420.078          36.500  
C13  36457560.812   -26554067.6462       1086.260          46.750  
C 5  39395126.732   -13882387.1922        445.605          35.750  
G15  21163848.554   -20225421.763        2892.607          42.500  
C16  36740251.303   -18793740.3992       1223.965          43.000  
C 6  36328764.106   -18541999.7512       1037.871          43.250  
C27  22599345.555   -26152298.0232       2051.016          50.250  
G29  21549871.173   -26098132.003        1559.941          46.750  
G30  24508997.256    -9412257.653         852.461          36.250  
G25  25718081.695    -3826125.151       -1567.217          29.250  
G18  24874799.399    -5025550.215        3421.670          37.500  
> 2020  5 30 12 31 19.0000000  0 25                     
G 5  21419585.718   -22252862.551        -943.447          47.500  
C28  22132728.932   -32382459.3692      -1039.434          47.000  
G 2  21765415.460   -27338007.555        -566.113          43.000  
C14  25667854.664     -605232.4492      -2089.902          39.500  
G12  25696569.800    -6270453.177       -1710.908          28.000  
G 6  24411865.644   -10634926.880       -2087.363          36.250  
G 7  25999957.889       78517.187        -360.576          30.500  
C 3  36442807.037   -13552120.7202        410.840          41.500  
C10  40666826.916       18815.3642       -860.947          26.500  
G13  20408521.673   -22193385.542        1248.633          45.750  
C 9  37805907.901    -7596602.5312       1529.463          35.750  
C 8  36514720.048   -19894838.0002        937.764          44.750  
C 1  37882964.677   -12923735.6422        443.105          39.000  
C 2  37363608.435   -14219946.8662        449.824          37.750  
C 4  38843479.944   -12977840.3222        420.195          36.500  
C13  36457352.212   -26555153.9002       1086.436          46.500  
C 5  39395041.156   -13882832.7812        445.889          35.500  
G15  21163298.384   -20228313.981        2892.266          42.500  
C16  36740016.284   -18794964.2072       1223.936          43.000  
C 6  36328565.138   -18543037.5192       1037.900          43.250  
C27  22598951.739   -26154348.7442       2050.732          50.250  
G29  21549574.728   -26099691.499        1559.463          46.750  
G30  24508834.864    -9413109.741         852.158          36.250  
G25  25718378.977    -3824558.089       -1566.914          29.250  
G18  24874148.332    -5028971.941        3421.836          37.500  
> 2020  5 30 12 31 20.0000000  0 25                     
G 5  21419765.316   -22251919.119        -943.428          47.500  
C28  22132928.562   -32381419.6932      -1039.775          47.250  
G 2  21765523.232   -27337441.259        -566.357          42.750  
C14  25668256.019     -603142.7082      -2089.648          39.250  
G12  25696895.316    -6268742.573       -1710.410          28.000  
G 6  24412263.125   -10632839.440       -2087.402          36.250  
G 7  26000025.561       78877.985        -361.045          30.750  
C 3  36442728.162   -13552531.6422        411.006          41.500  
C10  40666992.344       19676.0792       -860.664          26.500  
G13  20408284.175   -22194633.792        1248.125          45.750  
C 9  37805614.179    -7598132.0412       1529.492          35.750  
C 8  36514540.171   -19895775.8342        937.871          44.750  
C 1  37882879.450   -12924178.8022        443.213          38.750  
C 2  37363522.161   -14220396.8282        449.980          37.750  
C 4  38843399.254   -12978260.5732        420.264          36.500  
C13  36457143.438   -26556240.3972       1086.533          46.750  
C 5  39394955.476   -13883278.6072        445.889          35.750  
G15  21162748.039   -20231205.949        2891.914          42.500  
C16  36739781.369   -18796188.0812       1223.887          43.000  
C 6  36328365.822   -18544075.3732       1037.891          43.250  
C27  22598557.957   -26156399.2562       2050.439          50.250  
G29  21549278.075   -26101250.607        1558.965          46.750  
G30  24508672.996    -9413961.614         851.846          36.250  
G25  25718673.990    -3822991.392       -1566.670          29.750  
G18  24873497.159    -5032393.959        3422.080          37.500  
> 2020  5 30 12 31 21.0000000  0 25                     
G 5  21419944.913   -22250975.769        -943.301          47.500  
C28  22133128.193   -32380379.7742      -1039.951          47.250  
G 2  21765631.005   -27336874.795        -566.523          43.000  
C14  25668657.199     -601053.2752      -2089.268          39.500  
G12  25697218.808    -6267032.471       -1710.059          28.250  
G 6  24412660.327   -10630751.958       -2087.480          36.250  
G 7  26000095.467       79239.106        -361.055          31.250  
C 3  36442649.252   -13552942.7902        411.211          41.250  
C10  40667156.550       20536.5172       -860.430          26.250  
G13  20408046.643   -22195881.619        1247.754          45.750  
C 9  37805320.283    -7599661.6822       1529.541          35.500  
C 8  36514359.910   -19896713.8712        938.145          44.750  
C 1  37882794.363   -12924622.2282        443.516          38.750  
C 2  37363435.573   -14220847.0382        450.352          37.750  
C 4  38843318.564   -12978681.0182        420.518          36.500  
C13  36456934.803   -26557327.1502       1086.875          46.750  
C 5  39394869.691   -13883724.6702        446.240          35.750  
G15  21162198.043   -20234097.654        2891.670          42.500  
C16  36739546.419   -18797412.0462       1224.043          43.000  
C 6  36328166.366   -18545113.3312       1038.008          43.250  
C27  22598164.280   -26158449.5662       2050.264          50.250  
G29  21548981.351   -26102809.294        1558.584          46.750  
G30  24508510.604    -9414813.246         851.582          36.250  
G25  25718973.017    -3821424.983       -1566.348          29.500  
G18  24872846.022    -5035816.324        3422.441          37.750  
> 2020  5 30 12 31 22.0000000  0 25                     
G 5  21420124.511   -22250032.442        -943.262          47.750  
C28  22133328.137   -32379339.4892      -1040.322          47.000  
G 2  21765738.882   -27336308.090        -566.689          43.000  
C14  25669058.449     -598964.0252      -2089.102          39.250  
G12  25697543.277    -6265322.751       -1709.531          28.000  
G 6  24413057.564   -10628664.367       -2087.490          36.500  
G 7  26000164.430       79600.469        -361.299          31.500  
C 3  36442570.342   -13553354.0552        411.406          41.250  
C10  40667320.652       21396.6812       -860.215          26.000  
G13  20407809.390   -22197128.903        1247.217          45.750  
C 9  37805026.665    -7601191.3622       1529.795          35.500  
C 8  36514179.754   -19897652.0212        938.281          44.750  
C 1  37882709.171   -12925065.7632        443.672          39.000  
C 2  37363349.125   -14221297.3522        450.410          37.750  
C 4  38843237.665   -12979101.6172        420.703          36.500  
C13  36456725.959   -26558414.0212       1087.002          46.750  
C 5  39394784.115   -13884170.8472        446.250          35.500  
G15  21161648.047   -20236988.985        2891.299          42.500  
C16  36739311.295   -18798635.9782       1224.004          43.000  
C 6  36327967.189   -18546151.2492       1037.998          43.250  
C27  22597770.464   -26160499.5672       2050.000          50.250  
G29  21548684.872   -26104367.452        1558.086          46.750  
G30  24508348.561    -9415664.608         851.396          36.250  
G25  25719273.440    -3819858.826       -1565.938          29.250  
G18  24872194.919    -5039238.922        3422.695          37.750  
> 2020  5 30 12 31 23.0000000  0 25                     
G 5  21420303.655   -22249089.348        -942.900          47.750  
C28  22133527.838   -32378299.0712      -1040.332          47.250  
G 2  21765846.654   -27335741.337        -566.660          43.000  
C14  25669459.665     -596875.2082      -2088.652          39.250  
G12  25697869.562    -6263613.654       -1708.809          27.500  
G 6  24413455.080   -10626576.878       -2087.363          36.250  
G 7  26000233.254       79961.957        -361.426          31.750  
C 3  36442491.328   -13553765.6682        411.807          41.250  
C10  40667484.091       22256.3542       -859.512          26.250  
G13  20407572.137   -22198375.884        1246.982          45.750  
C 9  37804732.908    -7602721.2442       1530.020          35.500  
C 8  36513999.493   -19898590.4532        938.613          44.750  
C 1  37882623.909   -12925509.6382        444.072          38.750  
C 2  37363262.467   -14221748.0082        450.918          38.000  
C 4  38843156.871   -12979522.5502        421.162          36.500  
C13  36456517.289   -26559501.2722       1087.490          46.500  
C 5  39394698.190   -13884617.3722        446.807          35.750  
G15  21161097.702   -20239880.174        2891.250          42.500  
C16  36739076.171   -18799860.1092       1224.336          43.000  
C 6  36327767.873   -18547189.3672       1038.271          43.250  
C27  22597376.613   -26162549.4692       2049.980          50.500  
G29  21548388.393   -26105925.336        1557.881          46.750  
G30  24508186.623    -9416515.827         851.279          36.250  
G25  25719570.303    -3818293.099       -1565.557          29.000  
G18  24871543.538    -5042661.929        3423.232          37.750  
> 2020  5 30 12 31 24.0000000  0 25                     
G 5  21420483.148   -22248146.324        -943.027          47.750  
C28  22133727.887   -32377258.3462      -1040.830          47.000  
G 2  21765954.671   -27335174.367        -567.031          42.750  
C14  25669860.776     -594786.6602      -2088.486          39.250  
G12  25698193.542    -6261904.917       -1708.477          27.750  
G 6  24413852.212   -10624489.335       -2087.539          36.250  
G 7  26000303.857       80323.686        -361.787          31.750  
C 3  36442412.174   -13554177.4632        411.768          41.500  
C10  40667648.995       23115.7792       -859.170          26.250  
G13  20407334.953   -22199622.383        1246.348          45.750  
C 9  37804439.291    -7604251.2022       1529.941          35.750  
C 8  36513819.372   -19899529.0602        938.662          44.750  
C 1  37882538.787   -12925953.6852        444.053          38.750  
C 2  37363175.879   -14222198.8342        450.947          37.750  
C 4  38843076.076   -12979943.6582        421.182          36.500  
C13  36456308.375   -26560588.7292       1087.490          46.750  
C 5  39394612.579   -13885064.0672        446.748          35.750  
G15  21160547.392   -20242771.050        2890.781          42.500  
C16  36738841.012   -18801084.2592       1224.131          43.000  
C 6  36327568.591   -18548227.5322       1038.164          43.250  
C27  22596983.215   -26164599.1312       2049.580          50.500  
G29  21548091.983   -26107482.744        1557.266          46.750  
G30  24508024.615    -9417366.783         850.820          36.250  
G25  25719867.725    -3816727.576       -1565.283          28.750  
G18  24870892.400    -5046085.250        3423.379          38.000  
> 2020  5 30 12 31 25.0000000  0 25                     
G 5  21420662.536   -22247203.488        -942.656          47.750  
C28  22133927.832   -32376217.4442      -1040.830          47.000  
G 2  21766062.583   -27334607.337        -566.953          42.750  
C14  25670261.851     -592698.4822      -2087.900          39.250  
G12  25698517.802    -6260196.830       -1707.578          27.750  
G 6  24414249.553   -10622401.870       -2087.324          36.250  
G 7  26000372.995       80685.603        -361.855          31.750  
C 3  36442333.159   -13554589.5582        412.324          41.500  
C10  40667812.574       23974.7372       -858.730          26.250  
G13  20407097.770   -22200868.526        1246.133          45.750  
C 9  37804145.429    -7605781.3632       1530.342          35.500  
C 8  36513639.041   -19900467.9222        939.072          44.750  
C 1  37882453.456   -12926398.0762        444.619          38.750  
C 2  37363089.152   -14222649.9832        451.348          38.000  
C 4  38842995.317   -12980365.0782        421.641          36.500  
C13  36456099.391   -26561676.4922       1087.979          46.750  
C 5  39394526.619   -13885511.0762        447.197          35.750  
G15  21159997.605   -20245661.745        2890.742          42.500  
C16  36738605.783   -18802308.5632       1224.414          43.000  
C 6  36327369.030   -18549265.8512       1038.467          43.250  
C27  22596589.433   -26166648.6552       2049.590          50.500  
G29  21547795.539   -26109039.832        1557.119          46.750  
G30  24507862.852    -9418217.652         851.016          36.250  
G25  25720172.755    -3815162.494       -1564.941          28.750  
G18  24870240.739    -5049508.955        3424.033          38.000  
> 2020  5 30 12 31 26.0000000  0 25                     
G 5  21420842.064   -22246260.815        -942.559          47.750  
C28  22134127.637   -32375176.3482      -1041.084          47.000  
G 2  21766170.321   -27334040.174        -567.148          42.750  
C14  25670662.962     -590610.6612      -2087.676          39.250  
G12  25698840.945    -6258489.183       -1707.559          27.500  
G 6  24414646.685   -10620314.436       -2087.354          36.250  
G 7  26000442.203       81047.671        -362.002          31.500  
C 3  36442253.865   -13555001.9402        412.529          41.250  
C10  40667977.723       24833.2082       -858.447          26.250  
G13  20406860.656   -22202114.302        1245.703          45.750  
C 9  37803851.602    -7607311.6592       1530.420          35.750  
C 8  36513458.885   -19901407.0422        939.248          44.750  
C 1  37882368.054   -12926842.7132        444.814          38.750  
C 2  37363002.389   -14223101.4112        451.572          38.000  
C 4  38842914.243   -12980786.7562        421.865          36.500  
C13  36455890.477   -26562764.5592       1088.203          46.500  
C 5  39394440.729   -13885958.4042        447.529          35.750  
G15  21159447.365   -20248552.234        2890.518          42.500  
C16  36738370.589   -18803532.9982       1224.521          43.000  
C 6  36327169.505   -18550304.3082       1038.545          43.250  
C27  22596195.896   -26168698.0292       2049.385          50.250  
G29  21547499.200   -26110596.553        1556.689          46.750  
G30  24507700.949    -9419068.282         850.615          36.250  
G25  25720468.571    -3813597.743       -1564.697          28.750  
G18  24869589.183    -5052932.983        3424.189          37.750  
> 2020  5 30 12 31 27.0000000  0 25                     
G 5  21421021.383   -22245318.514        -942.412          47.750  
C28  22134327.407   -32374135.2542      -1041.299          47.000  
G 2  21766278.303   -27333473.126        -567.227          42.750  
C14  25671063.654     -588523.3872      -2087.295          39.250  
G12  25699167.858    -6256782.287       -1706.875          27.500  
G 6  24415043.957   -10618227.231       -2087.324          36.250  
G 7  26000509.491       81409.688        -362.236          31.500  
C 3  36442174.571   -13555414.7862        412.754          41.250  
C10  40668141.685       25691.1772       -858.018          26.250  
G13  20406623.578   -22203359.891        1245.303          45.750  
C 9  37803557.601    -7608842.3452       1530.674          35.500  
C 8  36513278.555   -19902346.6162        939.561          44.750  
C 1  37882282.583   -12927287.8602        445.127          38.750  
C 2  37362915.627   -14223553.2952        451.816          37.750  
C 4  38842833.099   -12981208.9382        422.197          36.500  
C13  36455681.563   -26563853.0992       1088.525          46.500  
C 5  39394354.735   -13886406.1122        447.686          36.000  
G15  21158897.509   -20251442.692        2890.273          42.500  
C16  36738135.499   -18804757.7682       1224.688          43.000  
C 6  36326970.293   -18551343.0762       1038.701          43.250  
C27  22595802.463   -26170747.4392       2049.219          50.250  
G29  21547202.790   -26112153.111        1556.318          46.750  
G30  24507539.150    -9419918.957         850.547          36.250  
G25  25720761.106    -3812033.536       -1564.180          28.500  
G18  24868937.522    -5056357.639        3424.668          38.000  
> 2020  5 30 12 31 28.0000000  0 25                     
G 5  21421200.771   -22244376.003        -942.520          47.750  
C28  22134527.456   -32373093.5642      -1041.777          47.000  
G 2  21766386.111   -27332905.585        -567.676          42.750  
C14  25671464.241     -586436.1042      -2087.207          39.250  
G12  25699492.153    -6255075.568       -1706.719          27.750  
G 6  24415441.229   -10616139.716       -2087.500          36.250  
G 7  26000578.524       81772.284        -362.744          31.000  
C 3  36442095.243   -13555827.5592        412.832          41.500  
C10  40668308.928       26549.1242       -857.852          26.250  
G13  20406386.848   -22204604.726        1244.658          45.750  
C 9  37803263.670    -7610372.8402       1530.508          35.500  
C 8  36513098.050   -19903286.0612        939.473          44.750  
C 1  37882196.903   -12927732.8922        445.127          38.750  
C 2  37362829.143   -14224005.0732        451.816          37.750  
C 4  38842752.200   -12981631.0112        422.061          36.500  
C13  36455472.370   -26564941.5742       1088.506          46.500  
C 5  39394268.775   -13886853.7692        447.656          35.750  
G15  21158347.548   -20254332.557        2889.766          42.500  
C16  36737900.305   -18805982.2752       1224.473          43.000  
C 6  36326770.977   -18552381.6062       1038.535          43.250  
C27  22595409.031   -26172796.3212       2048.770          50.250  
G29  21546906.974   -26113708.923        1555.664          46.750  
G30  24507377.038    -9420769.115         850.020          36.000  
G25  25721063.100    -3810469.347       -1564.180          28.500  
G18  24868285.861    -5059782.256        3424.658          38.000  
> 2020  5 30 12 31 29.0000000  0 25                     
G 5  21421380.089   -22243433.169        -943.057          47.750  
C28  22134727.645   -32372051.1862      -1042.695          47.000  
G 2  21766494.302   -27332337.459        -568.457          42.750  
C14  25671865.038     -584348.6822      -2087.627          39.250  
G12  25699819.623    -6253368.919       -1706.680          28.500  
G 6  24415838.605   -10614051.705       -2088.281          36.500  
G 7  26000647.243       82135.556        -363.467          30.750  
C 3  36442015.809   -13556240.1062        412.393          41.250  
C10  40668476.380       27407.1442       -858.193          26.500  
G13  20406150.153   -22205848.682        1243.584          45.750  
C 9  37802969.738    -7611902.9662       1529.961          35.500  
C 8  36512917.824   -19904225.2742        939.004          44.750  
C 1  37882111.397   -12928177.6962        444.551          38.750  
C 2  37362742.451   -14224456.6392        451.338          37.750  
C 4  38842671.301   -12982052.8862        421.758          36.500  
C13  36455263.561   -26566029.8272       1088.096          46.500  
C 5  39394182.990   -13887301.2192        447.148          35.750  
G15  21157797.552   -20257221.731        2888.838          42.500  
C16  36737665.181   -18807206.4282       1223.936          43.000  
C 6  36326571.660   -18553419.7842       1037.920          43.250  
C27  22595015.668   -26174844.5552       2047.900          50.250  
G29  21546610.879   -26115263.893        1554.580          46.500  
G30  24507215.414    -9421618.599         849.209          36.250  
G25  25721359.160    -3808905.029       -1564.570          28.000  
G18  24867634.549    -5063206.765        3424.355          38.000  
> 2020  5 30 12 31 30.0000000  0 25                     
G 5  21421559.443   -22242489.901        -943.271          47.750  
C28  22134928.043   -32371008.0312      -1043.271          47.000  
G 2  21766602.528   -27331768.621        -568.926          42.750  
C14  25672265.904     -582261.0292      -2087.646          39.250  
G12  25700144.896    -6251662.217       -1706.582          28.500  
G 6  24416235.981   -10611963.150       -2088.643          36.250  
G 7  26000716.311       82499.529        -364.033          30.500  
C 3  36441936.865   -13556652.3272        412.266          41.250  
C10  40668642.332       28265.3122       -858.135          26.750  
G13  20405913.738   -22207091.668        1242.803          45.500  
C 9  37802675.911    -7613432.7092       1529.824          35.750  
C 8  36512737.493   -19905164.1432        938.877          44.750  
C 1  37882026.065   -12928622.2462        444.570          38.750  
C 2  37362655.723   -14224907.8962        451.230          37.750  
C 4  38842590.227   -12982474.4392        421.543          36.500  
C13  36455054.577   -26567117.8242       1088.047          46.500  
C 5  39394097.065   -13887748.3722        447.148          35.750  
G15  21157247.870   -20260110.082        2888.223          42.500  
C16  36737430.371   -18808430.1252       1223.721          43.000  
C 6  36326372.379   -18554457.5102       1037.705          43.500  
C27  22594622.514   -26176892.0462       2047.383          50.250  
G29  21546315.167   -26116817.912        1553.877          46.500  
G30  24507053.860    -9422467.323         848.691          36.250  
G25  25721655.290    -3807340.433       -1564.395          28.000  
G18  24866982.993    -5066631.054        3424.375          38.000  
> 2020  5 30 12 31 31.0000000  0 24                     
G 5  21421739.075   -22241546.425        -943.496          47.750  
C28  22135128.581   -32369964.2802      -1043.857          47.000  
G 2  21766710.650   -27331199.299        -569.482          42.750  
C14  25672667.050     -580173.3432      -2087.715          39.000  
G12  25700469.923    -6249955.589       -1706.494          28.500  
G 6  24416633.393   -10609874.283       -2088.955          36.250  
G 7  26000785.413       82864.103        -364.639          30.250  
C 3  36441857.780   -13557064.4422        412.119          41.250  
C10  40668808.527       29123.4682       -857.881          26.500  
G13  20405677.392   -22208333.914        1242.080          45.500  
C 9  37802382.050    -7614962.2042       1529.453          35.750  
C 8  36512557.163   -19906102.8452        938.711          44.750  
C 1  37881940.733   -12929066.6532        444.424          38.750  
C 2  37362569.065   -14225359.0782        451.162          38.000  
C 4  38842509.293   -12982895.8872        421.465          36.500  
C13  36454845.593   -26568205.7262       1087.910          46.500  
C 5  39394011.245   -13888195.4422        447.061          35.500  
G15  21156698.362   -20262997.831        2887.607          42.500  
C16  36737195.456   -18809653.5462       1223.389          43.000  
C 6  36326173.202   -18555494.9832       1037.412          43.250  
C27  22594229.256   -26178939.0022       2046.836          50.250  
G29  21546019.700   -26118371.178        1553.096          46.500  
G30  24506892.655    -9423315.476         848.018          36.500  
G18  24866331.193    -5070055.340        3424.346          38.000  
> 2020  5 30 12 31 32.0000000  0 25                     
G 5  21421918.638   -22240602.911        -943.545          48.000  
C28  22135328.979   -32368920.1352      -1044.307          47.000  
G 2  21766818.841   -27330629.664        -569.756          42.750  
C14  25673067.672     -578085.8262      -2087.520          39.000  
G12  25700795.021    -6248249.353       -1706.162          28.000  
G 6  24417030.699   -10607785.228       -2089.102          36.250  
G 7  26000853.295       83229.010        -365.010          30.000  
C 3  36441778.556   -13557476.6662        412.217          41.250  
C10  40668971.861       29981.4722       -858.066          26.500  
G13  20405440.907   -22209575.556        1241.436          45.500  
C 9  37802088.328    -7616491.6902       1529.355          35.500  
C 8  36512376.937   -19907041.6212        938.721          44.750  
C 1  37881855.542   -12929511.1642        444.541          38.750  
C 2  37362482.442   -14225810.3152        451.201          37.750  
C 4  38842428.254   -12983317.4472        421.533          36.250  
C13  36454636.644   -26569293.7042       1087.969          46.500  
C 5  39393925.355   -13888642.5172        447.109          35.750  
G15  21156149.065   -20265885.192        2887.217          42.500  
C16  36736960.437   -18810876.8902       1223.311          43.000  
C 6  36325974.025   -18556532.3852       1037.363          43.250  
C27  22593836.243   -26180985.6032       2046.455          50.250  
G29  21545724.198   -26119923.872        1552.451          46.500  
G30  24506731.380    -9424163.244         847.529          36.500  
G25  25722248.004    -3804211.5213      -1564.170          27.500  
G18  24865679.671    -5073479.765        3424.404          38.000  
> 2020  5 30 12 31 33.0000000  0 25                     
G 5  21422098.270   -22239659.001        -944.004          48.000  
C28  22135529.482   -32367875.2282      -1045.127          47.000  
G 2  21766927.346   -27330059.364        -570.488          42.750  
C14  25673468.608     -575998.1032      -2087.764          39.000  
G12  25701122.701    -6246543.112       -1706.211          28.250  
G 6  24417428.145   -10605695.653       -2089.824          36.000  
G 7  26000921.141       83594.650        -365.908          30.750  
C 3  36441699.542   -13557888.5912        411.855          41.250  
C10  40669135.928       30839.5382       -858.223          26.500  
G13  20405204.666   -22210816.264        1240.420          45.500  
C 9  37801794.536    -7618020.8232       1528.975          35.500  
C 8  36512196.676   -19907980.0802        938.359          44.750  
C 1  37881770.140   -12929955.3712        444.189          38.750  
C 2  37362395.785   -14226261.2862        450.889          37.750  
C 4  38842347.495   -12983738.7052        421.211          36.500  
C13  36454427.765   -26570381.4322       1087.656          46.500  
C 5  39393839.674   -13889089.3422        446.787          35.750  
G15  21155599.592   -20268771.754        2886.367          42.500  
C16  36736725.766   -18812099.8242       1222.793          43.000  
C 6  36325774.883   -18557569.3642       1036.875          43.250  
C27  22593443.264   -26183031.4822       2045.693          50.250  
G29  21545428.941   -26121475.664        1551.533          46.500  
G30  24506570.419    -9425010.319         846.836          36.250  
G25  25722541.098    -3802646.8992      -1564.609          27.500  
G18  24865028.080    -5076904.020        3424.209          38.250  
> 2020  5 30 12 31 34.0000000  0 25                     
G 5  21422278.147   -22238714.741        -944.316          48.000  
C28  22135730.265   -32366829.6192      -1045.742          47.000  
G 2  21767035.782   -27329488.450        -571.045          42.750  
C14  25673869.370     -573910.2382      -2087.832          39.000  
G12  25701446.821    -6244836.797       -1706.270          28.000  
G 6  24417825.592   -10603605.623       -2090.186          36.000  
G 7  26000995.549       83961.017        -366.699          31.000  
C 3  36441620.352   -13558300.2952        411.660          41.500  
C10  40669301.112       31697.8222       -858.047          26.250  
G13  20404968.669   -22212056.089        1239.600          45.500  
C 9  37801500.744    -7619549.5362       1528.711          35.500  
C 8  36512016.485   -19908918.2802        938.145          44.750  
C 1  37881684.739   -12930399.3662        444.004          38.750  
C 2  37362309.266   -14226712.0202        450.615          37.750  
C 4  38842266.595   -12984159.7422        421.016          36.500  
C13  36454218.747   -26571468.9592       1087.500          46.500  
C 5  39393753.854   -13889535.9592        446.602          35.500  
G15  21155050.364   -20271657.588        2885.654          42.500  
C16  36736491.130   -18813322.3732       1222.441          43.000  
C 6  36325575.637   -18558605.9612       1036.533          43.500  
C27  22593050.564   -26185076.6992       2045.059          50.250  
G29  21545133.613   -26123026.576        1550.693          46.500  
G30  24506409.284    -9425856.718         846.250          36.500  
G25  25722838.136    -3801082.0732      -1565.039          27.500  
G18  24864376.559    -5080328.142        3424.062          38.000  
> 2020  5 30 12 31 35.0000000  0 25                     
G 5  21422457.640   -22237770.294        -944.590          48.000  
C28  22135931.117   -32365783.4562      -1046.406          47.000  
G 2  21767144.462   -27328917.067        -571.602          42.750  
C14  25674270.306     -571822.3432      -2087.949          39.000  
G12  25701770.244    -6243130.817       -1705.928          27.500  
G 6  24418223.282   -10601515.272       -2090.469          36.000  
G 7  26001063.605       84327.809        -366.934          31.250  
C 3  36441541.163   -13558711.9282        411.514          41.250  
C10  40669466.087       32555.9462       -858.076          26.500  
G13  20404732.707   -22213295.180        1238.799          45.500  
C 9  37801207.127    -7621078.0922       1528.389          35.500  
C 8  36511836.608   -19909856.3642        938.018          44.750  
C 1  37881599.372   -12930843.2962        443.867          38.750  
C 2  37362222.364   -14227162.7072        450.654          37.750  
C 4  38842185.871   -12984580.7002        420.791          36.250  
C13  36454009.902   -26572556.3892       1087.334          46.500  
C 5  39393668.034   -13889982.4902        446.426          35.750  
G15  21154501.345   -20274542.873        2885.029          42.500  
C16  36736256.390   -18814544.6942       1222.158          42.750  
C 6  36325376.669   -18559642.3542       1036.270          43.250  
C27  22592658.004   -26187121.4192       2044.512          50.250  
G29  21544838.460   -26124576.759        1549.912          46.500  
G30  24506248.288    -9426702.595         845.625          36.250  
G25  25723137.233    -3799517.3802      -1564.785          27.500  
G18  24863724.898    -5083752.271        3424.062          38.250  
> 2020  5 30 12 31 36.0000000  0 25                     
G 5  21422637.726   -22236825.454        -944.912          48.000  
C28  22136132.143   -32364736.5312      -1047.090          47.000  
G 2  21767253.177   -27328345.020        -572.197          42.750  
C14  25674671.312     -569734.2942      -2088.096          39.000  
G12  25702094.678    -6241424.603       -1706.260          27.250  
G 6  24418620.972   -10599424.393       -2090.918          36.000  
G 7  26001133.266       84695.383        -367.510          31.500  
C 3  36441462.219   -13559123.2702        411.309          41.250  
C10  40669631.166       33414.3042       -858.418          26.250  
G13  20404497.234   -22214533.332        1237.930          45.250  
C 9  37800913.579    -7622606.2952       1528.145          35.500  
C 8  36511656.487   -19910794.1572        937.754          44.750  
C 1  37881514.215   -12931286.9482        443.633          38.750  
C 2  37362135.846   -14227613.0742        450.400          37.750  
C 4  38842104.727   -12985001.3862        420.654          36.500  
C13  36453801.337   -26573643.5662       1087.139          46.500  
C 5  39393582.318   -13890428.7462        446.162          35.750  
G15  21153952.606   -20277427.372        2884.346          42.500  
C16  36736021.545   -18815766.6012       1221.836          43.000  
C 6  36325177.807   -18560678.3252       1035.898          43.500  
C27  22592265.409   -26189165.4222       2043.857          50.250  
G29  21544543.761   -26126126.031        1549.053          46.500  
G30  24506087.327    -9427547.713         844.951          36.500  
G25  25723440.866    -3797952.4342      -1565.039          27.750  
G18  24863073.411    -5087176.229        3423.906          38.250  
> 2020  5 30 12 31 37.0000000  0 25                     
G 5  21422817.638   -22235880.529        -944.980          48.000  
C28  22136333.135   -32363689.1562      -1047.520          47.000  
G 2  21767362.276   -27327772.613        -572.539          42.750  
C14  25675072.597     -567646.3302      -2087.939          39.000  
G12  25702417.751    -6239718.810       -1705.508          27.250  
G 6  24419018.768   -10597333.310       -2091.230          36.000  
G 7  26001203.451       85063.368        -368.057          31.500  
C 3  36441383.204   -13559534.6592        411.348          41.500  
C10  40669795.512       34272.5302       -858.115          26.500  
G13  20404261.900   -22215770.865        1237.314          45.500  
C 9  37800619.927    -7624134.4162       1528.076          35.750  
C 8  36511476.261   -19911731.9422        937.754          44.750  
C 1  37881428.919   -12931730.6382        443.691          39.000  
C 2  37362049.398   -14228063.4512        450.371          37.750  
C 4  38842024.003   -12985422.1112        420.811          36.500  
C13  36453592.354   -26574730.7772       1087.197          46.500  
C 5  39393496.498   -13890875.0252        446.230          35.750  
G15  21153403.761   -20280311.401        2883.867          42.500  
C16  36735787.084   -18816988.3772       1221.738          42.750  
C 6  36324978.944   -18561714.1622       1035.752          43.500  
C27  22591873.093   -26191209.0202       2043.438          50.500  
G29  21544248.817   -26127674.692        1548.477          46.500  
G30  24505926.576    -9428392.432         844.531          36.250  
G25  25723738.742    -3796387.5732      -1564.785          28.000  
G18  24862421.611    -5090600.316        3424.111          38.250  
> 2020  5 30 12 31 38.0000000  0 25                     
G 5  21422997.655   -22234935.514        -945.039          48.250  
C28  22136534.336   -32362641.3162      -1047.988          47.000  
G 2  21767471.235   -27327199.842        -572.861          42.750  
C14  25675473.603     -565558.4652      -2087.852          39.000  
G12  25702742.709    -6238013.220       -1705.371          26.750  
G 6  24419416.563   -10595241.989       -2091.387          36.000  
G 7  26001271.995       85431.818        -368.574          31.500  
C 3  36441304.189   -13559946.0422        411.396          41.250  
C10  40669960.835       35130.5822       -857.959          26.500  
G13  20404026.462   -22217007.748        1236.680          45.250  
C 9  37800326.554    -7625662.4152       1527.988          35.750  
C 8  36511296.280   -19912669.7082        937.734          44.750  
C 1  37881343.692   -12932174.3252        443.730          38.750  
C 2  37361963.019   -14228513.8692        450.371          37.750  
C 4  38841943.417   -12985842.8422        420.625          36.250  
C13  36453383.649   -26575818.0222       1087.246          46.500  
C 5  39393410.748   -13891321.3372        446.299          35.750  
G15  21152855.161   -20283194.954        2883.408          42.750  
C16  36735552.448   -18818210.0092       1221.611          43.000  
C 6  36324780.011   -18562749.8742       1035.674          43.500  
C27  22591480.777   -26193252.1972       2043.027          50.250  
G29  21543954.676   -26129222.706        1547.803          46.750  
G30  24505765.999    -9429236.729         844.150          36.250  
G25  25724036.826    -3794822.9652      -1564.824          28.000  
G18  24861769.741    -5094024.465        3424.150          38.250  
> 2020  5 30 12 31 39.0000000  0 25                     
G 5  21423177.462   -22233990.276        -945.244          48.250  
C28  22136735.537   -32361592.9132      -1048.535          46.750  
G 2  21767580.299   -27326626.572        -573.389          42.750  
C14  25675874.574     -563470.5762      -2087.842          39.000  
G12  25703067.144    -6236307.808       -1705.400          27.000  
G 6  24419814.532   -10593150.356       -2091.670          36.000  
G 7  26001342.983       85800.777        -369.141          31.500  
C 3  36441225.140   -13560357.3502        411.250          41.250  
C10  40670125.565       35988.6012       -857.959          26.750  
G13  20403790.989   -22218243.877        1235.928          45.250  
C 9  37800033.076    -7627190.2042       1527.793          35.500  
C 8  36511116.089   -19913607.3772        937.676          44.750  
C 1  37881258.744   -12932617.9362        443.574          39.000  
C 2  37361876.571   -14228964.2142        450.352          38.000  
C 4  38841862.414   -12986263.4962        420.674          36.250  
C13  36453174.909   -26576905.2092       1087.168          46.500  
C 5  39393324.858   -13891767.5502        446.338          35.500  
G15  21152306.631   -20286077.910        2882.793          42.500  
C16  36735317.952   -18819431.4002       1221.309          43.000  
C 6  36324581.184   -18563785.3542       1035.469          43.500  
C27  22591088.322   -26195294.8462       2042.539          50.250  
G29  21543660.256   -26130769.999        1547.080          46.750  
G30  24505605.596    -9430080.471         843.623          36.250  
G25  25724333.689    -3793258.2162      -1564.912          28.250  
G18  24861118.115    -5097448.631        3424.150          38.250  
> 2020  5 30 12 31 40.0000000  0 25                     
G 5  21423357.443   -22233044.850        -945.469          48.250  
C28  22136936.912   -32360543.9482      -1049.121          46.750  
G 2  21767689.363   -27326052.852        -573.877          42.750  
C14  25676275.301     -561382.6802      -2087.930          39.000  
G12  25703388.996    -6234602.599       -1705.146          27.250  
G 6  24420212.572   -10591058.372       -2092.012          36.000  
G 7  26001412.853       86170.271        -369.570          31.500  
C 3  36441146.160   -13560768.5802        411.182          41.250  
C10  40670291.412       36846.5222       -858.066          26.750  
G13  20403555.341   -22219479.268        1235.176          45.250  
C 9  37799739.668    -7628717.8192       1527.500          35.750  
C 8  36510936.142   -19914544.9262        937.500          44.750  
C 1  37881173.482   -12933061.4592        443.506          38.750  
C 2  37361790.122   -14229414.4522        450.195          37.750  
C 4  38841781.549   -12986684.0782        420.547          36.500  
C13  36452966.205   -26577992.3522       1087.139          46.500  
C 5  39393239.317   -13892213.6522        446.055          35.750  
G15  21151757.962   -20288960.300        2882.197          42.500  
C16  36735083.421   -18820652.5882       1221.162          43.000  
C 6  36324382.286   -18564820.6022       1035.186          43.500  
C27  22590696.076   -26197336.9942       2042.031          50.250  
G29  21543366.290   -26132316.574        1546.367          46.500  
G30  24505445.194    -9430923.704         843.105          36.250  
G25  25724632.891    -3791693.4462      -1564.912          28.500  
G18  24860466.523    -5100872.829        3424.238          38.250  
> 2020  5 30 12 31 41.0000000  0 25                     
G 5  21423537.320   -22232099.279        -945.635          48.250  
C28  22137138.637   -32359494.4732      -1049.658          46.750  
G 2  21767798.531   -27325478.720        -574.277          42.750  
C14  25676676.028     -559294.8492      -2087.861          38.750  
G12  25703718.526    -6232897.569       -1704.922          27.500  
G 6  24420610.576   -10588966.151       -2092.373          35.750  
G 7  26001483.352       86540.263        -370.215          31.500  
C 3  36441067.181   -13561179.7752        411.221          41.250  
C10  40670455.863       37704.3872       -857.881          27.000  
G13  20403320.321   -22220713.983        1234.512          45.250  
C 9  37799446.435    -7630245.3082       1527.441          35.750  
C 8  36510756.056   -19915482.3962        937.432          44.750  
C 1  37881088.255   -12933504.9682        443.535          39.000  
C 2  37361704.058   -14229864.6422        450.146          37.750  
C 4  38841700.964   -12987104.6102        420.537          36.500  
C13  36452757.465   -26579079.4602       1087.090          46.500  
C 5  39393153.671   -13892659.7752        446.074          35.500  
G15  21151209.396   -20291842.181        2881.689          42.500  
C16  36734848.995   -18821873.5592       1220.938          43.000  
C 6  36324183.389   -18565855.6842       1035.000          43.250  
C27  22590304.039   -26199378.6722       2041.523          50.250  
G29  21543071.905   -26133862.474        1545.684          46.500  
G30  24505284.966    -9431766.434         842.617          36.500  
G25  25724934.465    -3790128.8552      -1564.805          28.500  
G18  24859814.828    -5104297.075        3424.199          38.500  
> 2020  5 30 12 31 42.0000000  0 25                     
G 5  21423717.197   -22231153.431        -945.967          48.250  
C28  22137340.152   -32358444.3552      -1050.371          46.750  
G 2  21767907.979   -27324904.018        -574.893          42.750  
C14  25677077.069     -557206.9352      -2087.979          39.000  
G12  25704041.180    -6231192.680       -1704.854          27.750  
G 6  24421008.616   -10586873.537       -2092.725          35.750  
G 7  26001553.956       86910.830        -370.820          31.500  
C 3  36440988.306   -13561590.8102        410.928          41.250  
C10  40670620.104       38562.2732       -857.900          26.750  
G13  20403085.790   -22221947.867        1233.594          45.250  
C 9  37799153.271    -7631772.5222       1527.012          35.500  
C 8  36510576.040   -19916419.6862        937.168          44.750  
C 1  37881003.098   -12933948.3112        443.262          38.750  
C 2  37361617.575   -14230314.7302        449.961          37.750  
C 4  38841620.449   -12987525.0102        420.312          36.500  
C13  36452548.726   -26580166.4262       1086.865          46.500  
C 5  39393068.165   -13893105.6972        445.830          35.750  
G15  21150660.866   -20294723.389        2880.967          42.500  
C16  36734614.569   -18823094.2352       1220.547          43.000  
C 6  36323984.665   -18566890.4722       1034.678          43.500  
C27  22589912.072   -26201419.7532       2040.869          50.250  
G29  21542777.799   -26135407.567        1544.805          46.500  
G30  24505124.878    -9432608.558         841.904          36.500  
G25  25725229.758    -3788564.1222      -1564.775          28.250  
G18  24859163.446    -5107721.258        3424.150          38.500  
> 2020  5 30 12 31 43.0000000  0 25                     
G 5  21423897.283   -22230207.251        -946.396          48.250  
C28  22137541.772   -32357393.5532      -1051.152          46.750  
G 2  21768017.601   -27324328.738        -575.596          42.750  
C14  25677477.830     -555118.8822      -2088.145          39.000  
G12  25704365.196    -6229487.759       -1705.049          28.000  
G 6  24421407.039   -10584780.452       -2093.301          35.750  
G 7  26001624.560       87282.074        -371.514          31.500  
C 3  36440909.291   -13562001.6282        410.625          41.250  
C10  40670784.136       39420.2612       -858.105          26.500  
G13  20402851.155   -22223180.883        1232.656          45.250  
C 9  37798860.247    -7633299.3822       1526.680          35.500  
C 8  36510396.163   -19917356.7462        936.865          44.750  
C 1  37880918.046   -12934391.4682        443.018          39.000  
C 2  37361531.126   -14230764.5542        449.668          37.750  
C 4  38841539.654   -12987945.1652        419.932          36.250  
C13  36452339.986   -26581253.1772       1086.602          46.500  
C 5  39392982.589   -13893551.4422        445.596          35.500  
G15  21150112.650   -20297603.891        2880.186          42.250  
C16  36734380.073   -18824314.5372       1220.098          43.000  
C 6  36323786.152   -18567924.8842       1034.189          43.500  
C27  22589520.385   -26203460.1842       2040.127          50.250  
G29  21542484.042   -26136951.807        1543.877          46.500  
G30  24504964.720    -9433450.028         841.123          36.500  
G25  25725529.867    -3786999.269       -1564.990          28.250  
G18  24858511.925    -5111145.301        3423.867          38.500  
> 2020  5 30 12 31 44.0000000  0 25                     
G 5  21424077.649   -22229260.915        -946.396          48.250  
C28  22137743.706   -32356342.2162      -1051.533          46.750  
G 2  21768127.258   -27323752.993        -575.908          42.750  
C14  25677878.802     -553030.8672      -2088.086          39.000  
G12  25704689.665    -6227783.071       -1704.854          28.000  
G 6  24421805.358   -10582687.079       -2093.467          35.750  
G 7  26001695.338       87653.839        -372.041          31.250  
C 3  36440830.346   -13562412.4102        410.723          41.250  
C10  40670949.704       40278.1522       -857.920          26.500  
G13  20402616.624   -22224413.188        1232.061          45.250  
C 9  37798567.153    -7634826.1272       1526.729          35.500  
C 8  36510216.077   -19918293.7272        936.943          44.750  
C 1  37880833.273   -12934834.5312        443.027          39.000  
C 2  37361444.713   -14231214.3412        449.834          37.750  
C 4  38841458.860   -12988365.2892        420.078          36.250  
C13  36452131.352   -26582339.9102       1086.699          46.500  
C 5  39392896.874   -13893997.1162        445.713          35.750  
G15  21149564.644   -20300483.842        2879.707          42.250  
C16  36734145.786   -18825534.6482       1220.020          43.000  
C 6  36323587.499   -18568959.1062       1034.150          43.250  
C27  22589128.593   -26205500.1342       2039.785          50.500  
G29  21542190.425   -26138495.355        1543.340          46.500  
G30  24504804.771    -9434290.979         840.791          36.250  
G25  25725827.288    -3785434.375       -1565.205          28.000  
G18  24857860.578    -5114569.391        3424.033          38.750  
> 2020  5 30 12 31 45.0000000  0 25                     
G 5  21424257.770   -22228314.524        -946.387          48.250  
C28  22137945.535   -32355290.4682      -1051.885          46.500  
G 2  21768236.915   -27323176.955        -576.123          42.750  
C14  25678279.842     -550942.9772      -2087.871          39.000  
G12  25705015.496    -6226078.740       -1704.229          28.000  
G 6  24422203.258   -10580593.457       -2093.730          35.750  
G 7  26001766.081       88025.904        -372.178          31.500  
C 3  36440751.436   -13562823.2442        410.850          41.250  
C10  40671114.783       41135.9182       -857.783          26.750  
G13  20402382.163   -22225644.895        1231.504          45.250  
C 9  37798274.059    -7636352.7852       1526.562          35.500  
C 8  36510036.025   -19919230.7262        937.002          44.750  
C 1  37880747.941   -12935277.7192        443.174          38.750  
C 2  37361358.334   -14231664.2002        449.844          37.750  
C 4  38841378.240   -12988785.4762        420.166          36.250  
C13  36451922.717   -26583426.7282       1086.826          46.500  
C 5  39392811.437   -13894442.8202        445.576          35.750  
G15  21149016.777   -20303363.382        2879.434          42.500  
C16  36733911.465   -18826754.6752       1220.010          43.000  
C 6  36323389.124   -18569993.2472       1034.121          43.500  
C27  22588736.940   -26207539.7072       2039.473          50.500  
G29  21541896.702   -26140038.324        1542.793          46.500  
G30  24504645.032    -9435131.573         840.488          36.250  
G25  25726126.839    -3783869.759       -1564.658          28.250  
G18  24857209.126    -5117993.633        3424.258          38.750  
> 2020  5 30 12 31 46.0000000  0 25                     
G 5  21424437.996   -22227368.100        -946.514          48.250  
C28  22138147.643   -32354238.3192      -1052.334          46.500  
G 2  21768346.712   -27322600.578        -576.533          42.750  
C14  25678680.918     -548855.2602      -2087.734          39.000  
G12  25705336.684    -6224374.612       -1703.916          27.750  
G 6  24422601.611   -10578499.782       -2093.799          35.750  
G 7  26001837.138       88398.408        -372.578          31.500  
C 3  36440672.526   -13563234.1512        410.869          41.250  
C10  40671279.827       41993.4042       -857.539          26.750  
G13  20402147.667   -22226876.021        1230.908          45.250  
C 9  37797981.000    -7637879.4372       1526.611          35.500  
C 8  36509856.253   -19920167.7942        937.031          44.750  
C 1  37880662.819   -12935720.9492        443.193          38.750  
C 2  37361271.746   -14232114.1602        449.980          38.000  
C 4  38841297.515   -12989205.7362        420.186          36.500  
C13  36451713.873   -26584513.6462       1086.865          46.500  
C 5  39392725.757   -13894888.6512        445.801          35.500  
G15  21148468.910   -20306242.452        2878.877          42.500  
C16  36733677.143   -18827974.6182       1219.873          43.000  
C 6  36323190.715   -18571027.3192       1033.975          43.250  
C27  22588345.183   -26209578.9322       2039.082          50.250  
G29  21541603.260   -26141580.737        1542.207          46.500  
G30  24504485.013    -9435971.784         840.088          36.500  
G25  25726423.911    -3782305.232       -1564.736          28.250  
G18  24856557.710    -5121418.088        3424.482          38.750  
> 2020  5 30 12 31 47.0000000  0 25                     
G 5  21424618.047   -22226421.511        -946.689          48.250  
C28  22138349.647   -32353185.6472      -1052.861          46.500  
G 2  21768456.649   -27322023.794        -576.982          42.750  
C14  25679081.750     -546767.5622      -2087.725          39.000  
G12  25705656.756    -6222670.793       -1703.906          27.500  
G 6  24423000.209   -10576405.761       -2094.111          35.750  
G 7  26001908.300       88771.399        -373.037          31.750  
C 3  36440593.582   -13563645.0282        410.811          41.250  
C10  40671444.034       42850.8512       -857.432          27.000  
G13  20401913.729   -22228106.440        1230.166          45.000  
C 9  37797687.941    -7639405.9352       1526.514          35.500  
C 8  36509676.341   -19921104.7392        936.855          44.750  
C 1  37880577.662   -12936164.1422        443.086          38.750  
C 2  37361185.298   -14232564.0212        449.814          37.750  
C 4  38841216.825   -12989626.0042        420.225          36.500  
C13  36451505.098   -26585600.5092       1086.816          46.500  
C 5  39392640.216   -13895334.4582        445.723          35.750  
G15  21147921.287   -20309121.008        2878.379          42.500  
C16  36733442.891   -18829194.3472       1219.629          43.000  
C 6  36322992.132   -18572061.1942       1033.799          43.500  
C27  22587953.844   -26211617.6692       2038.564          50.250  
G29  21541309.921   -26143122.466        1541.514          46.500  
G30  24504325.483    -9436811.492         839.521          36.500  
G25  25726721.787    -3780740.782       -1564.443          28.000  
G18  24855906.153    -5124842.512        3424.414          39.000  
> 2020  5 30 12 31 48.0000000  0 25                     
G 5  21424798.308   -22225474.874        -946.680          48.250  
C28  22138551.825   -32352132.5512      -1053.242          46.500  
G 2  21768566.725   -27321446.664        -577.275          43.000  
C14  25679482.581     -544680.0122      -2087.471          39.000  
G12  25705979.655    -6220967.329       -1703.281          27.250  
G 6  24423398.633   -10574311.593       -2094.141          35.750  
G 7  26001979.427       89144.800        -373.525          32.000  
C 3  36440514.846   -13564055.9442        410.918          41.250  
C10  40671609.252       43708.0842       -857.197          26.750  
G13  20401679.652   -22229336.270        1229.629          45.000  
C 9  37797394.708    -7640932.3392       1526.357          35.500  
C 8  36509496.255   -19922041.7282        936.943          44.750  
C 1  37880492.331   -12936607.4252        443.301          38.750  
C 2  37361098.815   -14233013.9882        449.980          37.750  
C 4  38841136.170   -12990046.2802        420.352          36.250  
C13  36451296.463   -26586687.4572       1086.963          46.500  
C 5  39392554.570   -13895780.2652        445.840          35.500  
G15  21147373.943   -20311999.099        2877.920          42.750  
C16  36733208.744   -18830414.0082       1219.609          43.000  
C 6  36322793.653   -18573094.9862       1033.760          43.500  
C27  22587562.331   -26213656.0292       2038.232          50.250  
G29  21541016.479   -26144663.596        1540.938          46.500  
G30  24504165.884    -9437650.822         839.199          36.500  
G25  25727015.613    -3779176.450       -1564.268          27.750  
G18  24855254.667    -5128267.141        3424.629          39.000  
> 2020  5 30 12 31 49.0000000  0 25                     
G 5  21424978.219   -22224528.185        -946.689          48.250  
C28  22138754.038   -32351079.0312      -1053.623          46.500  
G 2  21768676.870   -27320869.219        -577.529          43.000  
C14  25679883.517     -542592.5972      -2087.363          39.000  
G12  25706303.636    -6219264.096       -1703.008          27.750  
G 6  24423797.231   -10572217.237       -2094.385          35.750  
G 7  26002050.868       89518.566        -373.877          32.250  
C 3  36440435.971   -13564466.9352        411.035          41.250  
C10  40671773.145       44565.1272       -856.924          26.750  
G13  20401445.784   -22230565.500        1229.072          45.250  
C 9  37797101.649    -7642458.7192       1526.387          35.750  
C 8  36509316.308   -19922978.7782        937.100          44.750  
C 1  37880407.208   -12937050.7502        443.379          38.750  
C 2  37361012.296   -14233463.9752        450.078          37.750  
C 4  38841055.097   -12990466.6292        420.352          36.250  
C13  36451087.759   -26587774.4662       1087.061          46.500  
C 5  39392468.959   -13896226.1212        445.889          35.750  
G15  21146826.355   -20314876.783        2877.559          42.750  
C16  36732974.737   -18831633.5762       1219.590          43.000  
C 6  36322595.035   -18574128.6872       1033.662          43.250  
C27  22587171.062   -26215694.0202       2037.891          50.250  
G29  21540723.350   -26146204.162        1540.439          46.500  
G30  24504006.389    -9438489.754         838.877          36.500  
G25  25727310.766    -3777612.306       -1564.053          28.000  
G18  24854603.215    -5131691.882        3424.785          39.250  
> 2020  5 30 12 31 50.0000000  0 25                     
G 5  21425158.620   -22223581.256        -946.875          48.250  
C28  22138956.147   -32350024.9152      -1054.150          46.500  
G 2  21768786.772   -27320291.258        -577.969          43.000  
C14  25680284.454     -540505.1272      -2087.383          39.000  
G12  25706628.524    -6217561.056       -1702.910          28.250  
G 6  24424195.445   -10570122.520       -2094.609          35.500  
G 7  26002122.205       89892.854        -374.297          32.500  
C 3  36440357.166   -13564877.8092        410.957          41.250  
C10  40671937.875       45422.1782       -857.051          26.750  
G13  20401211.812   -22231793.952        1228.359          45.000  
C 9  37796808.695    -7643984.8992       1526.250          35.750  
C 8  36509136.327   -19923915.6502        936.953          44.750  
C 1  37880322.226   -12937493.9502        443.301          38.750  
C 2  37360926.023   -14233913.8762        450.020          37.750  
C 4  38840974.616   -12990886.8682        420.352          36.500  
C13  36450879.159   -26588861.3692       1086.992          46.500  
C 5  39392383.384   -13896671.9242        445.850          35.500  
G15  21146278.872   -20317753.831        2877.012          42.750  
C16  36732740.625   -18832852.8502       1219.346          43.000  
C 6  36322396.521   -18575162.1192       1033.467          43.250  
C27  22586779.793   -26217731.4512       2037.402          50.250  
G29  21540430.430   -26147743.954        1539.707          46.500  
G30  24503847.068    -9439328.120         838.359          36.500  
G25  25727606.582    -3776048.045       -1564.043          28.000  
G18  24853951.694    -5135116.628        3424.805          39.250  
> 2020  5 30 12 31 51.0000000  0 25                     
G 5  21425338.776   -22222634.259        -947.012          48.250  
C28  22139158.988   -32348970.3692      -1054.668          46.250  
G 2  21768896.918   -27319712.964        -578.408          43.000  
C14  25680685.215     -538417.8032      -2087.285          39.000  
G12  25706953.970    -6215858.261       -1702.852          28.000  
G 6  24424593.658   -10568027.599       -2094.932          35.250  
G 7  26002193.751       90267.562        -374.717          32.250  
C 3  36440278.431   -13565288.7162        410.869          41.250  
C10  40672102.291       46279.0733       -856.846          26.750  
G13  20400978.188   -22233021.789        1227.656          45.000  
C 9  37796515.670    -7645510.9942       1526.094          35.500  
C 8  36508956.450   -19924852.5572        936.895          44.750  
C 1  37880237.034   -12937937.1992        443.271          38.750  
C 2  37360839.679   -14234363.7962        449.922          37.750  
C 4  38840893.926   -12991307.1562        420.361          36.250  
C13  36450670.350   -26589948.3392       1086.973          46.500  
C 5  39392297.773   -13897117.7292        445.703          35.500  
G15  21145731.424   -20320630.439        2876.455          42.750  
C16  36732506.478   -18834072.0432       1219.121          43.000  
C 6  36322198.007   -18576195.4632       1033.271          43.250  
C27  22586388.490   -26219768.4982       2036.934          50.250  
G29  21540137.581   -26149283.155        1539.004          46.500  
G30  24503687.643    -9440166.065         837.803          36.250  
G25  25727904.109    -3774483.997       -1564.160          27.750  
G18  24853299.998    -5138541.506        3424.902          39.250  
> 2020  5 30 12 31 52.0000000  0 25                     
G 5  21425519.037   -22221687.366        -946.807          48.500  
C28  22139361.515   -32347915.5632      -1054.795          46.500  
G 2  21769007.133   -27319134.493        -578.496          43.000  
C14  25681086.047     -536330.7812      -2086.885          39.250  
G12  25707279.033    -6214156.056       -1702.002          28.250  
G 6  24424992.256   -10565932.672       -2094.805          35.250  
G 7  26002265.227       90642.548        -374.854          32.250  
C 3  36440199.521   -13565699.8422        411.270          41.250  
C10  40672267.230       47135.5932       -856.445          27.000  
G13  20400744.634   -22234249.187        1227.295          45.000  
C 9  37796222.507    -7647037.1782       1526.279          35.750  
C 8  36508776.608   -19925789.6502        937.227          44.750  
C 1  37880152.191   -12938380.6792        443.555          39.000  
C 2  37360753.021   -14234813.9472        450.205          37.750  
C 4  38840813.202   -12991727.6192        420.557          36.500  
C13  36450461.715   -26591035.5322       1087.314          46.500  
C 5  39392211.953   -13897563.7662        446.104          35.750  
G15  21145184.185   -20323506.762        2876.289          42.500  
C16  36732272.261   -18835291.3082       1219.336          43.000  
C 6  36321999.529   -18577228.8772       1033.516          43.250  
C27  22585997.291   -26221805.3132       2036.797          50.250  
G29  21539844.836   -26150821.936        1538.721          46.750  
G30  24503528.288    -9441003.802         837.715          36.250  
G25  25728202.891    -3772920.206       -1563.760          27.750  
G18  24852648.302    -5141966.680        3425.342          39.250  
> 2020  5 30 12 31 53.0000000  0 25                     
G 5  21425699.262   -22220740.612        -946.562          48.500  
C28  22139564.182   -32346860.5262      -1054.932          46.500  
G 2  21769117.314   -27318555.895        -578.506          42.750  
C14  25681486.809     -534244.0712      -2086.465          39.000  
G12  25707603.223    -6212454.289       -1701.426          28.250  
G 6  24425390.680   -10563837.727       -2094.756          35.250  
G 7  26002336.563       91017.706        -375.039          32.250  
C 3  36440120.471   -13566111.2382        411.660          41.250  
C10  40672431.786       47991.7232       -855.713          26.750  
G13  20400511.116   -22235476.184        1227.002          45.250  
C 9  37795929.169    -7648563.4992       1526.523          35.500  
C 8  36508596.592   -19926726.9432        937.529          44.750  
C 1  37880066.929   -12938824.4122        443.975          38.750  
C 2  37360666.677   -14235264.3172        450.518          37.750  
C 4  38840732.233   -12992148.3892        420.967          36.500  
C13  36450252.940   -26592123.0032       1087.686          46.500  
C 5  39392125.958   -13898010.0682        446.592          35.500  
G15  21144636.981   -20326382.857        2876.162          42.500  
C16  36732038.114   -18836510.6412       1219.482          43.250  
C 6  36321801.085   -18578262.3882       1033.652          43.250  
C27  22585606.127   -26223841.9582       2036.738          50.250  
G29  21539552.091   -26152360.322        1538.447          46.750  
G30  24503368.688    -9441841.364         837.695          36.500  
G25  25728498.847    -3771356.761       -1563.145          27.250  
G18  24851996.467    -5145392.203        3425.742          39.250  
> 2020  5 30 12 31 54.0000000  0 25                     
G 5  21425879.244   -22219794.119        -946.543          48.250  
C28  22139766.744   -32345805.3722      -1055.312          46.500  
G 2  21769227.215   -27317977.278        -578.740          42.750  
C14  25681887.605     -532157.7922      -2086.318          39.000  
G12  25707930.205    -6210753.177       -1701.074          28.250  
G 6  24425789.138   -10561742.921       -2094.873          35.250  
G 7  26002408.039       91392.956        -375.430          32.500  
C 3  36440041.282   -13566522.9752        411.729          41.250  
C10  40672595.678       48847.3962       -855.576          26.750  
G13  20400277.701   -22236702.887        1226.484          45.250  
C 9  37795635.865    -7650090.0972       1526.523          35.500  
C 8  36508416.331   -19927664.5782        937.617          44.750  
C 1  37879981.667   -12939268.4972        444.033          38.750  
C 2  37360580.055   -14235715.0802        450.752          37.500  
C 4  38840651.124   -12992569.5312        421.133          36.250  
C13  36450043.712   -26593210.8432       1087.832          46.500  
C 5  39392040.242   -13898456.7122        446.670          35.500  
G15  21144089.777   -20329258.836        2875.830          42.500  
C16  36731804.142   -18837730.2212       1219.502          43.250  
C 6  36321602.536   -18579296.1162       1033.643          43.250  
C27  22585215.032   -26225878.5352       2036.436          50.250  
G29  21539259.521   -26153898.433        1537.900          46.750  
G30  24503209.018    -9442678.777         837.256          36.500  
G25  25728797.420    -3769793.805       -1562.998          27.500  
G18  24851344.597    -5148818.183        3425.947          39.250  
> 2020  5 30 12 31 55.0000000  0 25                     
G 5  21426059.400   -22218847.419        -946.729          48.500  
C28  22139969.516   -32344749.6532      -1055.840          46.250  
G 2  21769337.501   -27317398.185        -579.219          42.750  
C14  25682288.437     -530071.5432      -2086.172          39.000  
G12  25708254.431    -6209052.201       -1700.986          28.250  
G 6  24426187.771   -10559647.789       -2095.195          35.250  
G 7  26002479.585       91768.690        -375.781          32.250  
C 3  36439962.128   -13566934.6402        411.709          41.250  
C10  40672759.745       49703.0512       -855.576          26.750  
G13  20400044.183   -22237928.840        1225.791          45.250  
C 9  37795342.981    -7651616.4822       1526.289          35.750  
C 8  36508236.349   -19928602.0952        937.520          44.750  
C 1  37879896.266   -12939712.5292        444.092          38.750  
C 2  37360493.501   -14236165.7442        450.664          37.500  
C 4  38840570.190   -12992990.5622        421.113          36.250  
C13  36449834.903   -26594298.6182       1087.812          46.500  
C 5  39391954.422   -13898903.2662        446.484          35.750  
G15  21143542.504   -20332134.196        2875.254          42.750  
C16  36731569.995   -18838949.5542       1219.307          43.000  
C 6  36321403.988   -18580329.6272       1033.457          43.250  
C27  22584824.112   -26227914.5702       2035.938          50.250  
G29  21538967.055   -26155435.818        1537.227          46.750  
G30  24503049.803    -9443515.667         836.699          36.500  
G25  25729093.201    -3768230.840       -1562.861          27.750  
G18  24850692.691    -5152244.170        3426.035          39.500  
> 2020  5 30 12 31 56.0000000  0 25                     
G 5  21426239.591   -22217900.784        -946.543          48.500  
C28  22140172.532   -32343693.6222      -1056.025          46.250  
G 2  21769447.367   -27316818.862        -579.316          42.750  
C14  25682688.780     -527985.5082      -2085.850          39.000  
G12  25708577.364    -6207351.686       -1700.459          27.750  
G 6  24426586.334   -10557552.638       -2094.961          35.500  
G 7  26002551.166       92144.736        -375.996          32.500  
C 3  36439883.009   -13567346.4572        411.885          41.250  
C10  40672924.057       50558.3832       -855.312          26.750  
G13  20399810.908   -22239154.316        1225.410          45.250  
C 9  37795049.678    -7653142.9612       1526.621          35.750  
C 8  36508056.368   -19929539.7512        937.783          44.750  
C 1  37879810.934   -12940156.6892        444.316          38.750  
C 2  37360406.948   -14236616.5952        451.064          37.750  
C 4  38840489.500   -12993411.7572        421.445          36.250  
C13  36449625.849   -26595386.6032       1088.066          46.500  
C 5  39391868.497   -13899350.0112        446.885          35.750  
G15  21142995.335   -20335009.270        2875.049          42.500  
C16  36731335.952   -18840168.9012       1219.434          43.000  
C 6  36321205.404   -18581363.1582       1033.643          43.250  
C27  22584433.263   -26229950.3492       2035.781          50.250  
G29  21538674.485   -26156972.730        1536.855          46.750  
G30  24502890.587    -9444352.338         836.621          36.500  
G25  25729391.844    -3766668.106       -1562.656          27.750  
G18  24850040.577    -5155670.428        3426.396          39.500  
> 2020  5 30 12 31 57.0000000  0 25                     
G 5  21426419.712   -22216953.957        -946.826          48.500  
C28  22140375.268   -32342637.0542      -1056.699          46.500  
G 2  21769557.548   -27316239.125        -579.775          42.750  
C14  25683089.472     -525899.5162      -2085.898          39.000  
G12  25708900.787    -6205651.310       -1700.107          27.750  
G 6  24426985.106   -10555457.114       -2095.508          35.250  
G 7  26002622.782       92521.299        -376.719          32.500  
C 3  36439803.890   -13567758.2402        411.816          41.250  
C10  40673087.565       51413.6813       -855.303          26.750  
G13  20399578.157   -22240379.067        1224.570          45.000  
C 9  37794756.270    -7654669.2552       1526.328          35.750  
C 8  36507876.456   -19930477.2952        937.549          44.750  
C 1  37879725.638   -12940600.8232        444.053          38.750  
C 2  37360320.675   -14237067.3602        450.830          37.750  
C 4  38840408.566   -12993832.9202        421.123          36.500  
C13  36449416.970   -26596474.5332       1087.939          46.500  
C 5  39391782.956   -13899796.6852        446.807          35.500  
G15  21142448.131   -20337883.766        2874.365          42.500  
C16  36731101.770   -18841388.0332       1219.102          43.250  
C 6  36321007.100   -18582396.4962       1033.359          43.250  
C27  22584042.308   -26231985.6372       2035.166          50.250  
G29  21538382.124   -26158508.939        1536.025          46.750  
G30  24502731.336    -9445188.465         836.025          36.250  
G25  25729690.383    -3765105.442       -1562.617          27.500  
G18  24849388.532    -5159096.706        3426.318          39.500  
> 2020  5 30 12 31 58.0000000  0 25                     
G 5  21426599.938   -22216007.338        -946.582          48.500  
C28  22140578.214   -32341580.3332      -1056.777          46.500  
G 2  21769667.868   -27315659.289        -579.883          42.750  
C14  25683489.919     -523813.8902      -2085.518          39.000  
G12  25709224.000    -6203951.585       -1699.658          28.250  
G 6  24427383.809   -10553361.684       -2095.498          35.000  
G 7  26002694.397       92897.933        -376.543          33.000  
C 3  36439724.700   -13568170.3252        412.148          41.250  
C10  40673250.411       52268.5052       -854.570          26.500  
G13  20399345.197   -22241603.485        1224.307          45.000  
C 9  37794463.036    -7656195.7292       1526.582          35.750  
C 8  36507696.370   -19931415.1372        937.881          44.750  
C 1  37879640.201   -12941045.2992        444.531          38.750  
C 2  37360233.877   -14237518.4342        451.152          37.750  
C 4  38840327.597   -12994254.3952        421.465          36.250  
C13  36449207.917   -26597562.8062       1088.369          46.500  
C 5  39391697.101   -13900243.6552        447.012          35.500  
G15  21141901.066   -20340758.104        2874.209          42.750  
C16  36730867.658   -18842607.3452       1219.336          43.250  
C 6  36320808.726   -18583429.9842       1033.535          43.250  
C27  22583651.423   -26234020.8132       2035.098          50.250  
G29  21538089.693   -26160044.829        1535.781          46.750  
G30  24502572.120    -9446024.437         835.859          36.250  
G25  25729985.291    -3763543.130       -1562.227          27.250  
G18  24848736.627    -5162523.409        3426.826          39.500  
> 2020  5 30 12 31 59.0000000  0 25                     
G 5  21426780.303   -22215060.744        -946.436          48.500  
C28  22140781.300   -32340523.2632      -1057.002          46.500  
G 2  21769778.398   -27315079.230        -580.000          42.750  
C14  25683890.611     -521728.4982      -2085.215          39.000  
G12  25709548.329    -6202252.261       -1698.936          28.500  
G 6  24427782.790   -10551266.172       -2095.400          35.250  
G 7  26002766.292       93274.959        -376.943          32.750  
C 3  36439645.581   -13568582.5552        412.393          41.250  
C10  40673414.268       53123.1032       -854.199          26.250  
G13  20399112.201   -22242827.379        1223.906          45.250  
C 9  37794170.047    -7657722.2422       1526.846          35.750  
C 8  36507516.144   -19932353.1082        938.184          44.750  
C 1  37879554.765   -12941489.8662        444.775          38.750  
C 2  37360147.359   -14237969.7002        451.514          37.750  
C 4  38840246.698   -12994676.0112        421.875          36.250  
C13  36448998.828   -26598651.2132       1088.604          46.500  
C 5  39391611.316   -13900690.8032        447.275          35.750  
G15  21141354.316   -20343632.075        2874.004          42.750  
C16  36730633.476   -18843826.6232       1219.404          43.250  
C 6  36320610.212   -18584463.4722       1033.623          43.250  
C27  22583260.608   -26236055.6872       2034.932          50.250  
G29  21537797.507   -26161580.207        1535.410          46.750  
G30  24502413.149    -9446860.165         835.791          36.500  
G25  25730285.295    -3761981.113       -1561.523          27.500  
G18  24848084.756    -5165950.330        3427.139          39.500  
> 2020  5 30 12 32  0.0000000  0 25                     
G 5  21426960.390   -22214114.507        -946.104          48.500  
C28  22140984.246   -32339466.1892      -1057.031          46.500  
G 2  21769888.404   -27314499.248        -579.951          42.750  
C14  25684291.233     -519643.6432      -2084.629          39.000  
G12  25709873.008    -6200553.637       -1698.281          28.250  
G 6  24428181.807   -10549170.897       -2095.234          35.500  
G 7  26002838.327       93651.906        -376.865          33.250  
C 3  36439566.357   -13568995.2622        412.939          41.250  
C10  40673576.625       53977.0732       -853.750          26.250  
G13  20398879.381   -22244051.075        1223.662          45.000  
C 9  37793876.814    -7659249.0932       1526.924          35.750  
C 8  36507335.953   -19933291.5112        938.594          44.750  
C 1  37879469.294   -12941934.9312        445.166          38.750  
C 2  37360060.771   -14238421.4022        451.963          37.750  
C 4  38840165.694   -12995098.0972        422.324          36.500  
C13  36448789.705   -26599740.1152       1089.062          46.500  
C 5  39391525.147   -13901138.3922        447.705          35.750  
G15  21140807.391   -20346506.022        2873.984          42.750  
C16  36730399.364   -18845046.2452       1219.727          43.250  
C 6  36320411.524   -18585497.2772       1033.936          43.250  
C27  22582869.897   -26238090.5852       2034.922          50.250  
G29  21537505.320   -26163115.419        1535.176          46.750  
G30  24502253.898    -9447695.870         835.703          36.250  
G25  25730584.148    -3760419.569       -1561.299          28.250  
G18  24847432.677    -5169377.828        3427.764          39.500  
> 2020  5 30 12 32  1.0000000  0 25                     
G 5  21427140.232   -22213168.530        -945.957          48.500  
C28  22141187.366   -32338408.9992      -1057.285          46.500  
G 2  21769998.864   -27313919.257        -580.049          42.750  
C14  25684691.576     -517559.2672      -2084.307          39.000  
G12  25710195.732    -6198855.600       -1697.881          28.500  
G 6  24428580.684   -10547075.777       -2095.156          35.250  
G 7  26002910.117       94028.922        -377.139          33.500  
C 3  36439486.959   -13569408.3182        413.145          41.250  
C10  40673740.099       54830.5722       -853.486          26.250  
G13  20398646.595   -22245274.507        1223.271          45.000  
C 9  37793583.755    -7660776.2352       1527.109          35.750  
C 8  36507155.518   -19934230.2372        938.740          44.750  
C 1  37879383.858   -12942380.3702        445.527          38.750  
C 2  37359974.043   -14238873.4432        452.148          37.750  
C 4  38840084.376   -12995520.5522        422.529          36.500  
C13  36448580.721   -26600829.3812       1089.287          46.500  
C 5  39391439.152   -13901586.3492        447.959          35.750  
G15  21140260.432   -20349379.852        2873.750          42.750  
C16  36730165.043   -18846266.0662       1219.805          43.250  
C 6  36320212.871   -18586531.3102       1034.043          43.250  
C27  22582479.152   -26240125.4262       2034.736          50.250  
G29  21537213.343   -26164650.367        1534.795          46.750  
G30  24502094.892    -9448531.512         835.596          36.250  
G25  25730881.674    -3758858.534       -1560.918          28.500  
G18  24846780.143    -5172805.781        3428.086          39.500  
> 2020  5 30 12 32  2.0000000  0 24                     
G 5  21427320.074   -22212222.574        -946.074          48.500  
C28  22141390.382   -32337351.4712      -1057.715          46.500  
G 2  21770109.463   -27313339.026        -580.352          42.750  
C14  25685091.779     -515475.0902      -2084.209          39.000  
G12  25710521.528    -6197158.008       -1697.480          28.750  
G 6  24428979.247   -10544980.527       -2095.322          35.250  
G 7  26002982.291       94406.272        -377.480          33.500  
C 3  36439407.595   -13569821.5202        413.135          41.250  
G13  20398414.018   -22246497.406        1222.637          45.000  
C 9  37793290.591    -7662303.3772       1526.855          36.000  
C 8  36506975.222   -19935169.0622        938.691          44.750  
C 1  37879298.212   -12942825.9222        445.479          38.750  
C 2  37359887.211   -14239325.6192        452.109          37.750  
C 4  38840003.232   -12995943.1372        422.441          36.500  
C13  36448371.458   -26601918.8072       1089.385          46.500  
C 5  39391353.158   -13902034.4702        448.047          35.500  
G15  21139713.821   -20352253.320        2873.232          42.750  
C16  36729930.826   -18847485.8852       1219.727          43.250  
C 6  36320014.322   -18587565.3172       1033.877          43.250  
C27  22582088.407   -26242159.9602       2034.336          50.250  
G29  21536921.296   -26166184.807        1534.160          46.500  
G30  24501935.920    -9449366.826         835.088          36.250  
G25  25731177.281    -3757297.724       -1560.928          28.500  
G18  24846127.924    -5176233.941        3428.154          39.500  
> 2020  5 30 12 32  3.0000000  0 24                     
G 5  21427500.090   -22211276.503        -945.918          48.500  
C28  22141593.608   -32336293.4512      -1057.988          46.500  
G 2  21770220.063   -27312758.378        -580.586          42.750  
C14  25685491.878     -513390.9712      -2083.896          39.250  
G12  25710844.566    -6195460.648       -1696.982          28.750  
G 6  24429377.950   -10542884.986       -2095.469          35.000  
G 7  26003054.430       94784.071        -377.822          33.250  
C 3  36439328.127   -13570234.7042        413.369          41.250  
G13  20398181.372   -22247719.637        1222.178          45.000  
C 9  37792997.462    -7663830.4242       1527.100          35.750  
C 8  36506794.926   -19936107.8662        938.975          44.750  
C 1  37879212.601   -12943271.4962        445.742          38.750  
C 2  37359800.344   -14239777.8322        452.295          37.750  
C 4  38839922.263   -12996365.7302        422.822          36.250  
C13  36448162.230   -26603008.2342       1089.600          46.500  
C 5  39391267.198   -13902482.5922        448.350          35.500  
G15  21139167.385   -20355126.291        2873.008          42.750  
C16  36729696.504   -18848705.5392       1219.775          43.250  
C 6  36319815.634   -18588599.1892       1033.984          43.250  
C27  22581697.871   -26244194.0612       2034.150          50.250  
G29  21536629.250   -26167718.596        1533.779          46.500  
G30  24501776.739    -9450201.701         834.951          36.000  
G25  25731475.540    -3755737.023       -1560.596          28.250  
G18  24845475.704    -5179662.204        3428.516          39.500  
> 2020  5 30 12 32  4.0000000  0 25                     
G 5  21427680.281   -22210330.506        -945.869          48.500  
C28  22141797.007   -32335235.1432      -1058.311          46.500  
G 2  21770330.837   -27312177.553        -580.762          42.750  
C14  25685892.291     -511307.1222      -2083.691          39.250  
G12  25711166.104    -6193763.765       -1696.631          29.000  
G 6  24429776.687   -10540789.443       -2095.449          35.250  
G 7  26003126.535       95162.104        -378.047          33.250  
C 3  36439248.763   -13570648.1012        413.525          41.000  
C10  40674234.010       57389.5803       -852.490          26.500  
G13  20397948.935   -22248941.396        1221.699          45.000  
C 9  37792704.299    -7665357.5392       1527.256          36.000  
C 8  36506614.421   -19937046.8252        939.111          44.750  
C 1  37879127.095   -12943717.2492        445.869          38.750  
C 2  37359713.616   -14240230.2172        452.588          37.500  
C 4  38839841.050   -12996788.5162        422.959          36.250  
C13  36447953.141   -26604097.8832       1089.805          46.500  
C 5  39391181.168   -13902930.8412        448.369          35.500  
G15  21138620.774   -20357998.942        2872.656          42.750  
C16  36729462.392   -18849925.2322       1219.805          43.250  
C 6  36319617.190   -18589633.1162       1034.072          43.250  
C27  22581307.265   -26246227.9112       2033.916          50.250  
G29  21536337.412   -26169251.939        1533.320          46.500  
G30  24501617.942    -9451036.308         834.648          36.250  
G25  25731771.356    -3754176.557       -1560.342          28.250  
G18  24844823.485    -5183090.749        3428.750          39.750  
> 2020  5 30 12 32  5.0000000  0 25                     
G 5  21427860.297   -22209384.615        -945.889          48.500  
C28  22142000.547   -32334176.5872      -1058.633          46.500  
G 2  21770441.646   -27311596.548        -581.113          43.000  
C14  25686292.354     -509223.5812      -2083.496          39.250  
G12  25711488.200    -6192067.325       -1696.309          29.250  
G 6  24430175.460   -10538693.890       -2095.547          35.500  
G 7  26003198.779       95540.360        -378.252          33.000  
C 3  36439169.330   -13571061.7082        413.662          41.000  
C10  40674395.703       58242.1012       -852.227          26.500  
G13  20397716.498   -22250162.726        1221.152          45.000  
C 9  37792411.030    -7666884.7692       1527.227          35.750  
C 8  36506434.056   -19937985.9782        939.199          44.750  
C 1  37879041.729   -12944163.2472        446.045          38.750  
C 2  37359626.470   -14240682.7692        452.578          37.750  
C 4  38839759.942   -12997211.4942        422.979          36.500  
C13  36447743.704   -26605187.7632       1089.941          46.500  
C 5  39391094.964   -13903379.3332        448.447          35.500  
G15  21138074.059   -20360871.327        2872.266          42.750  
C16  36729228.524   -18851144.9932       1219.775          43.250  
C 6  36319418.781   -18590667.1042       1033.984          43.000  
C27  22580916.764   -26248261.5372       2033.545          50.250  
G29  21536045.644   -26170784.846        1532.764          46.500  
G30  24501459.110    -9451870.653         834.248          36.000  
G25  25732071.570    -3752616.389       -1560.166          28.500  
G18  24844171.266    -5186519.613        3428.916          39.750  
> 2020  5 30 12 32  6.0000000  0 25                     
G 5  21428040.244   -22208438.571        -946.123          48.500  
C28  22142203.737   -32333117.4912      -1059.307          46.500  
G 2  21770552.175   -27311015.120        -581.592          43.000  
C14  25686692.592     -507140.0852      -2083.506          39.250  
G12  25711811.832    -6190371.111       -1696.230          29.000  
G 6  24430574.232   -10536598.056       -2095.957          35.500  
G 7  26003270.813       95919.139        -378.857          33.250  
C 3  36439089.722   -13571475.2722        413.506          41.250  
C10  40674560.259       59094.4642       -852.314          26.500  
G13  20397484.236   -22251383.355        1220.391          45.000  
C 9  37792117.867    -7668411.8682       1527.119          35.750  
C 8  36506253.516   -19938925.0622        939.023          44.750  
C 1  37878955.769   -12944609.1942        445.889          38.750  
C 2  37359539.638   -14241135.3522        452.490          37.500  
C 4  38839678.903   -12997634.4882        423.037          36.250  
C13  36447534.371   -26606277.5982       1089.805          46.500  
C 5  39391008.900   -13903827.8152        448.408          35.500  
G15  21137527.658   -20363743.166        2871.650          42.750  
C16  36728994.273   -18852364.5562       1219.473          43.250  
C 6  36319220.128   -18591700.9132       1033.721          43.250  
C27  22580526.159   -26250294.6932       2032.988          50.250  
G29  21535754.156   -26172317.090        1531.992          46.500  
G30  24501300.488    -9452704.548         833.652          36.250  
G25  25732368.398    -3751056.363       -1560.234          28.750  
G18  24843518.732    -5189948.525        3428.945          40.000  
> 2020  5 30 12 32  7.0000000  0 24                     
G 5  21428220.540   -22207492.291        -946.143          48.500  
C28  22142407.346   -32332057.8312      -1059.658          46.500  
G 2  21770662.880   -27310433.208        -581.885          43.000  
C14  25687092.796     -505056.5512      -2083.369          39.250  
G12  25712131.869    -6188675.040       -1695.879          28.750  
G 6  24430973.423   -10534501.854       -2096.094          35.750  
G 7  26003343.162       96298.453        -379.287          33.000  
C 3  36439010.463   -13571888.7302        413.662          41.250  
C10  40674723.837       59946.7422       -852.344          26.250  
G13  20397252.148   -22252603.212        1219.814          45.000  
C 9  37791824.668    -7669938.7212       1526.953          35.750  
C 8  36506073.255   -19939863.9992        939.092          44.750  
C 1  37878869.984   -12945055.0352        446.016          38.750  
C 2  37359452.736   -14241587.7732        452.520          37.500  
C 4  38839597.724   -12998057.3322        423.096          36.500  
C13  36447325.003   -26607367.3492       1089.932          46.500  
G15  21136981.222   -20366614.395        2871.211          42.750  
C16  36728760.335   -18853583.8602       1219.424          43.250  
C 6  36319021.684   -18592734.4662       1033.633          43.250  
C27  22580135.588   -26252327.3062       2032.646          50.250  
G29  21535462.912   -26173848.560        1531.436          46.500  
G30  24501141.726    -9453537.883         833.359          36.250  
G25  25732666.203    -3749496.239       -1559.834          28.750  
G18  24842866.548    -5193377.414        3429.053          40.000  
> 2020  5 30 12 32  8.0000000  0 25                     
G 5  21428400.800   -22206545.889        -946.377          48.500  
C28  22142611.130   -32330997.6792      -1060.254          46.500  
G 2  21770773.374   -27309850.894        -582.334          43.000  
C14  25687492.929     -502973.1132      -2083.369          39.000  
G12  25712455.536    -6186979.279       -1695.723          28.500  
G 6  24431372.789   -10532405.420       -2096.367          35.750  
G 7  26003415.510       96678.214        -379.873          33.000  
C 3  36438931.309   -13572302.1692        413.506          41.250  
C10  40674888.428       60798.9942       -852.168          26.750  
G13  20397020.130   -22253822.417        1219.043          45.000  
C 9  37791531.644    -7671465.4592       1526.807          36.000  
C 8  36505892.960   -19940802.8922        938.926          44.750  
C 1  37878784.547   -12945500.8472        445.820          38.750  
C 2  37359366.008   -14242040.2432        452.568          37.750  
C 4  38839516.476   -12998480.1482        422.910          36.250  
C13  36447115.670   -26608457.1212       1089.824          46.500  
C 5  39390836.945   -13904724.5303        448.379          35.500  
G15  21136434.960   -20369485.152        2870.615          42.500  
C16  36728525.944   -18854803.0152       1219.170          43.250  
C 6  36318823.170   -18593767.8552       1033.398          43.000  
C27  22579745.366   -26254359.4752       2032.109          50.250  
G29  21535171.493   -26175379.401        1530.684          46.500  
G30  24500983.208    -9454370.755         832.773          36.250  
G25  25732965.719    -3747936.109       -1560.039          28.750  
G18  24842214.084    -5196806.376        3429.043          40.000  
> 2020  5 30 12 32  9.0000000  0 25                     
G 5  21428580.817   -22205599.359        -946.621          48.500  
C28  22142814.844   -32329937.0192      -1060.850          46.750  
G 2  21770884.148   -27309268.156        -582.891          42.750  
C14  25687892.853     -500889.7092      -2083.535          39.250  
G12  25712774.281    -6185283.686       -1695.566          28.250  
G 6  24431772.015   -10530308.708       -2096.816          35.750  
G 7  26003487.649       97058.463        -380.449          33.250  
C 3  36438851.701   -13572715.6082        413.379          41.250  
C10  40675053.367       61651.1403       -852.178          26.750  
G13  20396788.286   -22255040.924        1218.271          45.000  
C 9  37791238.411    -7672992.0692       1526.514          35.750  
C 8  36505712.455   -19941741.7452        938.799          44.750  
C 1  37878698.832   -12945946.6692        445.791          38.750  
C 2  37359279.001   -14242492.6692        452.393          37.750  
C 4  38839435.263   -12998902.9932        422.773          36.250  
C13  36446906.477   -26609546.8892       1089.736          46.500  
C 5  39390750.811   -13905172.8832        448.281          35.500  
G15  21135888.559   -20372355.373        2870.010          42.500  
C16  36728291.936   -18856022.0002       1218.896          43.250  
C 6  36318624.796   -18594801.0942       1033.164          43.000  
C27  22579355.249   -26256391.1812       2031.523          50.250  
G29  21534880.424   -26176909.561        1529.932          46.500  
G30  24500824.970    -9455203.142         832.197          36.000  
G25  25733262.791    -3746376.226       -1559.922          29.000  
G18  24841561.551    -5200235.414        3428.975          40.250  
> 2020  5 30 12 32 10.0000000  0 25                     
G 5  21428761.008   -22204652.629        -946.855          48.500  
C28  22143018.732   -32328875.8052      -1061.436          46.750  
G 2  21770995.062   -27308684.963        -583.408          42.750  
C14  25688293.301     -498806.3022      -2083.418          39.000  
G12  25713097.215    -6183588.257       -1695.479          28.000  
G 6  24432171.276   -10528211.689       -2097.197          35.750  
G 7  26003560.242       97439.215        -381.123          32.750  
C 3  36438772.512   -13573128.9462        413.301          41.250  
C10  40675216.666       62503.2082       -852.227          26.750  
G13  20396556.338   -22256258.699        1217.461          45.000  
C 9  37790945.456    -7674518.4822       1526.260          36.000  
C 8  36505532.368   -19942680.4772        938.613          44.750  
C 1  37878613.466   -12946392.4092        445.713          38.750  
C 2  37359192.239   -14242945.0002        452.227          37.750  
C 4  38839354.189   -12999325.7202        422.588          36.250  
C13  36446697.424   -26610636.5922       1089.609          46.500  
C 5  39390664.712   -13905621.1302        448.193          35.750  
G15  21135342.367   -20375225.016        2869.385          42.500  
C16  36728057.684   -18857240.7342       1218.613          43.250  
C 6  36318426.422   -18595834.0872       1032.871          43.000  
C27  22578965.341   -26258422.3712       2030.977          50.250  
G29  21534589.354   -26178438.995        1529.141          46.500  
G30  24500666.557    -9456035.011         831.631          36.000  
G25  25733556.827    -3744816.251       -1560.059          28.750  
G18  24840908.982    -5203664.478        3428.975          40.250  
> 2020  5 30 12 32 11.0000000  0 25                     
G 5  21428941.129   -22203705.692        -946.875          48.500  
C28  22143222.795   -32327814.0262      -1061.836          46.750  
G 2  21771106.429   -27308101.290        -583.682          42.750  
C14  25688693.260     -496722.8902      -2083.271          39.250  
G12  25713417.008    -6181893.048       -1695.010          28.000  
G 6  24432570.607   -10526114.317       -2097.354          36.000  
G 7  26003633.114       97820.534        -381.338          32.500  
C 3  36438692.974   -13573542.2072        413.359          41.250  
C10  40675381.955       63355.2112       -851.904          27.000  
G13  20396324.739   -22257475.726        1216.904          45.000  
C 9  37790652.397    -7676044.7202       1526.230          36.000  
C 8  36505352.352   -19943619.1052        938.721          44.750  
C 1  37878527.785   -12946838.0602        445.762          38.750  
C 2  37359105.267   -14243397.2522        452.314          37.750  
C 4  38839272.906   -12999748.3972        422.773          36.250  
C13  36446488.265   -26611726.2102       1089.707          46.500  
C 5  39390578.647   -13906069.2842        448.203          35.500  
G15  21134796.455   -20378094.072        2868.994          42.500  
C16  36727823.921   -18858459.2322       1218.516          43.250  
C 6  36318227.874   -18596866.8562       1032.832          43.000  
C27  22578575.329   -26260453.0402       2030.635          50.250  
G29  21534298.459   -26179967.698        1528.574          46.500  
G30  24500508.248    -9456866.328         831.221          36.000  
G25  25733850.480    -3743256.315       -1559.619          28.500  
G18  24840256.484    -5207093.526        3429.199          40.500  
> 2020  5 30 12 32 12.0000000  0 25                     
G 5  21429121.215   -22202758.544        -947.168          48.500  
C28  22143426.788   -32326751.6692      -1062.480          46.750  
G 2  21771217.866   -27307517.133        -584.258          42.750  
C14  25689093.498     -494639.4722      -2083.389          39.250  
G12  25713743.082    -6180197.950       -1694.961          28.000  
G 6  24432969.972   -10524016.639       -2097.734          35.750  
G 7  26003705.707       98202.423        -382.129          32.250  
C 3  36438613.680   -13573955.3602        413.164          41.250  
C10  40675545.463       64207.2462       -852.119          26.750  
G13  20396093.453   -22258692.000        1216.113          45.000  
C 9  37790359.269    -7677570.6882       1525.957          36.000  
C 8  36505172.231   -19944557.5902        938.516          44.750  
C 1  37878442.349   -12947283.6042        445.557          38.750  
C 2  37359018.539   -14243849.4152        452.178          37.500  
C 4  38839191.623   -13000170.9752        422.705          36.250  
C13  36446279.142   -26612815.7502       1089.570          46.500  
C 5  39390492.687   -13906517.3352        448.105          35.750  
G15  21134250.542   -20380962.522        2868.330          42.500  
C16  36727589.774   -18859677.4922       1218.193          43.250  
C 6  36318029.499   -18597899.3772       1032.529          43.000  
C27  22578185.456   -26262483.1692       2030.029          50.250  
G29  21534007.738   -26181495.654        1527.764          46.500  
G30  24500350.324    -9457697.102         830.635          36.250  
G25  25734144.830    -3741696.315       -1559.893          28.500  
G18  24839603.985    -5210522.573        3429.111          40.500  
> 2020  5 30 12 32 13.0000000  0 25                     
G 5  21429301.406   -22201811.250        -947.188          48.500  
C28  22143630.920   -32325688.7972      -1062.861          46.750  
G 2  21771328.920   -27306932.553        -584.541          42.750  
C14  25689493.632     -492556.0812      -2083.184          39.250  
G12  25714066.191    -6178503.163       -1694.541          28.250  
G 6  24433369.547   -10521918.669       -2098.008          36.000  
G 7  26003778.161       98584.741        -382.285          32.500  
C 3  36438534.456   -13574368.4912        413.252          41.250  
C10  40675707.611       65059.1012       -851.670          26.500  
G13  20395861.924   -22259907.586        1215.527          45.000  
C 9  37790066.489    -7679096.5502       1525.918          36.000  
C 8  36504991.761   -19945496.0092        938.564          44.750  
C 1  37878356.878   -12947729.1422        445.674          38.750  
C 2  37358931.707   -14244301.5282        452.227          37.750  
C 4  38839110.410   -13000593.5122        422.617          36.250  
C13  36446069.879   -26613905.2822       1089.678          46.750  
C 5  39390406.553   -13906965.3402        448.047          35.500  
G15  21133704.909   -20383830.461        2867.949          42.500  
C16  36727355.872   -18860895.5612       1218.164          43.250  
C 6  36317831.300   -18598931.7272       1032.441          43.000  
C27  22577795.793   -26264512.8282       2029.639          50.250  
G29  21533716.878   -26183022.945        1527.246          46.500  
G30  24500192.329    -9458527.386         830.234          36.250  
G25  25734443.089    -3740136.405       -1559.727          28.750  
G18  24838951.626    -5213951.659        3429.268          40.500  
> 2020  5 30 12 32 14.0000000  0 25                     
G 5  21429481.597   -22200863.873        -947.500          48.500  
C28  22143835.053   -32324625.4742      -1063.555          46.750  
G 2  21771440.008   -27306347.622        -585.137          42.750  
C14  25689893.521     -490472.8082      -2083.291          39.250  
G12  25714391.881    -6176808.559       -1694.619          28.000  
G 6  24433768.843   -10519820.506       -2098.320          36.000  
G 7  26003850.858       98967.474        -382.930          32.250  
C 3  36438454.918   -13574781.6462        413.018          41.250  
C10  40675871.363       65910.8992       -851.748          26.500  
G13  20395630.848   -22261122.535        1214.648          45.000  
C 9  37789773.709    -7680622.3602       1525.703          36.000  
C 8  36504811.360   -19946434.4312        938.350          44.750  
C 1  37878271.441   -12948174.7082        445.547          38.750  
C 2  37358844.840   -14244753.6552        452.031          37.750  
C 4  38839029.406   -13001016.0802        422.520          36.250  
C13  36445860.581   -26614994.8392       1089.492          46.500  
C 5  39390320.628   -13907413.4092        447.910          35.500  
G15  21133159.485   -20386697.917        2867.275          42.500  
C16  36727121.934   -18862113.5092       1217.773          43.250  
C 6  36317633.310   -18599963.9412       1032.051          43.000  
C27  22577405.990   -26266542.0802       2029.043          50.250  
G29  21533426.506   -26184549.609        1526.357          46.500  
G30  24500034.370    -9459357.257         829.629          36.250  
G25  25734743.687    -3738576.619       -1559.746          29.250  
G18  24838299.093    -5217380.866        3429.189          40.500  
> 2020  5 30 12 32 15.0000000  0 25                     
G 5  21429661.997   -22199916.428        -947.412          48.500  
C28  22144039.360   -32323561.7122      -1063.838          46.750  
G 2  21771551.515   -27305762.338        -585.352          42.750  
C14  25690293.689     -488389.6282      -2083.018          39.250  
G12  25714714.396    -6175114.290       -1694.092          28.000  
G 6  24434168.453   -10517722.130       -2098.301          35.500  
G 7  26003923.661       99350.645        -383.252          32.000  
C 3  36438375.659   -13575194.8112        413.193          41.250  
C10  40676034.837       66762.4842       -851.504          26.500  
G13  20395399.772   -22262336.858        1214.199          45.000  
C 9  37789480.755    -7682148.0522       1525.723          36.000  
C 8  36504631.204   -19947372.8562        938.496          44.750  
C 1  37878185.831   -12948620.2932        445.693          38.750  
C 2  37358758.112   -14245205.8192        452.217          37.750  
C 4  38838948.122   -13001438.6532        422.598          36.250  
C13  36445651.318   -26616084.4392       1089.678          46.500  
C 5  39390234.668   -13907861.5072        448.154          35.500  
G15  21132613.746   -20389564.915        2866.904          42.500  
C16  36726888.136   -18863331.3322       1217.812          43.250  
C 6  36317434.866   -18600996.0662       1032.158          43.000  
C27  22577016.327   -26268570.9282       2028.779          50.250  
G29  21533136.100   -26186075.685        1525.947          46.500  
G30  24499876.829    -9460186.698         829.346          36.250  
G25  25735041.457    -3737016.881       -1559.697          29.250  
G18  24837646.874    -5220810.209        3429.355          40.500  
> 2020  5 30 12 32 16.0000000  0 25                     
G 5  21429842.328   -22198969.013        -947.363          48.500  
C28  22144243.598   -32322497.6262      -1064.160          46.750  
G 2  21771662.882   -27305176.811        -585.566          42.750  
C14  25690693.439     -486306.6982      -2082.773          39.250  
G12  25715036.632    -6173420.413       -1693.672          28.250  
G 6  24434567.749   -10515623.679       -2098.389          35.500  
G 7  26003996.603       99734.095        -383.525          32.250  
C 3  36438296.261   -13575608.1632        413.408          41.250  
C10  40676198.799       67613.7852       -851.152          26.250  
G13  20395168.696   -22263550.666        1213.691          45.000  
C 9  37789188.010    -7683673.7842       1525.801          36.000  
C 8  36504450.839   -19948311.4022        938.623          44.750  
C 1  37878099.871   -12949066.0422        445.859          38.750  
C 2  37358671.280   -14245658.1672        452.373          37.750  
C 4  38838867.084   -13001861.4092        422.715          36.250  
C13  36445441.880   -26617174.2152       1089.863          46.500  
C 5  39390148.360   -13908309.7512        448.389          35.750  
G15  21132068.253   -20392431.558        2866.582          42.500  
C16  36726654.198   -18864549.1582       1217.842          43.250  
C 6  36317236.771   -18602028.1872       1032.188          43.000  
C27  22576626.803   -26270599.4932       2028.516          50.000  
G29  21532845.763   -26187601.253        1525.469          46.500  
G30  24499719.184    -9461015.867         829.160          36.250  
G25  25735338.599    -3735457.501       -1559.268          29.250  
G18  24836994.166    -5224239.793        3429.707          40.500  
> 2020  5 30 12 32 17.0000000  0 25                     
G 5  21430022.449   -22198021.809        -947.314          48.500  
C28  22144448.324   -32321433.3812      -1064.453          46.750  
G 2  21771773.970   -27304591.233        -585.762          42.750  
C14  25691093.433     -484224.1552      -2082.578          39.250  
G12  25715358.414    -6171727.132       -1693.350          28.250  
G 6  24434967.010   -10513525.276       -2098.438          35.500  
G 7  26004069.719      100117.681        -383.848          32.250  
C 3  36438216.897   -13576021.8412        413.574          41.250  
C10  40676359.237       68464.7092       -851.064          26.500  
G13  20394937.970   -22264764.149        1213.203          45.000  
C 9  37788894.916    -7685199.7652       1525.928          36.000  
C 8  36504270.508   -19949250.2632        938.789          44.750  
C 1  37878014.190   -12949512.1232        445.957          38.750  
C 2  37358584.273   -14246110.8222        452.568          37.750  
C 4  38838785.975   -13002284.5062        422.998          36.250  
C13  36445232.687   -26618264.3232       1090.000          46.750  
C 5  39390062.365   -13908758.3042        448.447          35.750  
G15  21131522.864   -20395298.037        2866.230          42.500  
C16  36726420.296   -18865767.1512       1217.871          43.250  
C 6  36317038.467   -18603060.4882       1032.188          43.000  
C27  22576237.209   -26272627.9492       2028.262          50.000  
G29  21532555.392   -26189126.507        1524.980          46.500  
G30  24499561.713    -9461844.881         828.828          36.250  
G25  25735635.462    -3733898.505       -1559.209          29.000  
G18  24836341.388    -5227669.797        3429.961          40.250  
> 2020  5 30 12 32 18.0000000  0 25                     
G 5  21430203.059   -22197074.163        -947.773          48.500  
C28  22144652.735   -32320368.3252      -1065.283          46.750  
G 2  21771885.582   -27304004.939        -586.523          42.750  
C14  25691493.392     -482141.3852      -2082.852          39.000  
G12  25715680.196    -6170033.802       -1693.418          28.750  
G 6  24435366.585   -10511426.335       -2099.160          35.500  
G 7  26004142.835      100502.039        -384.717          32.000  
C 3  36438137.568   -13576435.1682        413.242          41.250  
C10  40676525.607       69315.7762       -851.094          26.000  
G13  20394707.208   -22265976.642        1212.197          45.000  
C 9  37788602.101    -7686725.2982       1525.459          36.250  
C 8  36504090.282   -19950188.7342        938.379          44.750  
C 1  37877928.649   -12949957.8542        445.596          38.750  
C 2  37358497.371   -14246563.1582        452.207          37.750  
C 4  38838704.657   -13002707.2642        422.666          36.250  
C13  36445023.250   -26619354.1252       1089.717          46.750  
C 5  39389976.056   -13909206.5482        448.115          35.500  
G15  21130977.649   -20398163.682        2865.391          42.500  
C16  36726186.567   -18866984.6832       1217.363          43.500  
C 6  36316840.267   -18604092.3202       1031.709          43.000  
C27  22575847.825   -26274655.6352       2027.441          50.000  
G29  21532265.299   -26190650.797        1524.023          46.500  
G30  24499404.347    -9462673.145         828.018          36.250  
G25  25735926.776    -3732339.273       -1559.189          28.750  
G18  24835688.924    -5231099.566        3429.697          40.250  
> 2020  5 30 12 32 19.0000000  0 25                     
G 5  21430383.389   -22196126.248        -947.920          48.500  
C28  22144857.461   -32319302.6422      -1065.830          46.750  
G 2  21771997.193   -27303418.089        -586.953          42.750  
C14  25691893.490     -480058.5302      -2082.793          39.250  
G12  25716002.153    -6168340.566       -1693.076          28.750  
G 6  24435766.230   -10509326.979       -2099.375          35.500  
G 7  26004216.091      100886.966        -385.107          31.750  
C 3  36438058.344   -13576848.3422        413.154          41.250  
C10  40676688.173       70166.8942       -851.201          26.250  
G13  20394476.691   -22267188.321        1211.494          45.000  
C 9  37788309.042    -7688250.5482       1525.215          36.250  
C 8  36503910.266   -19951126.9942        938.281          44.750  
C 1  37877843.108   -12950403.4662        445.586          38.750  
C 2  37358410.678   -14247015.3262        452.188          37.750  
C 4  38838623.444   -13003129.8712        422.695          36.250  
C13  36444814.022   -26620443.7982       1089.707          46.750  
C 5  39389889.957   -13909654.6262        448.047          35.750  
G15  21130432.539   -20401028.683        2864.863          42.750  
C16  36725952.874   -18868201.9072       1217.207          43.500  
C 6  36316642.137   -18605123.8412       1031.514          43.000  
C27  22575458.511   -26276682.7252       2026.963          50.000  
G29  21531975.591   -26192174.270        1523.311          46.500  
G30  24499246.842    -9463500.798         827.559          36.250  
G25  25736224.826    -3730779.895       -1559.189          28.750  
G18  24835036.321    -5234529.252        3429.746          40.500  
> 2020  5 30 12 32 20.0000000  0 25                     
G 5  21430563.545   -22195178.309        -947.988          48.500  
C28  22145062.048   -32318236.5652      -1066.250          46.750  
G 2  21772109.084   -27302830.951        -587.295          42.750  
C14  25692293.379     -477975.8322      -2082.686          39.250  
G12  25716325.505    -6166647.591       -1692.871          28.750  
G 6  24436165.735   -10507227.461       -2099.580          35.750  
G 7  26004289.382      101272.290        -385.352          32.000  
C 3  36437978.911   -13577261.5982        413.242          41.250  
C10  40676850.774       71017.8132       -850.947          26.000  
G13  20394246.173   -22268399.420        1210.889          45.000  
C 9  37788016.193    -7689775.8072       1525.352          36.250  
C 8  36503729.970   -19952065.3222        938.281          44.750  
C 1  37877757.602   -12950849.1552        445.713          38.750  
C 2  37358323.916   -14247467.5772        452.227          37.750  
C 4  38838542.126   -13003552.5492        422.715          36.250  
C13  36444604.689   -26621533.5542       1089.746          46.750  
C 5  39389803.892   -13910102.8122        448.125          35.500  
G15  21129887.080   -20403893.262        2864.414          42.500  
C16  36725719.146   -18869419.0532       1217.100          43.250  
C 6  36316444.147   -18606155.2962       1031.426          43.000  
C27  22575069.441   -26278709.4662       2026.602          50.000  
G29  21531686.022   -26193697.186        1522.725          46.500  
G30  24499089.650    -9464328.059         827.139          36.250  
G25  25736522.178    -3729220.749       -1559.189          28.750  
G18  24834383.578    -5237959.105        3429.805          40.500  
> 2020  5 30 12 32 21.0000000  0 25                     
G 5  21430744.085   -22194230.292        -948.115          48.500  
C28  22145267.088   -32317170.0632      -1066.670          46.750  
G 2  21772220.800   -27302243.462        -587.686          42.750  
C14  25692693.269     -475893.2612      -2082.559          39.000  
G12  25716648.509    -6164955.031       -1692.588          28.750  
G 6  24436565.241   -10505127.750       -2099.873          35.500  
G 7  26004362.743      101657.970        -385.791          32.000  
C 3  36437899.443   -13577674.9292        413.242          41.250  
C10  40677012.573       71868.5243       -850.957          26.000  
G13  20394016.040   -22269609.913        1210.244          45.000  
C 9  37787723.378    -7691300.9672       1525.098          36.000  
C 8  36503549.919   -19953003.6752        938.262          44.750  
C 1  37877671.922   -12951294.8842        445.645          38.750  
C 2  37358236.909   -14247919.8582        452.266          37.750  
C 4  38838461.157   -13003975.2882        422.588          36.250  
C13  36444395.565   -26622623.3902       1089.775          46.750  
C 5  39389717.898   -13910550.9892        448.145          35.500  
G15  21129342.005   -20406757.395        2863.936          42.500  
C16  36725485.487   -18870636.0982       1216.924          43.250  
C 6  36316245.913   -18607186.6662       1031.260          43.000  
C27  22574680.406   -26280735.8202       2026.152          50.000  
G29  21531396.139   -26195219.509        1522.061          46.500  
G30  24498932.214    -9465154.938         826.670          36.000  
G25  25736821.065    -3727661.707       -1559.072          28.750  
G18  24833730.905    -5241389.132        3430.000          40.250  
> 2020  5 30 12 32 22.0000000  0 25                     
G 5  21430924.521   -22193282.261        -948.135          48.500  
C28  22145472.023   -32316103.1542      -1067.070          46.750  
G 2  21772332.691   -27301655.675        -587.969          43.000  
C14  25693093.158     -473810.8542      -2082.412          39.250  
G12  25716970.535    -6163262.801       -1692.246          29.000  
G 6  24436964.641   -10503027.914       -2099.971          35.500  
G 7  26004436.069      102044.074        -386.240          31.750  
C 3  36437819.974   -13578088.3232        413.389          41.250  
C10  40677175.104       72719.0412       -850.459          25.750  
G13  20393785.837   -22270819.836        1209.648          45.000  
C 9  37787430.459    -7692826.1022       1525.068          36.000  
C 8  36503369.867   -19953942.1102        938.369          44.750  
C 1  37877586.206   -12951740.6952        445.781          38.750  
C 2  37358149.972   -14248372.2662        452.422          37.750  
C 4  38838379.769   -13004398.1112        422.695          36.250  
C13  36444186.023   -26623713.3332       1089.883          46.750  
C 5  39389631.868   -13910999.3102        448.252          35.500  
G15  21128796.686   -20409621.118        2863.574          42.500  
C16  36725251.899   -18871853.0722       1216.914          43.500  
C 6  36316047.853   -18608217.9692       1031.240          43.000  
C27  22574291.161   -26282761.8272       2025.850          50.000  
G29  21531106.325   -26196741.273        1521.543          46.500  
G30  24498774.918    -9465981.445         826.406          36.000  
G25  25737113.286    -3726102.910       -1558.701          28.750  
G18  24833078.093    -5244819.316        3430.195          40.250  
> 2020  5 30 12 32 23.0000000  0 25                     
G 5  21431104.781   -22192334.077        -948.174          48.500  
C28  22145676.889   -32315035.7422      -1067.510          46.750  
G 2  21772444.687   -27301067.465        -588.301          43.000  
C14  25693493.361     -471728.4972      -2082.266          39.250  
G12  25717296.331    -6161570.764       -1691.875          29.000  
G 6  24437364.251   -10500927.804       -2100.166          35.500  
G 7  26004509.744      102430.637        -386.582          31.750  
C 3  36437740.646   -13578501.6892        413.408          41.000  
C10  40677338.054       73569.4282       -850.479          25.500  
G13  20393555.703   -22272029.057        1209.023          45.000  
C 9  37787137.714    -7694351.0872       1524.941          36.000  
C 8  36503189.781   -19954880.4642        938.428          44.750  
C 1  37877500.700   -12952186.5072        445.801          38.750  
C 2  37358062.930   -14248824.5782        452.402          37.750  
C 4  38838298.625   -13004820.9242        422.881          36.250  
C13  36443976.795   -26624803.2532       1089.951          46.750  
C 5  39389545.839   -13911447.5762        448.232          35.500  
G15  21128251.820   -20412484.303        2863.066          42.500  
C16  36725018.275   -18873069.8762       1216.807          43.500  
C 6  36315849.897   -18609249.0812       1031.113          43.000  
C27  22573902.265   -26284787.3552       2025.449          50.000  
G29  21530816.791   -26198262.355        1520.898          46.500  
G30  24498617.831    -9466807.457         825.967          36.000  
G25  25737410.499    -3724544.133       -1558.633          28.750  
G18  24832425.175    -5248249.556        3430.312          40.000  
> 2020  5 30 12 32 24.0000000  0 25                     
G 5  21431285.321   -22191385.806        -948.350          48.500  
C28  22145881.894   -32313967.8942      -1068.027          46.750  
G 2  21772556.612   -27300478.904        -588.721          42.750  
C14  25693893.250     -469646.2682      -2082.188          39.250  
G12  25717615.565    -6159879.039       -1691.641          29.000  
G 6  24437763.931   -10498827.494       -2100.371          35.500  
G 7  26004583.314      102817.618        -387.256          31.750  
C 3  36437661.456   -13578915.0872        413.311          41.250  
C10  40677502.086       74419.6562       -850.186          25.250  
G13  20393325.465   -22273237.655        1208.369          45.000  
C 9  37786844.934    -7695875.9772       1524.766          36.250  
C 8  36503009.486   -19955818.8232        938.301          44.750  
C 1  37877415.159   -12952632.3282        445.762          38.750  
C 2  37357976.168   -14249276.9782        452.334          37.750  
C 4  38838217.342   -13005243.7512        422.764          36.250  
C13  36443767.462   -26625893.2192       1089.941          46.750  
C 5  39389459.983   -13911895.8592        448.262          35.500  
G15  21127706.815   -20415347.042        2862.549          42.500  
C16  36724784.582   -18874286.5742       1216.611          43.250  
C 6  36315651.872   -18610280.0922       1030.977          43.000  
C27  22573513.161   -26286812.4852       2024.951          50.000  
G29  21530527.432   -26199782.847        1520.273          46.250  
G30  24498460.779    -9467633.063         825.303          36.250  
G25  25737705.966    -3722985.457       -1558.760          28.500  
G18  24831772.363    -5251679.915        3430.303          40.000  
> 2020  5 30 12 32 25.0000000  0 25                     
G 5  21431465.861   -22190437.258        -948.750          48.500  
C28  22146086.934   -32312899.3882      -1068.818          46.750  
G 2  21772668.747   -27299889.790        -589.355          43.000  
C14  25694293.139     -467563.9372      -2082.490          39.250  
G12  25717939.266    -6158187.428       -1691.660          28.500  
G 6  24438163.471   -10496726.763       -2100.879          35.500  
G 7  26004656.640      103205.192        -387.812          31.250  
C 3  36437582.023   -13579328.3372        413.086          41.250  
C10  40677665.420       75269.9792       -850.527          25.250  
G13  20393095.680   -22274445.433        1207.432          45.000  
C 9  37786552.120    -7697400.6592       1524.531          36.250  
C 8  36502829.225   -19956756.9712        938.008          44.750  
C 1  37877329.444   -12953077.9812        445.469          38.750  
C 2  37357889.231   -14249729.2102        452.061          37.500  
C 4  38838136.338   -13005666.4242        422.529          36.500  
C13  36443558.164   -26626982.9972       1089.590          46.750  
C 5  39389373.954   -13912344.0052        447.949          35.500  
G15  21127162.159   -20418209.122        2861.807          42.250  
C16  36724551.063   -18875502.9262       1216.152          43.500  
C 6  36315453.847   -18611310.7932       1030.518          43.000  
C27  22573124.370   -26288837.0072       2024.219          50.000  
G29  21530238.456   -26201302.502        1519.316          46.250  
G30  24498303.692    -9468458.056         824.658          36.250  
G25  25738009.181    -3721426.747       -1558.809          28.250  
G18  24831119.585    -5255110.206        3430.137          40.250  
> 2020  5 30 12 32 26.0000000  0 24                     
G 5  21431646.366   -22189488.599        -948.564          48.500  
C28  22146292.044   -32311830.4142      -1069.004          46.750  
G 2  21772780.987   -27299300.273        -589.482          43.000  
C14  25694692.994     -465481.6882      -2082.109          39.250  
G12  25718258.954    -6156495.980       -1691.191          28.000  
G 6  24438563.291   -10494625.759       -2100.938          35.250  
G 7  26004730.279      103593.238        -388.066          31.000  
C 3  36437502.904   -13579741.5722        413.369          41.250  
C10  40677830.674       76120.1062       -849.893          25.500  
G13  20392866.001   -22275652.551        1207.061          45.000  
C 9  37786259.375    -7698925.1542       1524.570          36.250  
C 8  36502649.104   -19957695.0802        938.271          44.750  
C 1  37877243.938   -12953523.6652        445.811          38.750  
C 2  37357802.329   -14250181.4042        452.324          37.750  
C 4  38838055.020   -13006089.0792        422.754          36.500  
C13  36443348.971   -26628072.8232       1089.971          46.750  
G15  21126617.607   -20421070.681        2861.543          42.250  
C16  36724317.614   -18876719.1452       1216.289          43.500  
C 6  36315255.718   -18612341.3572       1030.654          43.000  
C27  22572735.614   -26290861.0952       2024.102          50.000  
G29  21529949.306   -26202821.518        1518.945          46.500  
G30  24498146.815    -9469282.585         824.473          36.000  
G25  25738302.205    -3719868.004       -1558.691          28.000  
G18  24830466.807    -5258540.598        3430.557          40.250  
> 2020  5 30 12 32 27.0000000  0 25                     
G 5  21431826.941   -22188539.940        -948.564          48.250  
C28  22146497.468   -32310761.0702      -1069.365          46.750  
G 2  21772893.227   -27298710.494        -589.697          42.750  
C14  25695092.604     -463399.6482      -2081.846          39.000  
G12  25718581.469    -6154804.975       -1690.879          28.250  
G 6  24438962.970   -10492524.654       -2101.025          35.500  
G 7  26004803.954      103981.597        -388.438          31.500  
C 3  36437423.401   -13580154.9182        413.457          41.250  
C10  40677993.415       76970.1233       -849.795          25.750  
G13  20392636.321   -22276859.112        1206.504          45.000  
C 9  37785966.770    -7700449.6772       1524.648          36.250  
C 8  36502468.983   -19958633.2682        938.330          44.750  
C 1  37877158.327   -12953969.4422        445.967          38.750  
C 2  37357715.078   -14250633.7332        452.432          37.500  
C 4  38837973.912   -13006511.8402        422.852          36.500  
C13  36443139.778   -26629162.7702       1090.088          46.750  
C 5  39389201.685   -13913240.3873        448.340          35.750  
G15  21126073.126   -20423931.869        2861.172          42.250  
C16  36724084.061   -18877935.3072       1216.240          43.500  
C 6  36315057.762   -18613371.8812       1030.654          43.000  
C27  22572347.032   -26292884.8522       2023.740          50.000  
G29  21529660.261   -26204339.993        1518.447          46.500  
G30  24497989.623    -9470106.784         824.189          36.000  
G25  25738595.962    -3718309.605       -1558.213          28.000  
G18  24829813.960    -5261971.151        3430.723          40.250  
> 2020  5 30 12 32 28.0000000  0 25                     
G 5  21432007.516   -22187591.070        -949.023          48.250  
C28  22146703.066   -32309691.1542      -1070.166          46.750  
G 2  21773005.467   -27298120.210        -590.508          42.750  
C14  25695492.563     -461317.5532      -2082.158          39.000  
G12  25718901.122    -6153114.135       -1690.781          28.250  
G 6  24439362.790   -10490423.239       -2101.650          35.250  
G 7  26004878.118      104370.530        -389.229          31.500  
C 3  36437344.072   -13580568.1462        413.066          41.250  
C10  40678155.457       77819.9762       -849.971          25.500  
G13  20392406.781   -22278064.923        1205.518          45.000  
C 9  37785674.234    -7701974.0052       1524.082          36.250  
C 8  36502288.792   -19959571.3382        937.939          44.750  
C 1  37877072.856   -12954415.1382        445.605          38.750  
C 2  37357628.525   -14251085.9622        452.061          37.500  
C 4  38837892.908   -13006934.5492        422.637          36.250  
C13  36442930.305   -26630252.6132       1089.717          46.750  
C 5  39389115.551   -13913688.5322        448.096          35.750  
G15  21125528.539   -20426792.456        2860.332          42.250  
C16  36723850.681   -18879151.2282       1215.732          43.500  
C 6  36314860.016   -18614402.1352       1030.107          43.000  
C27  22571958.556   -26294908.0692       2022.979          50.000  
G29  21529371.460   -26205857.735        1517.441          46.500  
G30  24497832.990    -9470930.428         823.379          36.000  
G25  25738889.265    -3716751.198       -1558.613          27.500  
G18  24829161.356    -5265401.743        3430.547          40.250  
> 2020  5 30 12 32 29.0000000  0 25                     
G 5  21432188.161   -22186642.087        -948.926          48.500  
C28  22146908.665   -32308620.7502      -1070.488          46.750  
G 2  21773118.090   -27297529.555        -590.684          42.750  
C14  25695892.417     -459235.5552      -2081.846          39.250  
G12  25719223.533    -6151423.521       -1690.439          29.000  
G 6  24439762.854   -10488321.513       -2101.768          35.250  
G 7  26004952.176      104759.883        -389.473          31.500  
C 3  36437264.883   -13580981.3952        413.330          41.250  
C10  40678317.779       78669.7852       -849.902          25.500  
G13  20392177.310   -22279270.063        1205.039          45.000  
C 9  37785381.664    -7703498.2252       1524.238          36.250  
C 8  36502108.636   -19960509.3722        938.135          44.750  
C 1  37876987.175   -12954860.8102        445.801          38.750  
C 2  37357542.007   -14251538.1752        452.275          37.750  
C 4  38837811.869   -13007357.2492        422.764          36.250  
C13  36442720.973   -26631342.4902       1089.941          46.750  
C 5  39389029.417   -13914136.6772        448.213          35.500  
G15  21124984.372   -20429652.538        2860.010          42.250  
C16  36723617.023   -18880366.9902       1215.811          43.500  
C 6  36314662.026   -18615432.2762       1030.156          43.000  
C27  22571570.079   -26296930.8512       2022.734          50.000  
G29  21529082.833   -26207374.826        1516.973          46.500  
G30  24497676.671    -9471753.617         823.145          36.000  
G25  25739187.350    -3715192.781       -1558.418          27.250  
G18  24828508.369    -5268832.393        3430.781          40.250  
> 2020  5 30 12 32 30.0000000  0 25                     
G 5  21432368.701   -22185692.879        -949.346          48.500  
C28  22147114.473   -32307549.7572      -1071.240          46.750  
G 2  21773230.575   -27296938.383        -591.387          42.750  
C14  25696291.922     -457153.5122      -2082.158          39.250  
G12  25719547.548    -6149733.010       -1690.596          29.000  
G 6  24440162.603   -10486219.517       -2102.070          35.250  
G 7  26005026.096      105149.794        -390.078          31.250  
C 3  36437185.275   -13581394.5262        413.037          41.250  
C10  40678480.729       79519.5142       -849.893          25.500  
G13  20391948.049   -22280474.425        1204.043          45.000  
C 9  37785088.849    -7705022.1922       1523.838          36.250  
C 8  36501928.480   -19961447.2792        937.783          44.750  
C 1  37876901.669   -12955306.3882        445.439          38.750  
C 2  37357455.314   -14251990.2612        451.973          37.750  
C 4  38837730.691   -13007779.8172        422.441          36.250  
C13  36442511.849   -26632432.2712       1089.688          46.750  
C 5  39388943.422   -13914584.7102        447.852          35.750  
G15  21124440.099   -20432512.000        2859.209          42.250  
C16  36723383.818   -18881582.4932       1215.381          43.500  
C 6  36314464.350   -18616462.1422       1029.707          43.000  
C27  22571181.742   -26298953.0782       2021.992          50.000  
G29  21528794.416   -26208891.150        1516.016          46.500  
G30  24497520.003    -9472576.231         822.412          35.750  
G25  25739482.677    -3713634.397       -1558.535          27.000  
G18  24827855.731    -5272263.013        3430.566          40.500  
> 2020  5 30 12 32 31.0000000  0 24                     
G 5  21432549.136   -22184743.609        -949.219          48.500  
C28  22147320.350   -32306478.3382      -1071.475          46.750  
G 2  21773343.024   -27296346.889        -591.533          42.750  
C14  25696691.637     -455071.6042      -2081.826          39.000  
G12  25719871.285    -6148042.875       -1690.127          29.000  
G 6  24440562.562   -10484117.278       -2102.236          35.000  
G 7  26005100.573      105540.060        -390.283          31.250  
C 3  36437105.842   -13581807.6902        413.242          41.250  
C10  40678644.133       80369.2292       -849.824          25.750  
G13  20391718.788   -22281678.193        1203.652          45.000  
C 9  37784796.244    -7706546.1052       1523.965          36.250  
C 8  36501748.428   -19962385.1742        937.998          44.750  
C 1  37876816.093   -12955752.0112        445.723          38.750  
C 2  37357368.342   -14252442.4282        452.246          37.750  
C 4  38837649.407   -13008202.4472        422.695          36.250  
C13  36442302.656   -26633522.1082       1089.922          46.750  
C 5  39388857.393   -13915032.7912        448.154          35.500  
G15  21123895.967   -20435371.026        2858.984          42.250  
C16  36723150.474   -18882797.8932       1215.439          43.500  
C 6  36314266.395   -18617491.9072       1029.805          43.000  
C27  22570793.405   -26300974.9162       2021.787          50.000  
G29  21528505.929   -26210406.892        1515.615          46.500  
G30  24497363.649    -9473398.466         822.129          35.750  
G18  24827202.883    -5275693.786        3430.977          40.250  
> 2020  5 30 12 32 32.0000000  0 25                     
G 5  21432729.676   -22183794.072        -949.473          48.250  
C28  22147526.158   -32305406.2952      -1072.070          46.750  
G 2  21773456.066   -27295754.851        -592.061          42.750  
C14  25697091.631     -452989.6302      -2081.855          39.000  
G12  25720192.334    -6146352.851       -1689.834          28.750  
G 6  24440962.661   -10482014.682       -2102.578          34.750  
G 7  26005175.051      105931.051        -390.986          31.000  
C 3  36437026.687   -13582220.7302        413.076          41.250  
C10  40678805.862       81218.7342       -849.268          25.750  
G13  20391490.086   -22282881.149        1202.832          45.000  
C 9  37784503.673    -7708069.7882       1523.770          36.250  
C 8  36501568.447   -19963322.9152        937.842          44.750  
C 1  37876730.622   -12956197.4912        445.566          38.750  
C 2  37357281.440   -14252894.4342        452.139          37.750  
C 4  38837568.194   -13008624.9232        422.646          36.250  
C13  36442093.498   -26634611.8282       1089.814          46.750  
C 5  39388771.293   -13915480.7192        448.096          35.500  
G15  21123351.939   -20438229.429        2858.311          42.250  
C16  36722917.025   -18884012.9842       1215.166          43.500  
C 6  36314068.649   -18618521.4012       1029.580          43.000  
C27  22570405.312   -26302996.1762       2021.201          50.000  
G29  21528217.861   -26211921.847        1514.854          46.500  
G30  24497207.225    -9474220.102         821.621          35.750  
G25  25740072.494    -3710517.3623      -1557.842          27.000  
G18  24826550.106    -5279124.497        3430.830          40.250  
> 2020  5 30 12 32 33.0000000  0 25                     
G 5  21432910.495   -22182844.271        -950.000          48.250  
C28  22147732.210   -32304333.6232      -1072.979          46.750  
G 2  21773568.515   -27295162.283        -592.832          42.750  
C14  25697491.555     -450907.5822      -2082.168          39.000  
G12  25720517.955    -6144662.911       -1690.117          29.000  
G 6  24441362.655   -10479911.681       -2103.193          34.750  
G 7  26005249.703      106322.565        -391.904          31.000  
C 3  36436947.324   -13582633.6192        412.725          41.250  
C10  40678969.650       82068.3983       -849.971          25.500  
G13  20391261.383   -22284083.297        1201.768          45.000  
C 9  37784211.208    -7709593.1922       1523.232          36.250  
C 8  36501388.325   -19964260.4722        937.412          44.750  
C 1  37876645.046   -12956642.8272        445.117          38.750  
C 2  37357194.817   -14253346.2632        451.631          37.500  
C 4  38837487.086   -13009047.2512        422.256          36.250  
C13  36441884.339   -26635701.4042       1089.404          46.750  
C 5  39388685.264   -13915928.5282        447.676          35.500  
G15  21122808.155   -20441087.156        2857.461          42.250  
C16  36722683.576   -18885227.7852       1214.600          43.500  
C 6  36313871.043   -18619550.5722       1028.955          42.750  
C27  22570017.149   -26305016.8492       2020.371          50.000  
G29  21527929.513   -26213436.006        1513.809          46.250  
G30  24497051.151    -9475041.118         820.820          36.000  
G25  25740369.288    -3708958.9222      -1558.574          26.750  
G18  24825897.293    -5282555.146        3430.527          40.250  
> 2020  5 30 12 32 34.0000000  0 25                     
G 5  21433091.140   -22181894.263        -949.854          48.250  
C28  22147938.228   -32303260.3752      -1073.232          46.750  
G 2  21773681.349   -27294569.223        -592.988          42.750  
C14  25697891.165     -448825.5402      -2081.836          39.000  
G12  25720837.992    -6142973.147       -1689.512          29.000  
G 6  24441762.683   -10477808.342       -2103.223          34.500  
G 7  26005324.285      106714.609        -392.012          31.000  
C 3  36436867.890   -13583046.4012        412.910          41.250  
C10  40679132.321       82918.0552       -849.209          25.250  
G13  20391032.716   -22285284.682        1201.367          45.250  
C 9  37783918.777    -7711116.3892       1523.369          36.000  
C 8  36501208.274   -19965197.8932        937.578          44.750  
C 1  37876559.470   -12957088.0762        445.391          38.750  
C 2  37357108.020   -14253798.0382        451.914          37.500  
C 4  38837405.802   -13009469.4712        422.344          36.250  
C13  36441675.007   -26636790.8922       1089.707          46.750  
C 5  39388599.339   -13916376.1952        447.793          35.500  
G15  21122264.581   -20443944.305        2857.207          42.250  
C16  36722450.266   -18886442.3362       1214.668          43.500  
C 6  36313673.437   -18620579.5392       1029.121          42.750  
C27  22569629.196   -26307036.9882       2020.186          50.000  
G29  21527641.375   -26214949.428        1513.418          46.250  
G30  24496894.971    -9475861.594         820.508          35.750  
G25  25740664.266    -3707400.6142      -1557.969          26.750  
G18  24825244.550    -5285985.797        3430.908          40.250  
> 2020  5 30 12 32 35.0000000  0 25                     
G 5  21433271.959   -22180944.202        -950.117          48.250  
C28  22148144.524   -32302186.7232      -1073.809          46.750  
G 2  21773794.251   -27293975.827        -593.535          42.750  
C14  25698291.089     -446743.6222      -2081.895          39.000  
G12  25721162.252    -6141283.689       -1689.453          28.750  
G 6  24442162.817   -10475704.831       -2103.555          34.500  
G 7  26005398.867      107107.065        -392.441          30.500  
C 3  36436788.562   -13583459.2482        412.822          41.250  
C10  40679295.306       83767.4422       -849.209          25.250  
G13  20390804.397   -22286485.471        1200.537          45.250  
C 9  37783626.242    -7712639.5372       1523.145          36.250  
C 8  36501028.432   -19966135.3312        937.412          44.750  
C 1  37876474.069   -12957533.3922        445.342          38.750  
C 2  37357021.048   -14254249.8772        451.826          37.750  
C 4  38837324.764   -13009891.8222        422.422          36.250  
C13  36441466.023   -26637880.4482       1089.551          46.750  
C 5  39388513.519   -13916823.9452        447.666          35.750  
G15  21121721.111   -20446800.988        2856.494          42.250  
C16  36722217.097   -18887656.8022       1214.404          43.500  
C 6  36313476.040   -18621608.3992       1028.818          42.750  
C27  22569241.208   -26309056.7502       2019.629          50.000  
G29  21527353.377   -26216462.254        1512.617          46.250  
G30  24496738.861    -9476681.680         819.941          35.750  
G25  25740963.363    -3705842.4202      -1558.330          27.250  
G18  24824591.668    -5289416.583        3430.850          40.250  
> 2020  5 30 12 32 36.0000000  0 25                     
G 5  21433453.022   -22179993.922        -950.283          48.250  
C28  22148350.646   -32301112.4762      -1074.365          46.750  
G 2  21773906.910   -27293381.934        -593.955          42.750  
C14  25698690.629     -444661.6902      -2081.846          39.000  
G12  25721483.161    -6139594.375       -1689.121          28.750  
G 6  24442562.950   -10473600.973       -2103.896          34.250  
G 7  26005473.659      107500.028        -393.154          30.250  
C 3  36436709.233   -13583871.9882        412.725          41.250  
C10  40679459.233       84616.9232       -849.639          25.250  
G13  20390575.869   -22287685.497        1199.844          45.250  
C 9  37783333.846    -7714162.4372       1522.949          36.500  
C 8  36500848.416   -19967072.6412        937.324          44.750  
C 1  37876388.598   -12957978.6072        445.312          38.750  
C 2  37356934.390   -14254701.5802        451.738          37.750  
C 4  38837243.795   -13010313.9942        422.207          36.250  
C13  36441256.515   -26638969.9102       1089.492          46.750  
C 5  39388427.559   -13917271.5872        447.646          35.500  
G15  21121177.362   -20449657.085        2855.967          42.250  
C16  36721983.892   -18888871.0052       1214.180          43.500  
C 6  36313278.398   -18622636.9942       1028.564          43.000  
C27  22568853.603   -26311075.9632       2019.111          50.000  
G29  21527065.658   -26217974.326        1511.904          46.250  
G30  24496582.996    -9477501.203         819.453          35.750  
G25  25741259.633    -3704284.1652      -1558.174          27.750  
G18  24823938.646    -5292847.371        3430.771          40.250  
> 2020  5 30 12 32 37.0000000  0 25                     
G 5  21433633.876   -22179043.268        -950.605          48.250  
C28  22148557.082   -32300037.4942      -1075.059          46.750  
G 2  21774019.848   -27292787.397        -594.629          42.750  
C14  25699090.484     -442579.5552      -2082.051          38.750  
G12  25721802.535    -6137905.104       -1689.160          28.500  
G 6  24442963.258   -10471496.601       -2104.219          34.250  
G 7  26005544.751      107893.743        -393.701          30.250  
C 3  36436629.835   -13584284.4772        412.559          41.000  
C10  40679622.916       85466.4092       -849.463          25.250  
G13  20390347.864   -22288884.600        1198.955          45.000  
C 9  37783041.450    -7715684.9972       1522.549          36.250  
C 8  36500668.469   -19968009.6672        937.061          44.750  
C 1  37876302.917   -12958423.5302        445.059          38.750  
C 2  37356847.593   -14255153.0202        451.494          37.750  
C 4  38837162.861   -13010735.9352        422.070          36.250  
C13  36441047.357   -26640059.1422       1089.268          46.750  
C 5  39388341.808   -13917718.9592        447.402          35.500  
G15  21120633.823   -20452512.422        2855.215          42.500  
C16  36721750.792   -18890084.8082       1213.857          43.500  
C 6  36313080.932   -18623665.1912       1028.213          42.750  
C27  22568465.964   -26313094.4792       2018.447          49.750  
G29  21526778.183   -26219485.494        1511.025          46.250  
G30  24496426.747    -9478320.009         818.701          35.750  
G25  25741557.717    -3702725.7332      -1558.350          27.750  
G18  24823285.973    -5296277.963        3430.713          40.250  
> 2020  5 30 12 32 38.0000000  0 25                     
G 5  21433814.591   -22178092.435        -950.811          48.250  
C28  22148763.518   -32298961.9772      -1075.605          46.750  
G 2  21774133.274   -27292192.418        -595.029          42.750  
C14  25699490.373     -440497.4602      -2082.021          38.750  
G12  25722123.515    -6136215.962       -1688.984          28.250  
G 6  24443363.846   -10469391.913       -2104.727          34.500  
G 7  26005620.834      108287.942        -394.307          30.000  
C 3  36436550.890   -13584696.9072        412.490          41.000  
C10  40679785.587       86315.9042       -849.521          25.000  
G13  20390119.999   -22290082.985        1198.213          45.250  
C 9  37782748.880    -7717207.3912       1522.402          36.250  
C 8  36500488.418   -19968946.6042        936.982          44.750  
C 1  37876217.481   -12958868.4352        444.863          38.750  
C 2  37356760.900   -14255604.4302        451.465          37.750  
C 4  38837081.961   -13011157.8042        421.855          36.250  
C13  36440838.269   -26641148.3132       1089.229          46.750  
C 5  39388255.988   -13918166.2772        447.393          35.500  
G15  21120090.667   -20455367.205        2854.697          42.500  
C16  36721517.762   -18891298.3952       1213.643          43.500  
C 6  36312883.675   -18624693.1952       1027.988          42.750  
C27  22568078.325   -26315112.5082       2017.949          49.750  
G29  21526490.743   -26220995.961        1510.342          46.250  
G30  24496270.882    -9479138.285         818.086          35.750  
G25  25741855.593    -3701167.3472      -1558.506          28.000  
G18  24822633.125    -5299708.604        3430.703          40.250  
> 2020  5 30 12 32 39.0000000  0 25                     
G 5  21433995.340   -22177141.770        -950.537          48.250  
C28  22148969.989   -32297886.2752      -1075.684          46.750  
G 2  21774246.805   -27291597.325        -595.029          43.000  
C14  25699889.983     -438415.7072      -2081.533          38.750  
G12  25722443.901    -6134527.415       -1688.330          28.500  
G 6  24443764.154   -10467287.349       -2104.404          34.500  
G 7  26005696.638      108682.328        -394.346          30.000  
C 3  36436471.631   -13585109.6312        412.881          41.000  
C10  40679949.200       87164.9913       -849.043          25.250  
G13  20389891.995   -22291281.002        1197.959          45.250  
C 9  37782456.344    -7718729.9572       1522.705          36.250  
C 8  36500308.471   -19969883.7922        937.324          44.750  
C 1  37876132.079   -12959313.6252        445.361          38.750  
C 2  37356674.033   -14256056.1032        451.846          37.750  
C 4  38837000.992   -13011579.9752        422.305          36.250  
C13  36440629.006   -26642237.7752       1089.648          46.750  
C 5  39388169.924   -13918613.8672        447.617          35.500  
G15  21119547.303   -20458221.763        2854.570          42.250  
C16  36721284.766   -18892512.1042       1213.828          43.500  
C 6  36312686.313   -18625721.3382       1028.320          42.750  
C27  22567690.791   -26317130.3712       2017.881          49.750  
G29  21526203.163   -26222506.066        1510.078          46.250  
G30  24496115.400    -9479956.431         818.145          35.750  
G25  25742153.607    -3699609.3412      -1557.676          28.000  
G18  24821980.103    -5303139.619        3431.260          40.250  
> 2020  5 30 12 32 40.0000000  0 25                     
G 5  21434176.124   -22176191.076        -950.732          48.250  
C28  22149176.809   -32296810.1652      -1076.240          46.750  
G 2  21774360.162   -27291001.946        -595.498          43.000  
C14  25700289.802     -436334.1262      -2081.631          38.750  
G12  25722764.426    -6132839.150       -1688.184          28.000  
G 6  24444164.427   -10465182.543       -2104.814          34.250  
G 7  26005773.244      109077.074        -394.902          30.250  
C 3  36436392.477   -13585522.4232        412.852          41.000  
C10  40680112.464       88013.8172       -848.721          25.250  
G13  20389664.200   -22292478.442        1197.256          45.250  
C 9  37782164.053    -7720252.5082       1522.520          36.500  
C 8  36500128.420   -19970821.0362        937.246          44.750  
C 1  37876046.504   -12959758.8832        445.244          38.750  
C 2  37356587.270   -14256507.8722        451.846          37.750  
C 4  38836920.023   -13012002.2372        422.246          36.250  
C13  36440419.847   -26643327.3572       1089.590          46.750  
C 5  39388083.824   -13919061.6042        447.705          35.500  
G15  21119004.182   -20461075.921        2854.033          42.250  
C16  36721051.771   -18893725.7492       1213.564          43.500  
C 6  36312488.811   -18626749.4052       1028.008          42.750  
C27  22567303.501   -26319147.8892       2017.393          49.750  
G29  21525915.933   -26224015.625        1509.365          46.250  
G30  24495959.814    -9480774.203         817.617          35.750  
G25  25742449.109    -3698051.5472      -1557.822          27.750  
G18  24821327.046    -5306570.801        3431.250          40.250  
> 2020  5 30 12 32 41.0000000  0 25                     
G 5  21434357.432   -22175240.025        -951.016          48.250  
C28  22149383.594   -32295733.3332      -1076.924          46.750  
G 2  21774473.519   -27290405.907        -596.113          43.000  
C14  25700689.517     -434252.3882      -2081.689          38.500  
G12  25723085.789    -6131150.973       -1688.252          27.750  
G 6  24444564.804   -10463077.321       -2105.332          34.250  
G 7  26005850.234      109472.514        -395.498          30.500  
C 3  36436313.218   -13585934.9732        412.588          41.250  
C10  40680276.741       88862.7812       -848.877          25.250  
G13  20389436.544   -22293674.968        1196.338          45.250  
C 9  37781871.797    -7721774.6802       1522.217          36.500  
C 8  36499948.613   -19971757.9972        937.021          44.750  
C 1  37875960.823   -12960203.8992        445.029          38.750  
C 2  37356500.647   -14256959.3732        451.514          37.750  
C 4  38836838.915   -13012424.2652        422.168          36.250  
C13  36440210.619   -26644416.7132       1089.365          46.750  
C 5  39387997.899   -13919509.0352        447.539          35.500  
G15  21118461.236   -20463929.313        2853.301          42.250  
C16  36720818.741   -18894938.9952       1213.271          43.500  
C 6  36312291.309   -18627777.0872       1027.734          42.750  
C27  22566916.001   -26321164.7082       2016.738          49.750  
G29  21525628.737   -26225524.274        1508.486          46.250  
G30  24495804.367    -9481591.254         816.963          35.500  
G25  25742746.950    -3696493.5592      -1557.852          27.750  
G18  24820673.989    -5310001.822        3431.133          40.250  
> 2020  5 30 12 32 42.0000000  0 25                     
G 5  21434538.321   -22174288.773        -951.221          48.250  
C28  22149590.484   -32294655.9372      -1077.480          46.750  
G 2  21774587.259   -27289809.394        -596.543          43.000  
C14  25701089.266     -432170.6182      -2081.709          38.750  
G12  25723409.386    -6129462.922       -1687.949          28.000  
G 6  24444965.357   -10460971.715       -2105.635          34.250  
G 7  26005925.375      109868.492        -395.986          31.000  
C 3  36436234.168   -13586347.4252        412.559          41.000  
C10  40680439.516       89711.7162       -848.750          25.000  
G13  20389209.168   -22294870.736        1195.605          45.250  
C 9  37781579.610    -7723296.6462       1522.080          36.500  
C 8  36499768.701   -19972694.8192        936.914          44.750  
C 1  37875875.422   -12960648.8282        444.971          38.750  
C 2  37356413.955   -14257410.7992        451.455          37.500  
C 4  38836757.946   -13012846.1702        422.031          36.250  
C13  36440001.531   -26645505.9742       1089.326          46.750  
C 5  39387912.010   -13919956.3932        447.432          35.500  
G15  21117918.290   -20466782.122        2852.715          42.250  
C16  36720585.885   -18896152.0092       1213.037          43.500  
C 6  36312094.297   -18628804.5242       1027.422          42.750  
C27  22566528.781   -26323181.0052       2016.221          49.750  
G29  21525341.576   -26227032.184        1507.773          46.250  
G30  24495648.607    -9482407.780         816.465          35.750  
G25  25743044.685    -3694935.5782      -1557.871          28.000  
G18  24820021.072    -5313432.840        3431.113          40.250  
> 2020  5 30 12 32 43.0000000  0 25                     
G 5  21434719.489   -22173337.353        -951.484          48.250  
C28  22149797.618   -32293578.0012      -1078.096          46.750  
G 2  21774700.720   -27289212.443        -597.090          43.000  
C14  25701488.911     -430088.9062      -2081.699          38.500  
G12  25723730.680    -6127775.095       -1687.676          28.500  
G 6  24445365.769   -10458865.847       -2105.986          34.000  
G 7  26006001.807      110264.978        -396.611          31.000  
C 3  36436154.840   -13586759.8142        412.324          41.250  
C10  40680600.407       90560.6392       -849.180          25.250  
G13  20388981.826   -22296065.812        1194.854          45.250  
C 9  37781287.389    -7724818.4702       1521.865          36.250  
C 8  36499588.719   -19973631.5652        936.699          44.750  
C 1  37875789.916   -12961093.6982        444.785          38.750  
C 2  37356327.471   -14257862.1502        451.328          37.500  
C 4  38836676.732   -13013268.0212        421.777          36.250  
C13  36439792.163   -26646595.2072       1089.209          46.750  
C 5  39387826.259   -13920403.6712        447.295          35.500  
G15  21117375.553   -20469634.374        2852.070          42.250  
C16  36720353.099   -18897364.8072       1212.734          43.500  
C 6  36311897.144   -18629831.7642       1027.139          42.750  
C27  22566141.595   -26325196.8092       2015.645          49.750  
G29  21525054.799   -26228539.406        1507.031          46.250  
G30  24495493.300    -9483223.787         815.781          35.750  
G25  25743340.990    -3693378.069       -1558.047          28.750  
G18  24819368.259    -5316863.897        3431.055          40.250  
> 2020  5 30 12 32 44.0000000  0 25                     
G 5  21434900.448   -22172385.819        -951.553          48.250  
C28  22150004.822   -32292499.5882      -1078.564          47.000  
G 2  21774814.391   -27288615.093        -597.451          43.250  
C14  25701888.731     -428007.2292      -2081.621          38.500  
G12  25724053.090    -6126087.524       -1687.285          28.750  
G 6  24445766.461   -10456759.707       -2106.221          34.250  
G 7  26006080.508      110661.903        -397.100          31.000  
C 3  36436075.581   -13587172.2132        412.402          41.250  
C10  40680763.462       91409.2922       -848.760          25.250  
G13  20388754.590   -22297260.212        1194.209          45.500  
C 9  37780995.063    -7726340.1782       1521.650          36.500  
C 8  36499408.912   -19974568.2902        936.719          44.750  
C 1  37875704.619   -12961538.5852        444.854          38.750  
C 2  37356240.709   -14258313.5202        451.377          37.750  
C 4  38836595.659   -13013689.8962        421.934          36.250  
C13  36439583.214   -26647684.4402       1089.268          46.750  
C 5  39387740.230   -13920850.9622        447.285          35.500  
G15  21116832.886   -20472486.132        2851.621          42.250  
C16  36720120.139   -18898577.4512       1212.559          43.500  
C 6  36311699.747   -18630858.8732       1027.090          42.750  
C27  22565754.794   -26327212.1692       2015.244          49.750  
G29  21524768.197   -26230045.976        1506.377          46.250  
G30  24495338.098    -9484039.356         815.449          35.750  
G25  25743635.515    -3691820.297       -1558.252          28.500  
G18  24818715.272    -5320295.039        3431.133          40.250  
> 2020  5 30 12 32 45.0000000  0 25                     
G 5  21435081.651   -22171434.259        -951.592          48.250  
C28  22150211.956   -32291420.8022      -1078.945          47.000  
G 2  21774928.271   -27288017.451        -597.744          43.250  
C14  25702288.341     -425925.7972      -2081.357          38.500  
G12  25724375.814    -6124400.296       -1687.070          29.000  
G 6  24446167.467   -10454653.462       -2106.318          34.000  
G 7  26006152.542      111059.188        -397.432          31.000  
C 3  36435996.392   -13587584.7102        412.500          41.250  
C10  40680926.343       92257.9062       -848.262          25.000  
G13  20388527.458   -22298454.051        1193.613          45.500  
C 9  37780703.051    -7727861.8232       1521.709          36.500  
C 8  36499228.931   -19975505.0542        936.787          44.750  
C 1  37875619.078   -12961983.5832        445.010          38.750  
C 2  37356153.807   -14258764.9832        451.455          37.750  
C 4  38836514.585   -13014111.8802        422.031          36.250  
C13  36439374.021   -26648773.7902       1089.336          46.750  
C 5  39387654.130   -13921298.3542        447.373          35.500  
G15  21116290.289   -20475337.487        2851.221          42.250  
C16  36719887.318   -18899790.0412       1212.549          43.500  
C 6  36311502.455   -18631885.9092       1026.973          42.750  
C27  22565367.922   -26329227.1812       2014.883          49.750  
G29  21524481.560   -26231552.002        1505.850          46.250  
G30  24495182.895    -9484854.516         814.941          35.750  
G25  25743936.322    -3690262.600       -1557.441          28.500  
G18  24818062.110    -5323726.356        3431.377          40.250  
> 2020  5 30 12 32 46.0000000  0 25                     
G 5  21435262.540   -22170482.849        -951.377          48.250  
C28  22150419.230   -32290341.7752      -1079.082          46.750  
G 2  21775042.326   -27287419.688        -597.832          43.250  
C14  25702687.846     -423844.6142      -2081.074          38.250  
G12  25724696.724    -6122713.571       -1686.582          29.000  
G 6  24446567.985   -10452547.192       -2106.279          34.000  
G 7  26006230.405      111456.623        -397.393          31.000  
C 3  36435917.237   -13587997.4562        412.832          41.250  
C10  40681087.373       93105.9842       -848.008          24.750  
G13  20388300.535   -22299647.478        1193.271          45.500  
C 9  37780410.795    -7729383.6552       1521.875          36.500  
C 8  36499049.054   -19976442.0322        937.031          44.750  
C 1  37875533.746   -12962428.7872        445.312          38.750  
C 2  37356067.044   -14259216.6832        451.758          37.750  
C 4  38836433.511   -13014534.0852        422.285          36.250  
C13  36439164.653   -26649863.4052       1089.697          46.750  
C 5  39387567.961   -13921746.0272        447.803          35.500  
G15  21115747.727   -20478188.582        2851.016          42.250  
C16  36719654.323   -18901002.7302       1212.734          43.500  
C 6  36311305.233   -18632913.0542       1027.168          43.000  
C27  22564980.981   -26331242.0042       2014.736          50.000  
G29  21524194.818   -26233057.636        1505.498          46.250  
G30  24495027.763    -9485669.527         814.814          35.500  
G25  25744233.080    -3688705.280       -1557.129          28.750  
G18  24817409.019    -5327158.021        3431.729          40.250  
> 2020  5 30 12 32 47.0000000  0 25                     
G 5  21435443.638   -22169531.177        -951.748          48.000  
C28  22150626.399   -32289262.1292      -1079.824          47.000  
G 2  21775156.241   -27286821.381        -598.438          43.250  
C14  25703087.561     -421763.3942      -2081.270          38.500  
G12  25725016.865    -6121026.972       -1686.445          29.000  
G 6  24446968.816   -10450440.564       -2106.689          34.000  
G 7  26006304.115      111854.757        -398.252          30.500  
C 3  36435837.804   -13588410.0552        412.568          41.250  
C10  40681250.533       93954.1362       -847.998          25.250  
G13  20388073.717   -22300840.105        1192.373          45.500  
C 9  37780118.504    -7730905.2012       1521.533          36.500  
C 8  36498868.968   -19977378.8282        936.777          44.750  
C 1  37875448.345   -12962873.8912        445.059          38.750  
C 2  37355980.387   -14259668.2232        451.475          37.750  
C 4  38836352.437   -13014956.1612        422.051          36.500  
C13  36438955.320   -26650952.8772       1089.443          46.750  
C 5  39387481.966   -13922193.5042        447.529          35.500  
G15  21115205.130   -20481039.040        2850.303          42.250  
C16  36719421.537   -18902215.1302       1212.363          43.500  
C 6  36311107.905   -18633939.8982       1026.777          42.750  
C27  22564594.215   -26333256.2542       2014.072          49.750  
G29  21523908.320   -26234562.475        1504.590          46.250  
G30  24494872.526    -9486483.934         814.199          35.500  
G25  25744534.131    -3687147.938       -1557.256          28.500  
G18  24816755.787    -5330589.627        3431.631          40.250  
> 2020  5 30 12 32 48.0000000  0 25                     
G 5  21435624.807   -22168579.486        -951.748          48.000  
C28  22150833.917   -32288182.0932      -1080.186          47.000  
G 2  21775270.296   -27286222.751        -598.760          43.250  
C14  25703487.066     -419682.3622      -2081.006          38.250  
G12  25725335.751    -6119340.696       -1686.064          28.750  
G 6  24447369.892   -10448333.781       -2106.855          34.000  
G 7  26006380.651      112253.163        -398.545          30.500  
C 3  36435758.580   -13588822.7372        412.686          41.250  
C10  40681414.286       94802.0402       -847.695          25.250  
G13  20387846.760   -22302032.150        1191.807          45.500  
C 9  37779826.178    -7732426.7472       1521.562          36.500  
C 8  36498689.196   -19978315.6852        936.855          45.000  
C 1  37875362.560   -12963319.0632        445.166          38.750  
C 2  37355893.624   -14260119.8612        451.592          37.750  
C 4  38836271.154   -13015378.3322        422.158          36.250  
C13  36438746.162   -26652042.4472       1089.512          46.750  
C 5  39387396.111   -13922641.0763        447.500          35.750  
G15  21114663.022   -20483889.083        2849.893          42.250  
C16  36719188.716   -18903427.4402       1212.236          43.500  
C 6  36310910.718   -18634966.6962       1026.719          42.750  
C27  22564207.448   -26335270.1442       2013.730          49.750  
G29  21523622.102   -26236066.764        1504.082          46.250  
G30  24494717.603    -9487297.971         813.887          35.500  
G25  25744826.422    -3685590.661       -1557.041          28.250  
G18  24816102.695    -5334021.420        3431.816          40.000  
> 2020  5 30 12 32 49.0000000  0 26                     
G 5  21435805.835   -22167627.779        -951.729          48.250  
C28  22151041.435   -32287101.6742      -1080.557          47.000  
G 2  21775384.525   -27285623.861        -599.014          43.250  
C14  25703886.432     -417601.4662      -2080.898          38.500  
G12  25725657.323    -6117654.797       -1685.791          29.000  
G 6  24447770.863   -10446226.802       -2107.119          34.000  
G 7  26006454.954      112651.943        -398.799          30.000  
C 3  36435679.391   -13589235.5142        412.773          41.250  
C10  40681576.956       95649.8432       -847.715          24.750  
G13  20387620.081   -22303223.651        1191.299          45.750  
C 9  37779534.200    -7733948.2342       1521.416          36.500  
C 8  36498509.249   -19979252.6262        936.963          44.750  
C 1  37875277.124   -12963764.3182        445.283          38.750  
C 2  37355807.001   -14260571.5792        451.689          37.750  
C 4  38836190.150   -13015800.5682        422.305          36.250  
C13  36438536.864   -26653132.1232       1089.717          46.750  
C 5  39387309.977   -13923088.7402        447.725          35.500  
G15  21114120.739   -20486738.717        2849.473          42.250  
C16  36718955.860   -18904639.7152       1212.227          43.500  
C 6  36310713.600   -18635993.4462       1026.689          42.750  
C27  22563820.856   -26337283.6922       2013.428          49.750  
G29  21523336.197   -26237570.503        1503.564          46.250  
G30  24494562.819    -9488111.647         813.574          35.500  
C30  20823816.020       -2687.2083       3559.092          41.000  
G25  25745121.610    -3684033.675       -1556.973          28.250  
G18  24815449.708    -5337453.385        3432.012          40.250  
> 2020  5 30 12 32 50.0000000  0 26                     
G 5  21435986.899   -22166676.024        -951.748          48.000  
C28  22151249.022   -32286020.8532      -1080.918          47.000  
G 2  21775498.544   -27285024.632        -599.297          43.250  
C14  25704285.902     -415520.7582      -2080.654          38.250  
G12  25725978.582    -6115969.228       -1685.400          29.500  
G 6  24448171.660   -10444119.703       -2107.080          33.750  
G 7  26006525.837      113051.092        -399.209          29.500  
C 3  36435600.132   -13589648.3582        412.910          41.000  
C10  40681739.313       96497.3632       -847.266          24.500  
G13  20387393.473   -22304414.551        1190.732          45.750  
C 9  37779241.979    -7735469.7482       1521.484          36.500  
C 8  36498329.512   -19980189.5842        937.021          44.750  
C 1  37875191.757   -12964209.6832        445.439          38.750  
C 2  37355720.343   -14261023.3732        451.787          37.750  
C 4  38836108.867   -13016222.9032        422.461          36.250  
C13  36438327.566   -26654221.8902       1089.785          46.750  
C 5  39387223.982   -13923536.4902        447.773          35.500  
G15  21113578.386   -20489587.945        2849.053          42.250  
C16  36718723.214   -18905851.9052       1212.207          43.500  
C 6  36310516.483   -18637020.1222       1026.641          42.750  
C27  22563434.159   -26339296.8672       2013.086          49.750  
G29  21523050.188   -26239073.659        1502.988          46.250  
G30  24494408.036    -9488924.934         813.125          35.750  
C30  20823133.158       -6246.2952       3559.131          41.000  
G25  25745418.543    -3682476.825       -1556.748          28.000  
G18  24814796.442    -5340885.518        3432.158          40.000  
> 2020  5 30 12 32 51.0000000  0 25                     
G 5  21436167.997   -22165724.441        -951.465          48.000  
C28  22151456.540   -32284939.8242      -1081.025          47.000  
G 2  21775612.599   -27284425.295        -599.326          43.250  
C14  25704685.582     -413440.3762      -2080.176          38.500  
G12  25726298.409    -6114284.243       -1684.785          29.500  
G 6  24448572.666   -10442012.655       -2107.100          33.500  
G 7  26006597.557      113450.407        -399.375          29.000  
C 3  36435520.838   -13590061.4762        413.223          41.250  
C10  40681901.216       97344.4783       -846.982          25.000  
G13  20387167.039   -22305605.061        1190.459          45.750  
C 9  37778949.793    -7736991.3612       1521.758          36.500  
C 8  36498149.425   -19981126.8182        937.334          44.750  
C 1  37875106.111   -12964655.3012        445.791          38.750  
C 2  37355633.581   -14261475.4672        452.324          37.750  
C 4  38836027.759   -13016645.5112        422.773          36.250  
C13  36438118.129   -26655311.9482       1090.195          46.750  
C 5  39387137.848   -13923984.4952        448.135          35.250  
G15  21113036.347   -20492436.925        2848.955          42.250  
C16  36718490.393   -18907064.2142       1212.412          43.500  
C 6  36310319.225   -18638046.9352       1026.904          42.750  
C27  22563047.497   -26341309.8852       2013.057          49.750  
G29  21522764.179   -26240576.451        1502.754          46.250  
G30  24494253.392    -9489738.049         813.066          35.750  
C30  20822447.085       -9805.5442       3559.375          41.000  
G18  24814143.140    -5344318.025        3432.607          40.000  
> 2020  5 30 12 32 52.0000000  0 25                     
G 5  21436349.026   -22164772.882        -951.533          48.000  
C28  22151664.338   -32283858.4742      -1081.426          47.000  
G 2  21775726.654   -27283825.730        -599.639          43.250  
C14  25705085.017     -411360.2492      -2080.107          38.500  
G12  25726617.050    -6112599.564       -1684.609          29.500  
G 6  24448973.602   -10439905.483       -2107.217          33.500  
G 7  26006674.827      113850.068        -399.746          29.000  
C 3  36435441.405   -13590474.7462        413.350          41.250  
C10  40682064.062       98191.2972       -846.631          24.750  
G13  20386940.709   -22306795.070        1189.863          45.750  
C 9  37778657.397    -7738513.0522       1521.719          36.500  
C 8  36497969.514   -19982064.1262        937.363          44.750  
C 1  37875020.640   -12965101.0672        445.801          38.750  
C 2  37355546.644   -14261927.6862        452.305          37.500  
C 4  38835946.755   -13017068.2622        422.793          36.250  
C13  36437908.866   -26656402.1662       1090.312          46.750  
C 5  39387051.923   -13924432.6742        448.232          35.500  
G15  21112494.064   -20495285.571        2848.555          42.250  
C16  36718257.433   -18908276.5122       1212.305          43.500  
C 6  36310122.073   -18639073.7352       1026.846          42.750  
C27  22562661.010   -26343322.5982       2012.646          50.000  
G29  21522478.484   -26242078.745        1502.148          46.250  
G30  24494098.783    -9490550.875         812.744          35.750  
C30  20821763.630      -13364.8662       3559.355          41.000  
G18  24813489.909    -5347750.765        3432.832          40.000  
> 2020  5 30 12 32 53.0000000  0 25                     
G 5  21436530.229   -22163821.061        -951.963          48.000  
C28  22151872.135   -32282776.4812      -1082.236          47.000  
G 2  21775840.813   -27283225.613        -600.352          43.250  
C14  25705484.313     -409280.0622      -2080.244          38.500  
G12  25726936.459    -6110915.115       -1684.385          29.750  
G 6  24449374.748   -10437797.942       -2107.861          33.500  
G 7  26006754.575      114250.311        -400.605          29.000  
C 3  36435362.076   -13590887.8652        412.998          41.250  
C10  40682225.232       99038.2382       -846.846          24.750  
G13  20386714.589   -22307984.252        1188.857          45.750  
C 9  37778365.315    -7740034.4572       1521.299          36.750  
C 8  36497789.532   -19983001.2622        936.963          45.000  
C 1  37874934.925   -12965546.6932        445.537          38.750  
C 2  37355459.951   -14262379.7742        451.992          37.750  
C 4  38835865.402   -13017490.8932        422.471          36.500  
C13  36437699.323   -26657492.2602       1089.971          46.750  
C 5  39386966.033   -13924880.6812        447.725          35.500  
G15  21111951.991   -20498133.551        2847.705          42.250  
C16  36718024.612   -18909488.5162       1211.836          43.500  
C 6  36309925.060   -18640100.2422       1026.279          42.750  
C27  22562274.592   -26345334.7302       2011.875          50.000  
G29  21522192.754   -26243580.244        1501.191          46.250  
G30  24493944.349    -9491363.074         811.904          35.750  
C30  20821079.616      -16923.9472       3558.945          40.750  
G18  24812836.922    -5351183.423        3432.529          40.000  
> 2020  5 30 12 32 54.0000000  0 26                     
G 5  21436711.222   -22162869.039        -951.953          48.000  
C28  22152079.827   -32281693.9452      -1082.559          47.000  
G 2  21775955.147   -27282625.006        -600.635          43.250  
C14  25705883.853     -407199.8462      -2079.990          38.500  
G12  25727259.393    -6109230.773       -1684.033          29.750  
G 6  24449776.103   -10435690.093       -2107.920          33.500  
G 7  26006828.005      114651.049        -400.811          29.000  
C 3  36435282.748   -13591300.9042        413.135          41.000  
C10  40682386.821       99885.0392       -846.631          24.500  
G13  20386488.365   -22309172.705        1188.359          45.750  
C 9  37778073.164    -7741555.6852       1521.328          36.750  
C 8  36497609.655   -19983938.2932        937.119          45.000  
C 1  37874849.454   -12965992.2552        445.615          38.750  
C 2  37355372.979   -14262831.7572        452.021          37.750  
C 4  38835784.503   -13017913.3832        422.598          36.250  
C13  36437490.095   -26658582.2762       1090.088          46.750  
C 5  39386880.143   -13925328.6342        447.959          35.500  
G15  21111410.161   -20500980.954        2847.363          42.250  
C16  36717791.896   -18910700.2882       1211.865          43.250  
C 6  36309727.907   -18641126.5242       1026.328          42.750  
C27  22561888.244   -26347346.3422       2011.582          49.750  
G29  21521907.234   -26245081.005        1500.654          46.250  
G30  24493789.984    -9492174.776         811.699          35.750  
C30  20820396.405      -20482.8982       3559.043          40.750  
G25  25746600.691    -3676250.9463      -1556.426          28.250  
G18  24812183.551    -5354616.110        3432.861          40.000  
> 2020  5 30 12 32 55.0000000  0 26                     
G 5  21436892.321   -22161917.029        -951.953          48.000  
C28  22152287.869   -32280611.0402      -1082.969          47.000  
G 2  21776069.236   -27282024.150        -600.938          43.250  
C14  25706283.498     -405119.8292      -2079.990          38.500  
G12  25727577.301    -6107546.781       -1683.789          30.000  
G 6  24450176.969   -10433582.076       -2107.979          33.500  
G 7  26006904.891      115052.026        -400.869          28.500  
C 3  36435203.524   -13591714.0562        413.232          41.000  
C10  40682548.689      100731.6562       -846.289          24.250  
G13  20386262.245   -22310360.617        1187.832          46.000  
C 9  37777781.012    -7743076.9082       1521.250          36.500  
C 8  36497429.569   -19984875.4152        937.168          44.750  
C 1  37874763.913   -12966437.9202        445.742          39.000  
C 2  37355286.147   -14263283.8652        452.256          37.500  
C 4  38835703.185   -13018336.0412        422.686          36.250  
C13  36437280.832   -26659672.4222       1090.244          46.750  
C 5  39386794.149   -13925776.6762        448.066          35.500  
G15  21110868.437   -20503827.979        2846.992          42.250  
C16  36717559.354   -18911912.0262       1211.748          43.500  
C 6  36309530.685   -18642152.7852       1026.309          42.750  
C27  22561502.106   -26349357.6252       2011.230          49.750  
G29  21521621.643   -26246581.249        1500.146          46.250  
G30  24493635.794    -9492986.115         811.279          35.750  
C30  20819713.438      -24041.8472       3559.004          40.750  
G25  25746897.763    -3674694.8732      -1556.172          28.500  
G18  24811530.284    -5358048.995        3433.037          39.750  
> 2020  5 30 12 32 56.0000000  0 26                     
G 5  21437073.663   -22160964.884        -952.363          48.000  
C28  22152495.945   -32279527.6382      -1083.691          47.000  
G 2  21776183.814   -27281422.886        -601.572          43.250  
C14  25706682.899     -403039.8702      -2080.137          38.500  
G12  25727906.761    -6105863.077       -1683.809          30.000  
G 6  24450578.219   -10431473.824       -2108.594          33.250  
G 7  26006984.359      115453.633        -401.748          28.750  
C 3  36435123.951   -13592127.2022        412.969          41.250  
C10  40682710.069      101578.2572       -846.777          24.000  
G13  20386036.369   -22311547.843        1186.846          46.000  
C 9  37777488.895    -7744597.9762       1520.879          36.750  
C 8  36497249.867   -19985812.4582        936.885          44.750  
C 1  37874678.162   -12966883.5572        445.498          38.750  
C 2  37355199.210   -14263735.9312        451.846          37.500  
C 4  38835621.797   -13018758.7142        422.598          36.250  
C13  36437071.500   -26660762.5892       1090.010          46.750  
C 5  39386708.224   -13926224.7292        447.959          35.500  
G15  21110326.712   -20506674.472        2846.123          42.250  
C16  36717326.394   -18913123.5712       1211.270          43.250  
C 6  36309333.707   -18643178.8562       1025.859          42.750  
C27  22561116.002   -26351368.4572       2010.527          49.750  
G29  21521336.332   -26248080.825        1499.209          46.250  
G30  24493481.325    -9493796.982         810.508          35.750  
C30  20819029.739      -27600.7202       3558.652          41.000  
G25  25747191.869    -3673138.8852      -1556.162          28.500  
G18  24810876.948    -5361481.940        3432.783          40.000  
> 2020  5 30 12 32 57.0000000  0 26                     
G 5  21437254.866   -22160012.274        -952.725          48.000  
C28  22152704.126   -32278443.4022      -1084.443          47.000  
G 2  21776298.218   -27280820.871        -602.207          43.250  
C14  25707082.788     -400959.6472      -2080.264          38.500  
G12  25728223.203    -6104179.231       -1683.867          29.750  
G 6  24450979.225   -10429365.005       -2108.936          33.500  
G 7  26007065.502      115856.039        -402.529          29.000  
C 3  36435044.727   -13592539.9712        412.725          41.250  
C10  40682873.438      102424.9023       -846.777          24.000  
G13  20385810.738   -22312734.055        1185.957          46.000  
C 9  37777196.988    -7746118.6212       1520.508          36.500  
C 8  36497069.815   -19986749.1492        936.592          44.750  
C 1  37874592.517   -12967328.8712        445.254          38.500  
C 2  37355112.552   -14264187.6592        451.680          37.500  
C 4  38835540.863   -13019180.9812        422.314          36.250  
C13  36436862.411   -26661852.3862       1089.766          46.750  
C 5  39386622.299   -13926672.3972        447.598          35.500  
G15  21109785.092   -20509520.127        2845.449          42.250  
C16  36717093.782   -18914334.6472       1210.947          43.250  
C 6  36309136.729   -18644204.4402       1025.439          42.750  
C27  22560729.934   -26353378.4822       2009.844          49.750  
G29  21521051.510   -26249579.399        1498.330          46.250  
G30  24493326.925    -9494607.040         809.873          35.750  
C30  20818346.458      -31159.1462       3558.311          41.000  
G25  25747488.034    -3671582.6272      -1556.270          28.250  
G18  24810223.612    -5364914.616        3432.646          40.000  
> 2020  5 30 12 32 58.0000000  0 25                     
G 5  21437436.349   -22159059.439        -952.764          48.000  
C28  22152912.621   -32277358.5872      -1084.863          47.000  
G 2  21776412.936   -27280218.357        -602.588          43.250  
C14  25707482.293     -398879.4082      -2080.156          38.500  
G12  25728542.891    -6102495.577       -1683.623          29.500  
G 6  24451380.685   -10427255.805       -2109.102          33.500  
G 7  26007143.819      116258.950        -402.998          29.000  
C 3  36434965.677   -13592952.6562        412.783          41.250  
G13  20385585.316   -22313919.499        1185.352          46.000  
C 9  37776905.081    -7747639.0292       1520.459          36.500  
C 8  36496890.148   -19987685.6632        936.582          45.000  
C 1  37874506.906   -12967774.0412        445.225          38.750  
C 2  37355025.720   -14264639.2962        451.729          37.750  
C 4  38835459.789   -13019603.1532        422.402          36.500  
C13  36436653.113   -26662942.1102       1089.814          46.750  
C 5  39386536.234   -13927119.9652        447.646          35.500  
G15  21109243.822   -20512365.149        2844.932          42.250  
C16  36716861.346   -18915545.4672       1210.869          43.250  
C 6  36308939.716   -18645229.7712       1025.361          42.750  
C27  22560343.865   -26355387.9672       2009.443          49.750  
G29  21520766.478   -26251077.220        1497.725          46.500  
G30  24493173.049    -9495416.541         809.482          35.750  
C30  26813512.413      -34717.3872       3558.320          41.000  
G25  25747784.932    -3670026.2922      -1556.279          28.750  
G18  24809570.311    -5368347.280        3432.793          40.000  
> 2020  5 30 12 32 59.0000000  0 25                     
G 5  21437617.517   -22158106.424        -953.066          48.000  
C28  22153121.082   -32276273.2252      -1085.508          47.000  
G 2  21776527.584   -27279615.382        -603.125          43.250  
C14  25707881.833     -396799.1302      -2080.244          38.500  
G12  25728861.497    -6100812.064       -1683.525          29.000  
G 6  24451782.215   -10425146.312       -2109.551          33.750  
G 7  26007217.180      116662.339        -403.730          29.000  
C 3  36434886.558   -13593365.2512        412.617          41.250  
G13  20385359.894   -22315104.198        1184.512          46.000  
C 9  37776613.209    -7749159.2562       1520.127          36.500  
C 8  36496710.201   -19988622.0882        936.416          45.000  
C 1  37874421.365   -12968219.1662        445.078          38.750  
C 2  37354939.097   -14265090.8262        451.475          37.750  
C 4  38835378.611   -13020025.2252        422.119          36.250  
C13  36436443.920   -26664031.7662       1089.648          47.000  
C 5  39386450.240   -13927567.4572        447.568          35.500  
G15  21108702.725   -20515209.609        2844.326          42.500  
C16  36716628.978   -18916756.0332       1210.537          43.250  
C 6  36308742.598   -18646254.8832       1025.068          42.750  
C27  22559958.111   -26357396.9402       2008.848          50.000  
G29  21520481.376   -26252574.314        1496.885          46.250  
G30  24493019.103    -9496225.507         808.828          35.750  
C30  26812829.167      -38275.4662       3558.076          41.000  
G25  25748082.040    -3668470.1862      -1556.123          28.750  
G18  24808917.219    -5371779.959        3432.764          40.250  
> 2020  5 30 12 33  0.0000000  0 25                     
G 5  21437798.929   -22157153.085        -953.447          48.000  
C28  22153329.647   -32275187.1752      -1086.221          47.000  
G 2  21776642.546   -27279011.805        -603.730          43.250  
C14  25708281.094     -394718.7402      -2080.459          38.500  
G12  25729180.069    -6099128.680       -1683.408          28.750  
G 6  24452183.814   -10423036.323       -2110.098          33.750  
G 7  26007296.194      117066.442        -404.189          29.250  
C 3  36434807.508   -13593777.6452        412.373          41.250  
G13  20385134.682   -22316288.030        1183.574          45.750  
C 9  37776321.371    -7750679.1722       1519.814          36.500  
C 8  36496530.499   -19989558.2762        936.104          44.750  
C 1  37874335.929   -12968664.0892        444.834          38.750  
C 2  37354852.509   -14265542.1772        451.309          37.750  
C 4  38835297.711   -13020447.1132        421.758          36.500  
C13  36436234.692   -26665121.2172       1089.404          46.750  
C 5  39386364.524   -13928014.7552        447.207          35.500  
G15  21108161.734   -20518053.368        2843.574          42.500  
C16  36716396.542   -18917966.2462       1210.117          43.250  
C 6  36308545.795   -18647279.6372       1024.658          42.750  
C27  22559572.670   -26359405.2682       2008.125          50.000  
G29  21520196.659   -26254070.559        1496.025          46.250  
G30  24492865.297    -9497033.808         808.076          35.750  
C30  26812145.921      -41833.2532       3557.725          40.750  
G25  25748376.285    -3666913.7282      -1556.318          29.000  
G18  24808264.023    -5375212.519        3432.520          40.000  
> 2020  5 30 12 33  1.0000000  0 25                     
G 5  21437980.377   -22156199.408        -953.750          48.000  
C28  22153537.967   -32274100.4112      -1086.943          46.750  
G 2  21776757.578   -27278407.601        -604.346          43.250  
C14  25708680.635     -392638.2372      -2080.508          38.500  
G12  25729504.259    -6097445.296       -1683.242          28.500  
G 6  24452585.623   -10420925.914       -2110.605          33.500  
G 7  26007367.461      117471.238        -404.824          29.500  
C 3  36434728.145   -13594189.7962        412.139          41.250  
G13  20384909.399   -22317470.988        1182.725          45.750  
C 9  37776029.534    -7752198.7342       1519.463          36.500  
C 8  36496350.797   -19990494.2072        935.918          45.000  
C 1  37874250.527   -12969108.7722        444.609          38.750  
C 2  37354765.921   -14265993.2772        451.055          37.750  
C 4  38835216.777   -13020868.7812        421.660          36.250  
C13  36436025.638   -26666210.4662       1089.248          46.750  
C 5  39386278.495   -13928461.7982        447.061          35.500  
G15  21107620.951   -20520896.377        2842.832          42.250  
C16  36716164.209   -18919176.0752       1209.766          43.500  
C 6  36308349.201   -18648304.0272       1024.316          42.750  
C27  22559187.020   -26361412.9162       2007.480          50.000  
G29  21519912.185   -26255565.921        1495.156          46.250  
G30  24492711.735    -9497841.419         807.432          35.750  
C30  26811462.745      -45390.7132       3557.344          40.750  
G25  25748670.670    -3665357.679       -1556.348          29.000  
G18  24807610.686    -5378644.928        3432.441          40.000  
> 2020  5 30 12 33  2.0000000  0 25                     
G 5  21438162.173   -22155245.026        -954.600          48.000  
C28  22153746.847   -32273012.5972      -1088.135          47.000  
G 2  21776872.714   -27277802.416        -605.479          43.250  
C14  25709080.454     -390557.1942      -2081.250          38.500  
G12  25729822.167    -6095761.538       -1683.799          28.500  
G 6  24452987.117   -10418814.673       -2111.387          33.750  
G 7  26007442.637      117876.989        -406.104          29.000  
C 3  36434649.060   -13594601.3812        411.436          41.250  
G13  20384684.466   -22318652.686        1181.338          46.000  
C 9  37775738.115    -7753717.6092       1518.652          36.500  
C 8  36496171.234   -19991429.5052        935.098          44.750  
C 1  37874165.126   -12969552.8762        443.916          38.750  
C 2  37354679.229   -14266443.7972        450.312          37.500  
C 4  38835135.739   -13021289.8622        420.879          36.250  
C13  36435816.410   -26667299.1552       1088.506          46.750  
C 5  39386192.779   -13928908.2552        446.270          35.500  
G15  21107080.274   -20523738.308        2841.592          42.500  
C16  36715931.982   -18920385.1822       1208.916          43.500  
C 6  36308152.955   -18649327.6712       1023.467          42.750  
C27  22558801.685   -26363419.5492       2006.328          50.000  
G29  21519627.921   -26257060.051        1493.750          46.500  
G30  24492558.418    -9498648.005         806.289          35.750  
C30  26810779.848      -48947.5302       3556.602          41.000  
G25  25748968.301    -3663800.660       -1557.090          29.000  
G18  24806957.490    -5382076.828        3431.748          40.000  
> 2020  5 30 12 33  3.0000000  0 25                     
G 5  21438343.795   -22154290.458        -954.531          48.000  
C28  22153955.970   -32271924.2362      -1088.428          46.750  
G 2  21776988.060   -27277196.790        -605.654          43.250  
C14  25709480.134     -388476.1852      -2080.918          38.500  
G12  25730139.970    -6094078.005       -1683.262          28.500  
G 6  24453388.996   -10416703.121       -2111.426          33.500  
G 7  26007518.301      118283.332        -406.279          29.000  
C 3  36434570.011   -13595012.9062        411.650          41.250  
G13  20384459.568   -22319833.653        1180.859          45.750  
C 9  37775446.592    -7755236.2952       1518.691          36.500  
C 8  36495991.671   -19992364.7282        935.264          44.750  
C 1  37874080.004   -12969996.9242        444.141          38.750  
C 2  37354592.955   -14266894.2422        450.498          37.500  
C 4  38835054.909   -13021710.8792        421.045          36.250  
C13  36435607.217   -26668387.7612       1088.740          47.000  
C 5  39386106.959   -13929354.6802        446.562          35.500  
G15  21106539.561   -20526579.671        2841.270          42.500  
C16  36715699.789   -18921594.0582       1208.945          43.250  
C 6  36307956.222   -18650351.1102       1023.506          42.750  
C27  22558416.349   -26365425.6752       2006.084          50.000  
G29  21519343.657   -26258553.474        1493.320          46.500  
G30  24492405.170    -9499454.073         806.133          36.000  
C30  26810096.986      -52504.1862       3556.729          41.000  
G25  25749264.920    -3662243.683       -1556.816          28.750  
G18  24806304.328    -5385508.758        3432.012          40.000  
> 2020  5 30 12 33  4.0000000  0 25                     
G 5  21438525.347   -22153335.943        -954.531          47.750  
C28  22154164.989   -32270835.5502      -1088.799          47.000  
G 2  21777103.371   -27276590.918        -605.947          43.250  
C14  25709879.883     -386395.3972      -2080.752          38.500  
G12  25730459.518    -6092394.873       -1683.105          28.500  
G 6  24453790.770   -10414591.452       -2111.719          33.750  
G 7  26007596.652      118689.950        -406.787          28.500  
C 3  36434490.961   -13595424.5642        411.699          41.250  
G13  20384234.879   -22321014.116        1180.293          45.750  
C 9  37775154.650    -7756755.0302       1518.682          36.250  
C 8  36495812.039   -19993300.0582        935.371          44.750  
C 1  37873994.882   -12970441.1402        444.189          38.750  
C 2  37354506.297   -14267344.8572        450.586          37.750  
C 4  38834974.115   -13022132.0582        421.211          36.250  
C13  36435398.198   -26669476.5582       1088.828          47.000  
C 5  39386021.209   -13929801.2602        446.602          35.500  
G15  21105998.919   -20529420.697        2840.957          42.500  
C16  36715467.771   -18922802.9392       1208.857          43.250  
C 6  36307759.837   -18651374.5442       1023.457          42.750  
C27  22558031.083   -26367431.5122       2005.742          50.000  
G29  21519059.463   -26260046.400        1492.764          46.500  
G30  24492251.747    -9500259.797         805.645          35.750  
C30  26809414.055      -56060.9222       3556.748          41.000  
G25  25749562.446    -3660686.928       -1556.758          28.750  
G18  24805651.062    -5388940.930        3432.236          40.000  
> 2020  5 30 12 33  5.0000000  0 25                     
G 5  21438706.899   -22152381.411        -954.551          47.750  
C28  22154374.147   -32269746.4952      -1089.150          47.000  
G 2  21777218.822   -27275984.764        -606.201          43.250  
C14  25710279.354     -384314.8032      -2080.508          38.500  
G12  25730779.241    -6090712.127       -1682.666          28.250  
G 6  24454192.718   -10412479.659       -2111.934          33.500  
G 7  26007677.761      119096.944        -407.148          28.500  
C 3  36434411.807   -13595836.3232        411.826          41.250  
G13  20384010.225   -22322194.029        1179.746          45.750  
C 9  37774863.056    -7758273.7472       1518.789          36.250  
C 8  36495632.371   -19994235.4702        935.439          45.000  
C 1  37873909.480   -12970885.4522        444.395          38.500  
C 2  37354419.569   -14267795.5652        450.723          37.750  
C 4  38834893.180   -13022553.3412        421.318          36.250  
C13  36435189.319   -26670565.4612       1088.945          47.000  
C 5  39385935.423   -13930247.9012        446.748          35.500  
G15  21105458.485   -20532261.309        2840.479          42.500  
C16  36715235.579   -18924011.7762       1208.857          43.500  
C 6  36307563.208   -18652397.9472       1023.379          42.750  
C27  22557646.027   -26369437.0152       2005.400          50.000  
G29  21518775.443   -26261538.783        1492.227          46.250  
G30  24492098.430    -9501065.228         805.303          35.750  
C30  26808730.879      -59617.6882       3556.855          41.000  
G25  25749858.297    -3659130.379       -1556.777          28.750  
G18  24804997.970    -5392373.337        3432.480          39.750  
> 2020  5 30 12 33  6.0000000  0 25                     
G 5  21438888.591   -22151426.559        -954.971          47.750  
C28  22154583.619   -32268656.7582      -1089.961          47.000  
G 2  21777334.272   -27275378.016        -606.943          43.250  
C14  25710678.964     -382234.0712      -2080.830          38.500  
G12  25731098.964    -6089029.440       -1682.666          28.000  
G 6  24454594.876   -10410367.440       -2112.334          33.500  
G 7  26007755.868      119504.559        -407.871          28.500  
C 3  36434332.758   -13596247.8742        411.436          41.250  
G13  20383786.024   -22323373.071        1178.760          45.750  
C 9  37774571.428    -7759792.1322       1518.242          36.250  
C 8  36495452.774   -19995170.6082        935.059          44.750  
C 1  37873824.149   -12971329.5312        443.984          38.750  
C 2  37354332.946   -14268246.0682        450.381          37.750  
C 4  38834812.072   -13022974.4132        421.035          36.250  
C13  36434980.335   -26671654.1782       1088.633          47.000  
C 5  39385849.813   -13930694.3642        446.426          35.500  
G15  21104918.122   -20535101.224        2839.688          42.750  
C16  36715003.630   -18925220.2532       1208.379          43.250  
C 6  36307366.718   -18653421.0052       1022.910          42.750  
C27  22557261.249   -26371441.8662       2004.639          50.000  
G29  21518491.738   -26263030.315        1491.260          46.500  
G30  24491945.322    -9501869.958         804.482          36.000  
C30  26808047.912      -63174.1322       3556.299          41.000  
G25  25750154.183    -3657573.736       -1556.738          28.750  
G18  24804344.913    -5395805.560        3432.227          39.750  
> 2020  5 30 12 33  7.0000000  0 25                     
G 5  21439070.213   -22150471.461        -955.186          47.750  
C28  22154792.952   -32267566.4052      -1090.537          47.000  
G 2  21777449.898   -27274770.744        -607.412          43.250  
C14  25711078.399     -380153.2932      -2080.791          38.250  
G12  25731420.711    -6087346.846       -1682.686          28.250  
G 6  24454996.824   -10408254.818       -2112.686          33.500  
G 7  26007834.848      119912.733        -408.457          28.500  
C 3  36434253.918   -13596659.3182        411.367          41.250  
G13  20383561.789   -22324551.328        1177.998          45.750  
C 9  37774279.870    -7761310.3332       1518.125          36.500  
C 8  36495273.176   -19996105.6012        934.922          45.000  
C 1  37873738.992   -12971773.5182        443.945          38.750  
C 2  37354246.498   -14268696.4432        450.342          37.750  
C 4  38834731.208   -13023395.3612        420.889          36.250  
C13  36434771.282   -26672742.7702       1088.535          47.000  
C 5  39385763.958   -13931140.6732        446.250          35.500  
G15  21104377.933   -20537940.512        2839.111          42.750  
C16  36714771.508   -18926428.4502       1208.086          43.250  
C 6  36307170.334   -18654443.7892       1022.686          42.750  
C27  22556876.228   -26373446.1582       2004.102          50.000  
G29  21518208.206   -26264521.069        1490.498          46.500  
G30  24491792.248    -9502674.124         803.975          35.750  
C30  26807364.806      -66730.3962       3556.182          41.000  
G25  25750445.707    -3656017.011       -1556.982          28.250  
G18  24803691.682    -5399237.775        3432.217          39.750  
> 2020  5 30 12 33  8.0000000  0 25                     
G 5  21439251.974   -22149516.170        -955.352          47.750  
C28  22155002.494   -32266475.4992      -1091.084          47.000  
G 2  21777565.627   -27274162.998        -607.871          43.250  
C14  25711478.009     -378072.5382      -2080.674          38.250  
G12  25731740.644    -6085664.477       -1682.471          28.000  
G 6  24455398.667   -10406141.934       -2113.027          33.250  
G 7  26007913.234      120321.418        -408.779          28.250  
C 3  36434174.973   -13597070.6752        411.387          41.250  
G13  20383337.658   -22325728.839        1177.285          45.750  
C 9  37773988.417    -7762828.2962       1517.959          36.500  
C 8  36495093.648   -19997040.5012        934.863          45.000  
C 1  37873653.800   -12972217.4152        443.896          38.750  
C 2  37354160.224   -14269146.7522        450.254          37.500  
C 4  38834650.588   -13023816.2382        420.879          36.250  
C13  36434562.193   -26673831.2912       1088.486          47.000  
C 5  39385678.347   -13931586.9112        446.270          35.500  
G15  21103837.744   -20540779.204        2838.525          42.500  
C16  36714539.315   -18927636.4172       1207.920          43.500  
C 6  36306974.054   -18655466.3282       1022.490          42.750  
C27  22556491.450   -26375449.9162       2003.604          49.750  
G29  21517924.745   -26266011.097        1489.814          46.500  
G30  24491639.419    -9503477.742         803.467          35.750  
C30  26806681.804      -70286.4702       3556.025          41.000  
G25  25750741.732    -3654460.343       -1556.523          28.000  
G18  24803038.590    -5402669.962        3432.197          39.500  
> 2020  5 30 12 33  9.0000000  0 25                     
G 5  21439433.666   -22148560.894        -955.225          47.750  
C28  22155212.002   -32265384.2362      -1091.338          47.000  
G 2  21777681.113   -27273554.979        -608.057          43.250  
C14  25711877.549     -375991.9492      -2080.459          38.500  
G12  25732060.925    -6083982.437       -1681.709          28.000  
G 6  24455800.755   -10404028.861       -2113.066          33.500  
G 7  26007990.957      120730.449        -409.033          28.250  
C 3  36434096.098   -13597482.1322        411.543          41.250  
G13  20383113.946   -22326905.809        1176.846          45.750  
C 9  37773696.823    -7764346.2702       1518.037          36.500  
C 8  36494914.015   -19997975.4632        935.020          45.000  
C 1  37873568.503   -12972661.4382        444.131          38.750  
C 2  37354073.776   -14269597.1382        450.459          37.750  
C 4  38834569.723   -13024237.2132        421.104          36.250  
C13  36434353.279   -26674919.9652       1088.760          47.000  
C 5  39385592.631   -13932033.2902        446.455          35.500  
G15  21103297.904   -20543617.518        2838.242          42.500  
C16  36714307.436   -18928844.3352       1207.949          43.250  
C 6  36306777.774   -18656488.8752       1022.598          42.750  
C27  22556106.464   -26377453.3582       2003.389          49.750  
G29  21517641.458   -26267500.591        1489.365          46.500  
G30  24491486.346    -9504281.026         803.164          35.750  
C30  26805998.768      -73842.5972       3556.162          41.250  
G25  25751035.489    -3652903.860       -1556.338          27.500  
G18  24802385.149    -5406102.398        3432.539          39.500  
> 2020  5 30 12 33 10.0000000  0 25                     
G 5  21439615.322   -22147605.352        -955.625          47.750  
C28  22155421.858   -32264292.3482      -1092.080          47.000  
G 2  21777796.947   -27272946.432        -608.740          43.250  
C14  25712277.055     -373911.3132      -2080.684          38.500  
G12  25732381.171    -6082300.542       -1682.031          28.000  
G 6  24456203.053   -10401915.478       -2113.467          33.500  
G 7  26008069.169      121140.132        -409.922          28.000  
C 3  36434017.048   -13597893.4672        411.279          41.250  
G13  20382889.886   -22328081.965        1175.918          45.750  
C 9  37773405.405    -7765863.9902       1517.637          36.500  
C 8  36494734.662   -19998910.2592        934.717          45.000  
C 1  37873483.206   -12973105.2912        443.818          38.750  
C 2  37353987.223   -14270047.3932        450.205          37.750  
C 4  38834488.859   -13024658.0592        420.762          36.500  
C13  36434144.016   -26676008.4842       1088.467          47.000  
C 5  39385507.021   -13932479.5222        446.191          35.500  
G15  21102757.855   -20546455.191        2837.480          42.750  
C16  36714075.418   -18930051.9832       1207.568          43.250  
C 6  36306581.389   -18657511.1052       1022.139          42.750  
C27  22555722.000   -26379456.2222       2002.686          50.000  
G29  21517357.962   -26268989.296        1488.477          46.500  
G30  24491333.587    -9505083.707         802.510          35.750  
C30  26805316.011      -77398.4812       3555.820          41.250  
G25  25751327.501    -3651347.337       -1556.475          27.250  
G18  24801731.848    -5409534.733        3432.236          39.500  
> 2020  5 30 12 33 11.0000000  0 24                     
G 5  21439797.014   -22146649.576        -955.947          47.750  
C28  22155631.610   -32263199.8742      -1092.783          47.000  
G 2  21777912.677   -27272337.383        -609.336          43.250  
C14  25712676.630     -371830.6542      -2080.762          38.250  
G12  25732700.092    -6080618.813       -1681.758          27.500  
G 6  24456605.245   -10399801.678       -2113.896          33.000  
G 7  26008146.823      121550.275        -410.303          27.750  
C 3  36433938.069   -13598304.6602        410.996          41.000  
G13  20382666.244   -22329257.351        1175.029          45.750  
C 9  37773113.881    -7767381.5002       1517.363          36.500  
C 8  36494555.239   -19999844.9062        934.492          45.000  
C 1  37873398.119   -12973549.0622        443.613          38.750  
C 2  37353900.635   -14270497.5602        450.029          37.750  
C 4  38834407.995   -13025078.7862        420.537          36.250  
C13  36433934.893   -26677096.9002       1088.281          47.000  
C 5  39385421.375   -13932925.6112        445.879          35.500  
G15  21102218.399   -20549292.257        2836.787          42.750  
C16  36713843.575   -18931259.3392       1207.148          43.250  
C 6  36306385.039   -18658533.0742       1021.777          42.750  
C27  22555337.258   -26381458.5192       2002.041          50.000  
G29  21517074.640   -26270477.245        1487.617          46.500  
G30  24491180.967    -9505885.844         801.807          35.500  
C30  26804633.184      -80954.1702       3555.527          41.250  
G18  24801078.372    -5412967.080        3432.148          39.750  
> 2020  5 30 12 33 12.0000000  0 25                     
G 5  21439979.090   -22145693.694        -955.967          47.750  
C28  22155841.606   -32262106.9332      -1093.145          47.000  
G 2  21778028.617   -27271727.957        -609.580          43.250  
C14  25713076.344     -369750.0612      -2080.605          38.250  
G12  25733019.780    -6078937.328       -1681.426          27.750  
G 6  24457007.438   -10397687.682       -2114.092          33.250  
G 7  26008223.045      121960.865        -410.635          27.500  
C 3  36433858.984   -13598715.8862        411.143          41.000  
G13  20382442.671   -22330432.084        1174.463          45.750  
C 9  37772822.707    -7768898.9032       1517.275          36.500  
C 8  36494375.746   -20000779.5132        934.521          44.750  
C 1  37873313.032   -12973992.8432        443.701          38.750  
C 2  37353814.291   -14270947.7042        450.059          37.750  
C 4  38834327.340   -13025499.5522        420.703          36.250  
C13  36433725.699   -26678185.3542       1088.389          47.000  
C 5  39385335.799   -13933371.7022        446.035          35.500  
G15  21101678.838   -20552128.818        2836.367          43.000  
C16  36713611.801   -18932466.5562       1207.109          43.500  
C 6  36306188.654   -18659554.9032       1021.709          42.750  
C27  22554953.004   -26383460.3822       2001.641          49.750  
G29  21516791.528   -26271964.550        1487.051          46.250  
G30  24491028.452    -9506687.528         801.514          35.500  
C30  26803950.636      -84509.8032       3555.527          41.250  
G25  25751919.412    -3648233.8753      -1556.553          27.000  
G18  24800425.420    -5416399.520        3432.432          39.750  
> 2020  5 30 12 33 13.0000000  0 25                     
G 5  21440161.095   -22144737.464        -956.221          47.750  
C28  22156051.567   -32261013.2612      -1093.779          47.250  
G 2  21778144.661   -27271117.885        -610.166          43.250  
C14  25713475.675     -367669.3062      -2080.674          38.250  
G12  25733339.677    -6077255.839       -1681.289          27.500  
G 6  24457409.491   -10395573.170       -2114.600          32.750  
G 7  26008300.769      122372.255        -411.338          27.500  
C 3  36433779.865   -13599126.8532        411.045          41.250  
G13  20382219.309   -22331605.916        1173.711          45.750  
C 9  37772531.428    -7770415.9182       1516.982          36.500  
C 8  36494196.183   -20001713.8692        934.395          44.750  
C 1  37873227.840   -12974436.3812        443.584          38.750  
C 2  37353727.878   -14271397.6192        449.893          37.750  
C 4  38834246.615   -13025920.0322        420.537          36.250  
C13  36433516.681   -26679273.5592       1088.262          47.000  
C 5  39385250.258   -13933817.5692        445.840          35.500  
G15  21101139.312   -20554964.631        2835.723          43.000  
C16  36713380.027   -18933673.3882       1206.807          43.250  
C 6  36305992.444   -18660576.3582       1021.455          42.750  
C27  22554568.541   -26385461.5652       2001.084          49.750  
G29  21516508.799   -26273450.969        1486.270          46.500  
G30  24490875.972    -9507488.484         800.830          35.500  
C30  26803267.879      -88065.0822       3555.312          41.250  
G25  25752216.520    -3646677.3422      -1556.445          27.000  
G18  24799772.223    -5419831.772        3432.285          39.750  
> 2020  5 30 12 33 14.0000000  0 25                     
G 5  21440343.031   -22143780.868        -956.562          47.750  
C28  22156261.737   -32259918.8782      -1094.492          47.000  
G 2  21778260.984   -27270507.175        -610.791          43.250  
C14  25713875.355     -365588.4062      -2080.869          38.250  
G12  25733660.133    -6075574.355       -1681.348          27.500  
G 6  24457811.893   -10393458.194       -2114.951          33.000  
G 7  26008378.841      122784.277        -412.012          27.500  
C 3  36433700.920   -13599537.5782        410.762          41.250  
G13  20381995.981   -22332778.838        1172.764          45.750  
C 9  37772240.254    -7771932.6082       1516.768          36.500  
C 8  36494016.725   -20002647.9082        934.111          45.000  
C 1  37873142.648   -12974879.6732        443.281          38.750  
C 2  37353641.534   -14271847.2772        449.678          37.750  
C 4  38834165.855   -13026340.2882        420.361          36.250  
C13  36433307.871   -26680361.5372       1088.057          47.000  
C 5  39385164.647   -13934263.1862        445.596          35.500  
G15  21100599.926   -20557799.704        2834.951          43.000  
C16  36713148.323   -18934879.8242       1206.445          43.250  
C 6  36305796.548   -18661597.4132       1021.045          42.750  
C27  22554184.462   -26387462.0662       2000.430          50.000  
G29  21516226.176   -26274936.485        1485.410          46.500  
G30  24490723.911    -9508288.775         800.156          35.750  
C30  26802585.331      -91620.0512       3555.000          41.250  
G25  25752508.601    -3645120.5532      -1556.475          26.750  
G18  24799119.166    -5423263.877        3432.178          39.750  
> 2020  5 30 12 33 15.0000000  0 25                     
G 5  21440525.247   -22142823.982        -956.943          47.750  
C28  22156472.291   -32258823.8302      -1095.225          47.250  
G 2  21778376.958   -27269895.914        -611.396          43.250  
C14  25714274.895     -363507.3862      -2081.055          38.250  
G12  25733979.227    -6073893.001       -1681.318          27.250  
G 6  24458214.155   -10391342.784       -2115.508          33.250  
G 7  26008458.833      123196.941        -412.578          28.000  
C 3  36433622.150   -13599948.1372        410.488          41.250  
G13  20381772.793   -22333950.914        1171.855          45.750  
C 9  37771948.975    -7773449.0052       1516.318          36.500  
C 8  36493837.407   -20003581.7672        933.770          45.000  
C 1  37873057.456   -12975322.7862        443.096          38.750  
C 2  37353555.225   -14272296.7542        449.424          37.750  
C 4  38834085.270   -13026760.3672        420.020          36.250  
C13  36433099.132   -26681449.3372       1087.783          47.000  
C 5  39385079.106   -13934708.6482        445.381          35.500  
G15  21100060.470   -20560634.096        2834.248          43.000  
C16  36712917.003   -18936085.9132       1206.016          43.250  
C 6  36305600.582   -18662618.1332       1020.645          42.750  
C27  22553800.208   -26389461.9342       1999.707          49.750  
G29  21515943.692   -26276421.179        1484.453          46.500  
G30  24490571.431    -9509088.407         799.463          35.500  
C30  26801902.574      -95174.7372       3554.619          41.250  
G25  25752805.639    -3643563.7542      -1556.455          26.750  
G18  24798466.039    -5426695.914        3432.002          39.750  
> 2020  5 30 12 33 16.0000000  0 25                     
G 5  21440707.427   -22141866.890        -957.256          47.750  
C28  22156682.601   -32257728.2302      -1095.908          47.250  
G 2  21778493.525   -27269284.162        -612.012          43.250  
C14  25714674.575     -361426.3692      -2081.191          38.250  
G12  25734298.287    -6072211.817       -1681.260          27.000  
G 6  24458616.976   -10389227.049       -2116.084          33.250  
G 7  26008538.650      123610.160        -413.535          28.000  
C 3  36433543.345   -13600358.5882        410.303          41.250  
G13  20381549.883   -22335122.245        1170.977          45.500  
C 9  37771657.800    -7774965.2212       1516.045          36.500  
C 8  36493658.123   -20004515.5012        933.545          44.750  
C 1  37872972.264   -12975765.8152        442.900          38.750  
C 2  37353468.916   -14272746.1512        449.268          37.750  
C 4  38834004.755   -13027180.3862        419.727          36.500  
C13  36432890.253   -26682537.0782       1087.627          47.000  
C 5  39384993.670   -13935153.9892        445.205          35.500  
G15  21099521.188   -20563467.883        2833.506          43.000  
C16  36712685.334   -18937291.7702       1205.645          43.250  
C 6  36305404.651   -18663638.6552       1020.303          42.750  
C27  22553416.268   -26391461.2852       1999.072          49.750  
G29  21515661.277   -26277905.138        1483.613          46.500  
G30  24490419.405    -9509887.505         798.770          35.500  
C30  26801219.956      -98729.2702       3554.346          41.250  
G25  25753102.921    -3642006.9392      -1556.992          27.000  
G18  24797813.052    -5430127.930        3431.865          39.750  
> 2020  5 30 12 33 17.0000000  0 25                     
G 5  21440889.921   -22140909.344        -957.725          47.750  
C28  22156893.086   -32256631.8052      -1096.719          47.250  
G 2  21778610.058   -27268671.665        -612.764          43.250  
C14  25715074.150     -359345.0942      -2081.406          38.250  
G12  25734614.729    -6070530.485       -1681.553          26.750  
G 6  24459019.832   -10387110.739       -2116.455          33.250  
G 7  26008618.886      124024.120        -414.189          28.250  
C 3  36433464.435   -13600768.7162        409.971          41.250  
G13  20381327.149   -22336292.568        1169.961          45.500  
C 9  37771366.696    -7776480.9452       1515.635          36.500  
C 8  36493478.910   -20005448.8562        933.184          44.750  
C 1  37872887.281   -12976208.4962        442.549          38.750  
C 2  37353382.677   -14273195.1892        448.936          37.750  
C 4  38833924.240   -13027600.0372        419.600          36.250  
C13  36432681.199   -26683624.4952       1087.246          47.000  
C 5  39384908.094   -13935599.0152        444.834          35.500  
G15  21098982.151   -20566300.827        2832.627          43.000  
C16  36712453.700   -18938497.1492       1205.215          43.250  
C 6  36305208.720   -18664658.6592       1019.766          42.750  
C27  22553032.608   -26393459.8402       1998.291          49.750  
G29  21515379.177   -26279388.100        1482.588          46.500  
G30  24490267.518    -9510685.800         797.949          35.500  
C30  26800537.478     -102283.3762       3553.955          41.250  
G25  25753400.831    -3640449.8372      -1557.168          27.000  
G18  24797160.065    -5433559.691        3431.689          39.750  
> 2020  5 30 12 33 18.0000000  0 25                     
G 5  21441072.171   -22139951.648        -957.686          47.750  
C28  22157103.954   -32255534.8672      -1097.051          47.250  
G 2  21778726.835   -27268058.763        -612.969          43.250  
C14  25715473.900     -357263.8642      -2081.201          38.250  
G12  25734933.091    -6068849.478       -1681.133          26.250  
G 6  24459422.583   -10384994.146       -2116.660          33.000  
G 7  26008697.342      124438.574        -414.590          28.500  
C 3  36433385.595   -13601178.8022        410.146          41.250  
G13  20381104.554   -22337462.201        1169.463          45.500  
C 9  37771075.696    -7777996.5252       1515.557          36.750  
C 8  36493299.661   -20006382.1352        933.320          44.750  
C 1  37872802.264   -12976651.1512        442.686          38.750  
C 2  37353296.334   -14273644.2102        449.043          37.750  
C 4  38833843.655   -13028019.6632        419.756          36.500  
C13  36432472.564   -26684711.9012       1087.441          47.000  
C 5  39384822.728   -13936043.9712        444.902          35.500  
G15  21098443.323   -20569133.238        2832.314          43.000  
C16  36712222.275   -18939702.3342       1205.186          43.250  
C 6  36305012.893   -18665678.4982       1019.824          42.500  
C27  22552648.843   -26395457.9412       1998.018          49.750  
G29  21515097.007   -26280870.394        1482.139          46.500  
G30  24490115.527    -9511483.607         797.686          35.250  
C30  26799854.895     -105837.3512       3553.955          41.000  
G25  25753695.600    -3638892.9022      -1556.914          26.250  
G18  24796507.043    -5436991.514        3431.885          39.750  
> 2020  5 30 12 33 19.0000000  0 25                     
G 5  21441254.386   -22138993.876        -957.705          47.750  
C28  22157314.718   -32254437.4862      -1097.412          47.250  
G 2  21778843.437   -27267445.492        -613.262          43.250  
C14  25715873.335     -355182.7452      -2081.016          38.250  
G12  25735253.826    -6067168.657       -1680.547          25.750  
G 6  24459825.264   -10382877.370       -2116.797          33.250  
G 7  26008774.926      124853.489        -415.078          28.250  
C 3  36433306.859   -13601588.9132        410.215          41.000  
G13  20380882.099   -22338631.214        1168.916          45.500  
C 9  37770784.591    -7779512.0242       1515.586          36.500  
C 8  36493120.377   -20007315.4262        933.379          44.750  
C 1  37872717.316   -12977093.8582        442.832          38.750  
C 2  37353210.060   -14274093.2412        449.160          37.500  
C 4  38833763.174   -13028439.3002        419.766          36.250  
C13  36432263.650   -26685799.3412       1087.549          47.000  
C 5  39384737.291   -13936488.9792        445.059          35.500  
G15  21097904.286   -20571965.171        2831.885          42.750  
C16  36711990.850   -18940907.3762       1205.107          43.250  
C 6  36304816.893   -18666698.2032       1019.805          42.750  
C27  22552265.112   -26397455.6172       1997.666          49.750  
G29  21514815.046   -26282352.062        1481.562          46.500  
G30  24489963.535    -9512280.994         797.393          35.000  
C30  26799172.347     -109391.2792       3553.945          41.000  
G25  25753991.556    -3637336.451       -1556.611          26.250  
G18  24795853.672    -5440423.445        3432.119          39.750  
> 2020  5 30 12 33 20.0000000  0 25                     
G 5  21441436.846   -22138035.874        -958.096          48.000  
C28  22157525.761   -32253339.5192      -1098.154          47.250  
G 2  21778960.004   -27266831.718        -613.945          43.250  
C14  25716272.840     -353101.5832      -2081.201          38.250  
G12  25735573.235    -6065488.048       -1680.469          26.000  
G 6  24460228.085   -10380760.222       -2117.324          33.000  
G 7  26008854.324      125268.899        -415.488          28.000  
C 3  36433228.124   -13601998.9192        409.980          41.000  
G13  20380659.643   -22339799.449        1167.998          45.500  
C 9  37770493.557    -7781027.3202       1515.176          36.750  
C 8  36492941.233   -20008248.5922        933.086          44.750  
C 1  37872632.194   -12977536.4322        442.520          38.750  
C 2  37353123.821   -14274542.1602        448.857          37.750  
C 4  38833682.519   -13028858.8542        419.551          36.500  
C13  36432054.876   -26686886.6852       1087.295          47.000  
C 5  39384651.576   -13936933.8942        444.834          35.500  
G15  21097365.458   -20574796.506        2831.113          42.750  
C16  36711759.495   -18942112.1862       1204.746          43.250  
C 6  36304620.996   -18667717.6512       1019.365          42.750  
C27  22551881.696   -26399452.7492       1996.953          49.750  
G29  21514533.260   -26283832.982        1480.654          46.500  
G30  24489811.893    -9513077.808         796.602          35.000  
C30  26798489.660     -112945.0332       3553.701          41.000  
G25  25754288.000    -3635779.608       -1556.494          26.000  
G18  24795200.650    -5443855.342        3431.875          39.750  
> 2020  5 30 12 33 21.0000000  0 25                     
G 5  21441619.166   -22137077.772        -958.154          48.000  
C28  22157736.664   -32252241.0922      -1098.594          47.250  
G 2  21779076.956   -27266217.574        -614.355          43.250  
C14  25716672.485     -351020.5312      -2081.045          38.250  
G12  25735894.703    -6063807.711       -1680.381          26.500  
G 6  24460631.080   -10378642.872       -2117.383          32.750  
G 7  26008930.826      125684.780        -415.986          27.750  
C 3  36433149.249   -13602408.9282        409.990          41.000  
G13  20380437.153   -22340967.043        1167.354          45.500  
C 9  37770202.592    -7782542.5032       1515.059          36.500  
C 8  36492761.880   -20009181.7252        933.096          44.750  
C 1  37872547.211   -12977979.0412        442.539          38.750  
C 2  37353037.652   -14274991.0902        448.838          37.750  
C 4  38833602.004   -13029278.4072        419.492          36.250  
C13  36431845.857   -26687974.0412       1087.324          46.750  
C 5  39384566.175   -13937378.7862        444.834          35.500  
G15  21096826.596   -20577627.334        2830.654          42.750  
C16  36711528.036   -18943316.8352       1204.570          43.250  
C 6  36304425.380   -18668736.9962       1019.238          42.750  
C27  22551498.280   -26401449.4352       1996.523          49.750  
G29  21514251.614   -26285313.263        1480.029          46.500  
G30  24489660.320    -9513874.195         796.113          35.250  
C30  26797807.426     -116498.6812       3553.506          41.000  
G25  25754584.270    -3634222.752       -1556.816          26.250  
G18  24794547.593    -5447287.351        3432.002          39.500  
> 2020  5 30 12 33 22.0000000  0 25                     
G 5  21441801.521   -22136119.349        -958.555          48.000  
C28  22157947.917   -32251141.9632      -1099.365          47.250  
G 2  21779193.977   -27265602.828        -614.941          43.250  
C14  25717072.340     -348939.3322      -2081.270          38.250  
G12  25736215.089    -6062127.395       -1680.498          26.750  
G 6  24461033.831   -10376525.051       -2118.037          33.000  
G 7  26009008.410      126101.339        -416.807          27.750  
C 3  36433070.688   -13602818.7432        409.658          41.250  
G13  20380215.291   -22342133.757        1166.436          45.500  
C 9  37769911.697    -7784057.3982       1514.766          36.750  
C 8  36492582.631   -20010114.6082        932.744          44.750  
C 1  37872462.508   -12978421.4372        442.285          38.750  
C 2  37352951.517   -14275439.8342        448.584          37.500  
C 4  38833521.489   -13029697.7672        419.229          36.250  
C13  36431637.118   -26689061.2072       1087.070          47.000  
C 5  39384480.808   -13937823.4802        444.580          35.750  
G15  21096288.047   -20580457.463        2829.883          42.750  
C16  36711296.506   -18944521.1312       1204.111          43.250  
C 6  36304229.728   -18669755.9472       1018.818          42.500  
C27  22551115.038   -26403445.4852       1995.820          49.750  
G29  21513969.967   -26286792.687        1479.111          46.500  
G30  24489508.887    -9514669.912         795.498          35.250  
C30  26797124.983     -120052.0412       3553.232          41.000  
G25  25754880.470    -3632665.857       -1557.021          27.000  
G18  24793894.571    -5450719.241        3431.816          39.500  
> 2020  5 30 12 33 23.0000000  0 25                     
G 5  21441984.050   -22135160.642        -958.691          48.000  
C28  22158159.169   -32250042.2032      -1099.893          47.250  
G 2  21779311.138   -27264987.522        -615.391          43.000  
C14  25717471.915     -346858.0502      -2081.289          38.250  
G12  25736534.672    -6060447.219       -1680.117          27.000  
G 6  24461436.966   -10374406.799       -2118.340          33.000  
G 7  26009085.260      126518.456        -417.324          27.750  
C 3  36432992.023   -13603228.3832        409.648          41.250  
G13  20379993.289   -22343299.636        1165.713          45.500  
C 9  37769620.871    -7785571.9302       1514.492          36.750  
C 8  36492403.697   -20011047.2942        932.695          45.000  
C 1  37872377.491   -12978863.6492        442.246          38.750  
C 2  37352865.453   -14275888.3982        448.525          37.750  
C 4  38833441.183   -13030116.9302        419.121          36.500  
C13  36431428.378   -26690148.2342       1087.051          47.000  
C 5  39384395.232   -13938268.0252        444.678          35.500  
G15  21095749.673   -20583286.908        2829.297          42.750  
C16  36711065.151   -18945725.1102       1203.936          43.250  
C 6  36304033.936   -18670774.6062       1018.652          42.500  
C27  22550731.657   -26405440.9242       1995.342          49.750  
G29  21513688.775   -26288271.294        1478.438          46.500  
G30  24489357.524    -9515465.003         795.020          35.250  
C30  26796442.540     -123605.1692       3553.076          41.000  
G25  25755178.694    -3631108.842       -1556.992          27.500  
G18  24793241.688    -5454151.036        3431.875          39.500  
> 2020  5 30 12 33 24.0000000  0 25                     
G 5  21442166.544   -22134201.837        -958.828          48.000  
C28  22158370.282   -32248941.9782      -1100.342          47.250  
G 2  21779428.299   -27264371.846        -615.771          43.250  
C14  25717871.629     -344776.8742      -2081.143          38.250  
G12  25736855.651    -6058767.256       -1680.000          27.250  
G 6  24461840.276   -10372288.372       -2118.555          32.750  
G 7  26009166.369      126936.008        -417.764          28.000  
C 3  36432913.392   -13603638.0332        409.668          41.250  
G13  20379771.497   -22344464.871        1165.049          45.500  
C 9  37769329.976    -7787086.4382       1514.443          36.750  
C 8  36492224.693   -20011979.9462        932.666          44.750  
C 1  37872292.473   -12979305.8952        442.324          38.750  
C 2  37352779.284   -14276336.9602        448.525          37.750  
C 4  38833360.598   -13030536.1342        419.297          36.500  
C13  36431219.639   -26691235.2672       1087.051          47.000  
C 5  39384309.761   -13938712.5742        444.629          35.500  
G15  21095211.473   -20586115.880        2828.828          42.750  
C16  36710833.971   -18946928.9472       1203.809          43.250  
C 6  36303838.389   -18671793.1342       1018.496          42.750  
C27  22550348.485   -26407435.9312       1994.893          49.750  
G29  21513407.442   -26289749.268        1477.793          46.500  
G30  24489206.126    -9516259.655         794.502          35.000  
C30  26795760.306     -127158.2072       3553.037          41.000  
G25  25755479.850    -3629552.020       -1556.885          27.250  
G18  24792588.666    -5457582.940        3431.963          39.500  
> 2020  5 30 12 33 25.0000000  0 25                     
G 5  21442348.899   -22133243.231        -958.584          48.000  
C28  22158581.534   -32247841.5922      -1100.459          47.250  
G 2  21779545.494   -27263756.077        -615.811          43.250  
C14  25718271.414     -342696.0962      -2080.684          38.250  
G12  25737175.305    -6057087.976       -1679.062          27.250  
G 6  24462243.550   -10370170.012       -2118.301          33.000  
G 7  26009246.710      127353.731        -417.617          27.750  
C 3  36432834.866   -13604047.9902        410.049          41.250  
G13  20379549.705   -22345629.761        1164.775          45.250  
C 9  37769039.186    -7788601.1122       1514.648          36.750  
C 8  36492045.479   -20012912.8932        933.018          44.750  
C 1  37872207.456   -12979748.4382        442.627          38.500  
C 2  37352693.289   -14276785.8612        448.965          37.750  
C 4  38833279.978   -13030955.6382        419.473          36.250  
C13  36431010.830   -26692322.6492       1087.441          47.000  
C 5  39384224.325   -13939157.4142        444.941          35.500  
G15  21094673.134   -20588944.655        2828.701          42.750  
C16  36710602.685   -18948132.9372       1204.004          43.250  
C 6  36303642.667   -18672811.8182       1018.760          42.750  
C27  22549965.383   -26409430.8002       1994.805          49.750  
G29  21513126.284   -26291226.903        1477.549          46.500  
G30  24489054.833    -9517054.166         794.531          35.000  
C30  26795078.177     -130711.4752       3553.301          41.000  
G25  25755773.747    -3627995.487       -1556.035          27.250  
G18  24791935.435    -5461015.237        3432.373          39.500  
> 2020  5 30 12 33 26.0000000  0 25                     
G 5  21442531.533   -22132284.485        -958.838          48.000  
C28  22158793.066   -32246740.6882      -1101.055          47.500  
G 2  21779662.760   -27263139.892        -616.338          43.250  
C14  25718671.024     -340615.3632      -2080.771          38.250  
G12  25737496.179    -6055408.873       -1678.965          27.500  
G 6  24462646.511   -10368051.325       -2118.760          32.750  
G 7  26009327.609      127771.876        -418.301          28.500  
C 3  36432756.061   -13604457.9062        409.902          41.250  
G13  20379328.087   -22346793.961        1163.965          45.250  
C 9  37768748.430    -7790115.6902       1514.541          36.750  
C 8  36491866.475   -20013845.7552        932.793          44.750  
C 1  37872122.473   -12980190.9672        442.490          38.500  
C 2  37352606.945   -14277234.7012        448.770          37.500  
C 4  38833199.288   -13031375.1162        419.424          36.250  
C13  36430802.090   -26693410.0192       1087.324          47.000  
C 5  39384139.063   -13939602.2172        444.707          35.750  
G15  21094134.865   -20591772.895        2828.037          42.750  
C16  36710371.645   -18949336.7502       1203.711          43.250  
C 6  36303446.946   -18673830.3202       1018.467          42.500  
C27  22549582.525   -26411425.2072       1994.248          49.750  
G29  21512845.126   -26292703.861        1476.748          46.250  
G30  24488903.609    -9517848.178         793.955          35.000  
C30  26794395.664     -134264.6192       3553.086          41.000  
G25  25756069.667    -3626439.068       -1556.875          26.750  
G18  24791282.343    -5464447.576        3432.344          39.250  
> 2020  5 30 12 33 27.0000000  0 25                     
G 5  21442713.923   -22131325.409        -959.082          48.000  
C28  22159004.527   -32245639.0932      -1101.719          47.250  
G 2  21779780.235   -27262523.088        -616.924          43.250  
C14  25719070.983     -338534.4692      -2080.811          38.250  
G12  25737813.319    -6053729.786       -1678.984          27.750  
G 6  24463049.820   -10365932.219       -2119.170          33.000  
G 7  26009411.335      128190.830        -419.141          29.000  
C 3  36432677.465   -13604867.6282        409.746          41.000  
G13  20379106.713   -22347957.268        1163.135          45.250  
C 9  37768457.675    -7791629.8992       1514.160          36.500  
C 8  36491687.226   -20014778.3802        932.637          44.750  
C 1  37872037.595   -12980633.2802        442.373          38.750  
C 2  37352520.916   -14277683.3202        448.672          37.750  
C 4  38833118.598   -13031794.3812        419.336          36.250  
C13  36430593.281   -26694497.1592       1087.158          47.000  
C 5  39384053.662   -13940046.8572        444.639          35.750  
G15  21093596.770   -20594600.422        2827.422          42.750  
C16  36710140.673   -18950540.2012       1203.418          43.250  
C 6  36303251.468   -18674848.4582       1018.096          42.500  
C27  22549199.633   -26413418.9512       1993.652          49.750  
G29  21512564.282   -26294179.949        1475.918          46.250  
G30  24488752.874    -9518641.518         793.262          35.000  
C30  26793713.396     -137817.4682       3552.861          41.000  
G25  25756365.065    -3624882.542       -1556.670          27.000  
G18  24790629.147    -5467879.820        3432.324          39.250  
> 2020  5 30 12 33 28.0000000  0 25                     
G 5  21442896.452   -22130366.221        -959.111          48.000  
C28  22159216.268   -32244537.0182      -1102.119          47.500  
G 2  21779897.674   -27261905.893        -617.207          43.250  
C14  25719470.558     -336453.6772      -2080.664          38.000  
G12  25738133.426    -6052050.920       -1678.545          27.750  
G 6  24463453.164   -10363812.879       -2119.414          32.750  
G 7  26009493.142      128610.098        -419.404          29.250  
C 3  36432598.764   -13605277.3252        409.795          41.250  
G13  20378885.235   -22349119.904        1162.539          45.250  
C 9  37768166.954    -7793143.9822       1514.121          36.750  
C 8  36491508.152   -20015710.9592        932.646          44.750  
C 1  37871952.752   -12981075.5792        442.393          38.750  
C 2  37352434.642   -14278131.9532        448.789          37.500  
C 4  38833038.153   -13032213.6492        419.453          36.250  
C13  36430384.751   -26695584.3282       1087.266          47.000  
C 5  39383968.260   -13940491.4442        444.717          35.500  
G15  21093058.535   -20597427.417        2826.953          42.750  
C16  36709909.528   -18951743.4832       1203.340          43.250  
C 6  36303055.921   -18675866.4432       1018.057          42.500  
C27  22548816.635   -26415412.2482       1993.252          49.750  
G29  21512283.578   -26295655.391        1475.352          46.250  
G30  24488601.965    -9519434.372         792.832          35.250  
C30  26793031.057     -141370.2212       3552.783          41.000  
G25  25756662.835    -3623326.169       -1556.182          27.500  
G18  24789975.776    -5471312.110        3432.373          39.250  
> 2020  5 30 12 33 29.0000000  0 25                     
G 5  21443078.946   -22129407.186        -958.887          48.000  
C28  22159427.939   -32243434.7272      -1102.285          47.500  
G 2  21780015.010   -27261288.584        -617.266          43.250  
C14  25719870.133     -334373.2082      -2080.244          38.250  
G12  25738454.964    -6050372.700       -1678.027          28.000  
G 6  24463856.509   -10361693.558       -2119.170          32.750  
G 7  26009568.806      129029.603        -419.531          29.750  
C 3  36432520.134   -13605687.3042        410.244          41.250  
G13  20378664.001   -22350282.144        1162.188          45.250  
C 9  37767876.059    -7794658.2272       1514.492          37.000  
C 8  36491328.903   -20016643.7712        932.959          44.750  
C 1  37871867.840   -12981518.1662        442.773          38.750  
C 2  37352348.403   -14278580.8322        449.072          37.750  
C 4  38832957.358   -13032633.1792        419.727          36.500  
C13  36430175.837   -26696671.7512       1087.617          47.000  
C 5  39383882.824   -13940936.2902        445.088          35.500  
G15  21092520.685   -20600254.207        2826.787          42.750  
C16  36709678.522   -18952946.8782       1203.506          43.250  
C 6  36302860.688   -18676884.5662       1018.271          42.500  
C27  22548433.882   -26417405.3662       1993.164          49.750  
G29  21512002.944   -26297130.456        1475.049          46.500  
G30  24488451.020    -9520227.037         792.578          35.250  
C30  26792348.859     -144923.1552       3553.125          41.000  
G25  25756960.920    -3621770.016       -1555.879          27.500  
G18  24789322.300    -5474744.787        3432.803          39.250  
> 2020  5 30 12 33 30.0000000  0 25                     
G 5  21443261.650   -22128448.284        -958.945          48.000  
C28  22159639.750   -32242332.2152      -1102.666          47.500  
G 2  21780132.450   -27260671.123        -617.588          43.000  
C14  25720269.638     -332293.0612      -2080.107          38.000  
G12  25738772.628    -6048694.861       -1677.793          27.750  
G 6  24464259.923   -10359574.226       -2119.346          33.000  
G 7  26009650.787      129449.270        -419.990          29.750  
C 3  36432441.294   -13606097.5122        410.186          41.250  
G13  20378442.767   -22351443.987        1161.621          45.250  
C 9  37767585.164    -7796172.6222       1514.375          36.750  
C 8  36491149.689   -20017576.7842        933.018          44.750  
C 1  37871782.857   -12981960.9612        442.744          38.750  
C 2  37352262.059   -14279029.9592        449.092          37.500  
C 4  38832876.808   -13033052.9262        419.717          36.500  
C13  36429966.783   -26697759.4452       1087.666          47.000  
C 5  39383797.423   -13941381.4092        445.117          35.500  
G15  21091982.834   -20603080.724        2826.348          42.750  
C16  36709447.272   -18954150.3622       1203.389          43.250  
C 6  36302665.071   -18677902.7672       1018.105          42.500  
C27  22548051.164   -26419398.2792       1992.754          49.500  
G29  21511722.100   -26298605.106        1474.414          46.500  
G30  24488300.285    -9521019.533         792.295          35.250  
C30  26791666.625     -148476.2612       3553.008          40.750  
G25  25757257.748    -3620214.244       -1555.801          27.750  
G18  24788668.824    -5478177.770        3433.018          39.250  
> 2020  5 30 12 33 31.0000000  0 24                     
G 5  21443444.005   -22127489.406        -958.789          48.000  
C28  22159851.631   -32241229.3532      -1102.881          47.500  
G 2  21780250.134   -27260053.407        -617.695          43.000  
C14  25720668.830     -330213.1502      -2079.814          38.250  
G12  25739090.466    -6047017.538       -1677.061          28.000  
G 6  24464663.163   -10357454.820       -2119.336          33.250  
G 7  26009729.906      129869.306        -420.010          29.250  
C 3  36432362.349   -13606507.8752        410.547          41.000  
G13  20378221.743   -22352605.298        1161.250          45.250  
C 9  37767294.199    -7797687.0032       1514.453          36.750  
C 8  36490970.580   -20018509.9012        933.193          44.750  
C 1  37871697.630   -12982403.9302        443.086          38.750  
C 2  37352175.855   -14279479.2452        449.385          37.750  
C 4  38832796.223   -13033472.8202        420.000          36.250  
C13  36429757.869   -26698847.2792       1087.969          47.000  
C 5  39383711.777   -13941826.6382        445.391          35.500  
G15  21091444.774   -20605906.881        2826.182          42.750  
C16  36709216.021   -18955353.8462       1203.535          43.250  
C 6  36302469.315   -18678920.9772       1018.301          42.500  
C27  22547668.481   -26421390.8922       1992.598          49.500  
G29  21511441.815   -26300079.267        1474.092          46.500  
G30  24488149.585    -9521811.704         792.168          35.500  
C30  26790984.252     -152029.4082       3553.242          40.750  
G18  24788015.418    -5481610.988        3433.301          39.250  
> 2020  5 30 12 33 32.0000000  0 25                     
G 5  21443626.674   -22126530.403        -959.023          48.000  
C28  22160063.511   -32240125.9992      -1103.506          47.500  
G 2  21780367.574   -27259435.293        -618.252          43.000  
C14  25721068.125     -328133.2842      -2079.873          38.000  
G12  25739409.665    -6045340.378       -1677.041          27.750  
G 6  24465066.367   -10355335.151       -2119.746          33.250  
G 7  26009809.200      130289.759        -420.635          29.250  
C 3  36432283.334   -13606918.1932        410.264          41.250  
G13  20378000.963   -22353765.930        1160.410          45.250  
C 9  37767003.653    -7799201.3122       1514.277          36.750  
C 8  36490791.262   -20019442.9822        933.047          44.750  
C 1  37871612.473   -12982846.8582        442.949          38.750  
C 2  37352089.651   -14279928.4682        449.258          37.500  
C 4  38832715.568   -13033892.7182        419.922          36.500  
C13  36429549.060   -26699935.0822       1087.773          47.000  
C 5  39383626.236   -13942271.8622        445.244          35.500  
G15  21090907.133   -20608732.526        2825.479          42.750  
C16  36708985.225   -18956557.1482       1203.262          43.250  
C 6  36302273.942   -18679939.0042       1017.998          42.500  
C27  22547285.832   -26423383.0522       1992.012          49.500  
G29  21511161.285   -26301552.747        1473.271          46.500  
G30  24487998.955    -9522603.412         791.504          35.250  
C30  26790301.634     -155582.4532       3552.979          40.750  
G25  25757852.382    -3617102.8753      -1555.352          28.000  
G18  24787361.907    -5485044.256        3433.281          39.000  
> 2020  5 30 12 33 33.0000000  0 25                     
G 5  21443809.203   -22125571.307        -959.053          48.000  
C28  22160275.531   -32239022.1912      -1103.887          47.250  
G 2  21780485.293   -27258816.806        -618.525          43.000  
C14  25721467.456     -326053.5372      -2079.678          38.000  
G12  25739729.004    -6043663.527       -1676.650          28.000  
G 6  24465469.956   -10353215.251       -2119.971          33.250  
G 7  26009885.597      130710.659        -420.938          29.250  
C 3  36432204.564   -13607328.5422        410.420          41.250  
G13  20377780.497   -22354925.929        1159.873          45.250  
C 9  37766712.862    -7800715.4812       1514.189          36.500  
C 8  36490612.153   -20020376.0642        933.096          44.750  
C 1  37871527.351   -12983289.8202        443.018          38.750  
C 2  37352003.482   -14280377.7572        449.355          37.500  
C 4  38832635.053   -13034312.6512        419.980          36.250  
C13  36429340.006   -26701022.9282       1087.891          47.000  
C 5  39383540.939   -13942717.0892        445.205          35.500  
G15  21090369.806   -20611557.677        2825.039          42.750  
C16  36708753.940   -18957760.3302       1203.232          43.250  
C 6  36302078.570   -18680956.9162       1017.930          42.500  
C27  22546903.254   -26425374.7872       1991.650          49.500  
G29  21510881.104   -26303025.615        1472.725          46.500  
G30  24487848.359    -9523394.644         791.162          35.250  
C30  26789619.365     -159135.4372       3552.949          40.750  
G25  25758149.105    -3615547.5812      -1555.088          28.500  
G18  24786708.187    -5488477.656        3433.477          39.000  
> 2020  5 30 12 33 34.0000000  0 25                     
G 5  21443991.558   -22124612.043        -959.219          48.000  
C28  22160487.552   -32237917.8542      -1104.443          47.250  
G 2  21780602.838   -27258197.864        -619.033          43.000  
C14  25721866.961     -323973.8352      -2079.580          38.000  
G12  25740047.715    -6041986.869       -1676.582          28.250  
G 6  24465873.684   -10351095.054       -2120.312          33.250  
G 7  26009972.325      131132.070        -421.602          29.000  
C 3  36432125.549   -13607738.8552        410.371          41.250  
G13  20377559.647   -22356085.201        1159.160          45.250  
C 9  37766422.386    -7802229.5072       1514.121          36.750  
C 8  36490432.939   -20021309.0472        933.037          44.750  
C 1  37871442.473   -12983732.7422        442.949          38.750  
C 2  37351917.138   -14280826.9572        449.268          37.500  
C 4  38832554.642   -13034732.5032        419.932          36.250  
C13  36429131.197   -26702110.7582       1087.852          47.000  
C 5  39383455.364   -13943162.2602        445.283          35.500  
G15  21089831.885   -20614382.266        2824.492          42.750  
C16  36708523.003   -18958963.2942       1202.969          43.250  
C 6  36301883.057   -18681974.6232       1017.744          42.500  
C27  22546520.954   -26427366.0262       1991.152          49.500  
G29  21510601.028   -26304497.774        1472.002          46.500  
G30  24487697.973    -9524185.419         790.684          35.500  
C30  26788937.167     -162688.2972       3552.891          40.750  
G25  25758442.653    -3613992.2702      -1555.215          28.500  
G18  24786054.991    -5491911.088        3433.477          39.250  
> 2020  5 30 12 33 35.0000000  0 24                     
G 5  21444174.157   -22123652.622        -959.541          48.000  
C28  22160699.676   -32236813.0042      -1105.088          47.250  
G 2  21780720.557   -27257578.511        -619.570          43.000  
C14  25722266.188     -321894.1592      -2079.756          38.250  
G12  25740368.799    -6040310.462       -1676.523          28.500  
G 6  24466277.378   -10348974.584       -2120.586          33.000  
G 7  26010052.631      131553.941        -422.109          29.000  
C 3  36432046.919   -13608149.0962        410.146          41.000  
G13  20377339.565   -22357243.782        1158.311          45.500  
C 9  37766131.596    -7803743.3792       1513.838          36.750  
C 8  36490253.621   -20022241.9572        932.832          44.750  
C 1  37871357.107   -12984175.6272        442.803          38.750  
C 2  37351831.004   -14281276.1242        449.062          37.750  
C 4  38832473.917   -13035152.3362        419.678          36.250  
C13  36428922.283   -26703198.5562       1087.734          47.000  
C 5  39383369.892   -13943607.4352        445.078          35.500  
G15  21089294.523   -20617206.322        2823.809          42.750  
C16  36708291.893   -18960166.0642       1202.617          43.250  
C 6  36301687.615   -18682992.1272       1017.354          42.500  
C27  22546138.550   -26429356.7862       1990.537          49.500  
G29  21510320.813   -26305969.244        1471.201          46.500  
G30  24487547.937    -9524975.669         790.020          35.500  
C30  26788255.003     -166241.0022       3552.559          41.000  
G18  24785401.620    -5495344.547        3433.438          39.000  
> 2020  5 30 12 33 36.0000000  0 25                     
G 5  21444356.791   -22122692.942        -959.717          48.000  
C28  22160911.732   -32235707.5242      -1105.674          47.250  
G 2  21780838.590   -27256958.612        -619.971          43.000  
C14  25722665.658     -319814.3872      -2079.736          38.250  
G12  25740685.939    -6038634.135       -1676.455          28.750  
G 6  24466681.106   -10346853.744       -2120.908          33.250  
G 7  26010133.495      131976.412        -422.822          29.250  
C 3  36431968.218   -13608559.1992        410.088          41.000  
G13  20377119.273   -22358401.539        1157.559          45.500  
C 9  37765840.735    -7805256.9782       1513.545          36.500  
C 8  36490074.616   -20023174.6622        932.695          44.750  
C 1  37871272.194   -12984618.3512        442.734          38.750  
C 2  37351745.009   -14281725.1322        448.965          37.750  
C 4  38832393.123   -13035572.0082        419.668          36.500  
C13  36428713.299   -26704286.2362       1087.676          47.000  
C 5  39383284.456   -13944052.4342        445.078          35.500  
G15  21088757.231   -20620029.718        2823.223          42.750  
C16  36708061.271   -18961368.5422       1202.451          43.250  
C 6  36301492.312   -18684009.3592       1017.217          42.500  
C27  22545756.495   -26431346.9462       1990.020          49.500  
G29  21510040.841   -26307439.909        1470.459          46.500  
G30  24487397.690    -9525765.316         789.482          35.750  
C30  26787572.734     -169793.4872       3552.432          41.250  
G25  25759041.928    -3610881.3143      -1555.264          29.000  
G18  24784748.249    -5498777.962        3433.467          39.250  
> 2020  5 30 12 33 37.0000000  0 25                     
G 5  21444539.355   -22121733.015        -960.195          48.000  
C28  22161124.450   -32234601.4432      -1106.484          47.250  
G 2  21780956.624   -27256338.186        -620.781          43.000  
C14  25723064.919     -317734.6112      -2079.922          38.000  
G12  25741006.954    -6036957.998       -1676.211          28.750  
G 6  24467084.590   -10344732.518       -2121.494          33.250  
G 7  26010212.754      132399.448        -423.359          29.250  
C 3  36431889.797   -13608969.1892        409.795          41.250  
G13  20376899.400   -22359558.525        1156.543          45.500  
C 9  37765550.224    -7806770.3282       1513.018          36.750  
C 8  36489895.682   -20024107.1922        932.295          44.750  
C 1  37871187.281   -12985060.9562        442.354          38.500  
C 2  37351658.875   -14282174.0172        448.662          37.500  
C 4  38832312.747   -13035991.5482        419.346          36.250  
C13  36428504.350   -26705373.7912       1087.305          47.000  
C 5  39383198.985   -13944497.2942        444.600          35.750  
G15  21088220.044   -20622852.500        2822.432          42.750  
C16  36707830.230   -18962570.7322       1201.875          43.250  
C 6  36301296.939   -18685026.3012       1016.592          42.500  
C27  22545374.370   -26433336.5372       1989.238          49.500  
G29  21509761.045   -26308909.805        1469.463          46.500  
G30  24487247.618    -9526554.387         788.691          35.750  
C30  26786890.675     -173345.7652       3552.002          41.250  
G25  25759334.149    -3609326.0092      -1555.088          29.000  
G18  24784094.982    -5502211.318        3433.154          39.000  
> 2020  5 30 12 33 38.0000000  0 25                     
G 5  21444722.303   -22120772.696        -960.371          48.000  
C28  22161336.679   -32233494.6132      -1107.002          47.250  
G 2  21781074.727   -27255717.076        -621.240          43.000  
C14  25723464.250     -315654.6032      -2080.000          38.250  
G12  25741326.502    -6035281.804       -1676.035          29.000  
G 6  24467488.318   -10342610.782       -2121.953          33.500  
G 7  26010295.014      132823.211        -423.887          29.500  
C 3  36431811.166   -13609378.8812        409.629          41.000  
G13  20376679.493   -22360714.559        1155.820          45.500  
C 9  37765260.027    -7808283.3082       1512.939          36.750  
C 8  36489716.712   -20025039.4182        932.217          44.750  
C 1  37871102.229   -12985503.2702        442.266          38.750  
C 2  37351572.741   -14282622.6102        448.623          37.500  
C 4  38832232.162   -13036410.8232        419.297          36.500  
C13  36428295.645   -26706461.0702       1087.266          47.000  
C 5  39383113.514   -13944941.9102        444.609          35.500  
G15  21087682.926   -20625674.481        2821.787          42.500  
C16  36707599.677   -18963772.4952       1201.660          43.250  
C 6  36301101.811   -18686042.8392       1016.445          42.500  
C27  22544992.385   -26435325.4052       1988.721          49.500  
G29  21509481.318   -26310378.774        1468.740          46.250  
G30  24487097.791    -9527342.707         788.193          35.750  
C30  26786208.546     -176897.6542       3551.865          41.250  
G25  25759629.686    -3607770.5152      -1555.527          29.000  
G18  24783441.576    -5505644.468        3433.115          39.250  
> 2020  5 30 12 33 39.0000000  0 25                     
G 5  21444904.832   -22119812.198        -960.586          48.000  
C28  22161549.048   -32232387.2202      -1107.607          47.250  
G 2  21781193.179   -27255095.510        -621.748          43.000  
C14  25723863.511     -313574.6152      -2079.980          38.000  
G12  25741645.771    -6033605.781       -1676.055          29.500  
G 6  24467892.116   -10340488.709       -2122.217          33.500  
G 7  26010369.771      133247.517        -424.531          29.500  
C 3  36431732.361   -13609788.5062        409.541          41.000  
G13  20376459.725   -22361869.864        1155.039          45.500  
C 9  37764969.411    -7809796.0962       1512.666          36.500  
C 8  36489537.568   -20025971.5512        932.070          44.750  
C 1  37871017.316   -12985945.5392        442.158          38.750  
C 2  37351486.502   -14283071.1482        448.438          37.750  
C 4  38832151.577   -13036830.0002        419.043          36.500  
C13  36428086.906   -26707548.2992       1087.197          47.000  
C 5  39383028.043   -13945386.4032        444.521          35.500  
G15  21087145.878   -20628495.899        2821.221          42.500  
C16  36707368.567   -18964974.0392       1201.445          43.250  
C 6  36300906.369   -18687059.1412       1016.191          42.500  
C27  22544610.609   -26437313.7592       1988.145          49.500  
G29  21509202.079   -26311847.018        1467.988          46.500  
G30  24486948.242    -9528130.493         787.568          35.750  
C30  26785526.382     -180449.4152       3551.680          41.500  
G25  25759930.179    -3606215.0982      -1555.498          29.250  
G18  24782788.345    -5509077.674        3433.203          39.500  
> 2020  5 30 12 33 40.0000000  0 25                     
G 5  21445087.606   -22118851.763        -960.391          48.000  
C28  22161761.906   -32231279.5412      -1107.764          47.250  
G 2  21781311.456   -27254473.747        -621.816          43.000  
C14  25724262.807     -311494.8992      -2079.619          38.000  
G12  25741965.599    -6031930.246       -1675.488          29.000  
G 6  24468296.193   -10338366.600       -2122.217          33.500  
G 7  26010454.788      133672.081        -424.688          29.750  
C 3  36431653.696   -13610198.3232        409.912          41.250  
G13  20376240.271   -22363024.685        1154.707          45.500  
C 9  37764678.830    -7811308.9612       1512.842          36.750  
C 8  36489358.390   -20026903.8402        932.324          44.750  
C 1  37870932.473   -12986387.9762        442.441          38.750  
C 2  37351400.088   -14283519.8612        448.760          38.000  
C 4  38832071.027   -13037249.4222        419.551          36.250  
C13  36427878.097   -26708635.7052       1087.500          47.000  
C 5  39382942.711   -13945831.0972        444.736          35.500  
G15  21086608.970   -20631317.005        2821.016          42.500  
C16  36707137.910   -18966175.6172       1201.631          43.250  
C 6  36300711.136   -18688075.4862       1016.348          42.500  
C27  22544228.764   -26439301.8582       1988.037          49.500  
G29  21508923.015   -26313314.802        1467.666          46.500  
G30  24486798.450    -9528918.012         787.480          35.750  
C30  26784844.078     -184001.2532       3551.895          41.500  
G25  25760222.819    -3604659.8632      -1555.205          28.750  
G18  24782135.114    -5512511.124        3433.574          39.500  
> 2020  5 30 12 33 41.0000000  0 25                     
G 5  21445270.310   -22117891.150        -960.742          48.000  
C28  22161974.520   -32230171.3262      -1108.447          47.000  
G 2  21781429.804   -27253851.525        -622.422          43.000  
C14  25724662.172     -309415.1792      -2079.795          38.000  
G12  25742282.669    -6030254.873       -1675.410          29.000  
G 6  24468700.340   -10336244.214       -2122.588          34.000  
G 7  26010534.990      134097.142        -425.342          29.750  
C 3  36431575.135   -13610608.0652        409.668          41.250  
G13  20376020.922   -22364178.772        1153.770          45.500  
C 9  37764388.040    -7812821.6332       1512.578          36.500  
C 8  36489179.490   -20027836.0272        932.080          44.750  
C 1  37870847.770   -12986830.3542        442.285          38.750  
C 2  37351313.989   -14283968.5152        448.496          37.750  
C 4  38831990.581   -13037668.7242        419.277          36.500  
C13  36427669.357   -26709723.0542       1087.275          47.000  
C 5  39382857.414   -13946275.7122        444.492          35.500  
G15  21086072.166   -20634137.522        2820.273          42.500  
C16  36706907.253   -18967376.9582       1201.211          43.250  
C 6  36300516.007   -18689091.6182       1016.006          42.500  
C27  22543846.953   -26441289.4442       1987.363          49.500  
G29  21508643.672   -26314781.861        1466.768          46.500  
G30  24486648.831    -9529705.008         786.885          35.500  
C30  26784162.159     -187552.9332       3551.582          41.500  
G25  25760524.324    -3603104.7032      -1555.156          28.500  
G18  24781481.708    -5515944.569        3433.301          39.250  
> 2020  5 30 12 33 42.0000000  0 25                     
G 5  21445453.118   -22116930.288        -960.957          48.000  
C28  22162187.308   -32229062.4862      -1109.062          47.000  
G 2  21781548.500   -27253228.769        -622.930          43.000  
C14  25725061.712     -307335.4002      -2079.834          38.000  
G12  25742605.324    -6028579.592       -1675.273          29.000  
G 6  24469104.662   -10334121.397       -2122.949          34.000  
G 7  26010612.155      134522.860        -425.791          30.000  
C 3  36431496.469   -13611017.6622        409.531          41.000  
G13  20375801.258   -22365332.064        1153.008          45.500  
C 9  37764097.633    -7814334.0362       1512.275          36.500  
C 8  36489000.451   -20028768.0442        931.924          44.750  
C 1  37870762.682   -12987272.5892        442.129          38.750  
C 2  37351227.820   -14284417.0102        448.408          37.750  
C 4  38831910.136   -13038087.9052        419.102          36.250  
C13  36427460.478   -26710810.2772       1087.129          47.000  
C 5  39382771.908   -13946720.2212        444.414          35.500  
G15  21085535.467   -20636957.415        2819.658          42.750  
C16  36706676.526   -18968578.0122       1200.938          43.250  
C 6  36300321.053   -18690107.4672       1015.732          42.500  
C27  22543465.212   -26443276.4412       1986.797          49.500  
G29  21508364.783   -26316248.141        1466.016          46.500  
G30  24486499.318    -9530491.411         786.191          35.750  
C30  26783480.204     -191104.3962       3551.387          41.500  
G25  25760812.532    -3601549.6042      -1554.941          28.500  
G18  24780828.302    -5519378.019        3433.398          39.500  
> 2020  5 30 12 33 43.0000000  0 25                     
G 5  21445635.927   -22115969.188        -961.143          48.000  
C28  22162400.410   -32227953.0492      -1109.580          47.000  
G 2  21781667.127   -27252605.494        -623.340          43.000  
C14  25725461.253     -305255.5932      -2079.775          38.000  
G12  25742927.629    -6026904.508       -1675.127          29.750  
G 6  24469508.844   -10331998.246       -2123.213          34.000  
G 7  26010698.777      134949.098        -426.514          30.000  
C 3  36431417.769   -13611427.1432        409.482          41.250  
G13  20375581.979   -22366484.576        1152.305          45.500  
C 9  37763807.087    -7815846.2512       1512.158          36.500  
C 8  36488821.516   -20029699.9052        931.865          44.750  
C 1  37870677.770   -12987714.7172        442.178          38.750  
C 2  37351141.581   -14284865.3972        448.311          37.750  
C 4  38831829.620   -13038506.9552        418.916          36.250  
C13  36427251.424   -26711897.4122       1087.148          47.000  
C 5  39382686.472   -13947164.6122        444.385          35.500  
G15  21084999.257   -20639776.668        2819.131          42.750  
C16  36706446.078   -18969778.7902       1200.693          43.250  
C 6  36300125.681   -18691123.0372       1015.508          42.500  
C27  22543083.645   -26445262.8802       1986.299          49.500  
G29  21508085.893   -26317713.645        1465.312          46.500  
G30  24486349.665    -9531277.218         785.674          35.500  
C30  26782798.215     -194655.6532       3551.240          41.500  
G25  25761111.629    -3599994.317       -1555.098          28.250  
G18  24780175.000    -5522811.400        3433.379          39.500  
> 2020  5 30 12 33 44.0000000  0 25                     
G 5  21445818.980   -22115007.929        -961.387          48.000  
C28  22162613.372   -32226843.0882      -1110.215          47.000  
G 2  21781785.858   -27251981.782        -623.926          43.000  
C14  25725860.793     -303175.8162      -2079.727          38.000  
G12  25743242.222    -6025229.624       -1675.010          29.500  
G 6  24469912.851   -10329874.829       -2123.545          34.000  
G 7  26010777.199      135375.803        -427.021          30.500  
C 3  36431339.138   -13611836.5792        409.385          41.250  
G13  20375362.664   -22367636.384        1151.514          45.250  
C 9  37763516.681    -7817358.2982       1511.992          36.500  
C 8  36488642.547   -20030631.6982        931.709          44.750  
C 1  37870592.927   -12988156.7882        442.021          38.750  
C 2  37351055.342   -14285313.7342        448.164          37.750  
C 4  38831748.930   -13038926.0192        418.994          36.250  
C13  36427042.720   -26712984.4772       1086.982          47.000  
C 5  39382601.210   -13947608.9052        444.355          35.500  
G15  21084463.081   -20642595.377        2818.438          42.750  
C16  36706215.421   -18970979.3802       1200.479          43.250  
C 6  36299930.692   -18692138.4202       1015.215          42.500  
C27  22542702.602   -26447248.8302       1985.732          49.500  
G29  21507807.074   -26319178.446        1464.502          46.500  
G30  24486200.012    -9532062.571         785.146          35.500  
C30  26782116.156     -198206.7582       3550.996          41.500  
G25  25761409.923    -3598439.126       -1555.146          28.000  
G18  24779521.629    -5526244.841        3433.359          39.250  
> 2020  5 30 12 33 45.0000000  0 25                     
G 5  21446001.928   -22114046.594        -961.211          48.000  
C28  22162826.474   -32225732.6862      -1110.410          47.000  
G 2  21781904.694   -27251357.721        -624.023          43.000  
C14  25726260.193     -301096.1242      -2079.502          38.000  
G12  25743559.990    -6023555.008       -1674.365          29.500  
G 6  24470317.243   -10327751.186       -2123.594          33.750  
G 7  26010861.204      135802.962        -427.217          31.250  
C 3  36431260.542   -13612246.0322        409.648          41.250  
G13  20375143.874   -22368787.542        1151.094          45.500  
C 9  37763226.134    -7818870.2362       1512.002          36.500  
C 8  36488463.542   -20031563.4732        931.924          44.750  
C 1  37870507.874   -12988598.8912        442.314          38.750  
C 2  37350969.138   -14285762.0922        448.408          37.750  
C 4  38831668.380   -13039345.0402        419.180          36.500  
C13  36426833.771   -26714071.6052       1087.295          47.000  
C 5  39382515.774   -13948053.2432        444.502          35.500  
G15  21083926.766   -20645413.608        2818.232          42.750  
C16  36705984.974   -18972179.8352       1200.518          43.250  
C 6  36299735.773   -18693153.6932       1015.371          42.500  
C27  22542321.350   -26449234.3582       1985.557          49.500  
G29  21507528.638   -26320642.639        1464.102          46.500  
G30  24486050.429    -9532847.450         784.951          35.250  
C30  26781434.061     -201757.8302       3551.191          41.500  
G25  25761707.170    -3596884.076       -1554.795          28.500  
G18  24778868.468    -5529678.360        3433.701          39.000  
> 2020  5 30 12 33 46.0000000  0 25                     
G 5  21446184.876   -22113085.296        -961.309          48.000  
C28  22163039.786   -32224621.9632      -1110.811          47.000  
G 2  21782023.774   -27250733.426        -624.365          43.000  
C14  25726659.524     -299016.7072      -2079.375          38.250  
G12  25743880.970    -6021880.840       -1674.033          29.500  
G 6  24470721.285   -10325627.421       -2123.799          33.750  
G 7  26010943.744      136230.453        -427.578          31.000  
C 3  36431181.911   -13612655.6352        409.619          41.250  
G13  20374924.908   -22369938.224        1150.508          45.500  
C 9  37762935.693    -7820382.2462       1512.021          36.500  
C 8  36488284.364   -20032495.3652        931.924          44.750  
C 1  37870422.752   -12989041.1362        442.246          38.750  
C 2  37350883.003   -14286210.6062        448.574          37.750  
C 4  38831587.935   -13039764.2292        419.219          36.250  
C13  36426625.066   -26715158.8892       1087.324          47.000  
C 5  39382430.442   -13948497.7722        444.512          35.750  
G15  21083390.382   -20648231.496        2817.744          42.750  
C16  36705754.631   -18973380.3182       1200.488          43.250  
C 6  36299540.924   -18694168.9642       1015.254          42.500  
C27  22541940.063   -26451219.5972       1985.107          49.500  
G29  21507250.133   -26322106.338        1463.545          46.500  
G30  24485900.985    -9533632.046         784.502          35.250  
C30  26780752.281     -205308.9672       3551.162          41.500  
G25  25762002.218    -3595329.277       -1554.736          28.250  
G18  24778214.992    -5533112.138        3433.818          39.000  
> 2020  5 30 12 33 47.0000000  0 25                     
G 5  21446367.754   -22112123.585        -961.973          47.750  
C28  22163253.167   -32223510.4552      -1111.855          46.750  
G 2  21782142.680   -27250108.420        -625.352          43.000  
C14  25727058.785     -296937.0622      -2079.824          38.000  
G12  25744199.436    -6020206.639       -1674.287          29.500  
G 6  24471125.537   -10323503.126       -2124.590          34.000  
G 7  26011023.421      136658.610        -428.408          31.000  
C 3  36431103.281   -13613064.9482        409.062          41.250  
G13  20374706.013   -22371087.917        1149.268          45.500  
C 9  37762645.286    -7821893.8152       1511.357          36.500  
C 8  36488105.394   -20033426.9022        931.260          44.750  
C 1  37870337.944   -12989483.1062        441.748          38.750  
C 2  37350796.799   -14286658.8232        448.047          37.750  
C 4  38831507.594   -13040183.1442        418.701          36.250  
C13  36426416.397   -26716245.9222       1086.797          47.000  
C 5  39382345.076   -13948941.9492        444.004          35.750  
G15  21082854.416   -20651048.571        2816.680          42.500  
C16  36705524.218   -18974580.3172       1199.717          43.250  
C 6  36299345.970   -18695183.7762       1014.551          42.500  
C27  22541559.055   -26453204.0982       1984.170          49.500  
G29  21506971.592   -26323569.083        1462.314          46.500  
G30  24485751.995    -9534415.870         783.467          35.250  
C30  26780070.362     -208859.6912       3550.527          41.500  
G25  25762297.057    -3593774.311       -1554.727          28.250  
G18  24777561.621    -5536545.700        3433.301          39.000  
> 2020  5 30 12 33 48.0000000  0 25                     
G 5  21446550.772   -22111161.502        -962.148          47.750  
C28  22163466.583   -32222398.2102      -1112.422          46.750  
G 2  21782261.725   -27249482.764        -625.811          43.000  
C14  25727458.290     -294857.2182      -2079.873          38.000  
G12  25744512.144    -6018532.362       -1674.170          29.000  
G 6  24471529.823   -10321378.342       -2124.902          33.750  
G 7  26011104.635      137087.532        -429.180          31.000  
C 3  36431024.790   -13613474.0012        409.014          41.250  
G13  20374487.047   -22372236.685        1148.545          45.500  
C 9  37762355.020    -7823405.0232       1511.123          36.500  
C 8  36487926.774   -20034358.1532        931.221          44.750  
C 1  37870252.996   -12989924.8062        441.699          38.750  
C 2  37350710.805   -14287106.7432        447.832          37.750  
C 4  38831427.253   -13040601.7842        418.613          36.250  
C13  36426207.832   -26717332.6832       1086.748          47.000  
C 5  39382259.744   -13949385.8672        443.799          35.500  
G15  21082318.310   -20653864.857        2816.094          42.750  
C16  36705293.771   -18975779.9212       1199.521          43.500  
C 6  36299151.121   -18696198.2072       1014.307          42.500  
C27  22541177.942   -26455187.8862       1983.633          49.500  
G29  21506693.645   -26325030.914        1461.582          46.500  
G30  24485602.970    -9535198.996         783.066          35.250  
C30  26779388.617     -212410.0862       3550.293          41.500  
G25  25762592.594    -3592219.210       -1554.854          28.000  
G18  24776908.075    -5539979.080        3433.408          39.000  
> 2020  5 30 12 33 49.0000000  0 25                     
G 5  21446733.790   -22110199.145        -962.422          47.750  
C28  22163680.139   -32221285.3362      -1113.066          46.750  
G 2  21782380.910   -27248856.571        -626.338          43.000  
C14  25727857.726     -292777.3222      -2079.941          38.000  
G12  25744833.123    -6016858.317       -1673.896          29.000  
G 6  24471934.215   -10319253.178       -2125.312          34.000  
G 7  26011186.057      137517.047        -429.639          30.500  
C 3  36430946.229   -13613882.8702        408.848          41.000  
G13  20374268.745   -22373384.647        1147.744          45.250  
C 9  37762064.578    -7824915.9502       1510.889          36.250  
C 8  36487748.014   -20035289.2112        931.016          44.750  
C 1  37870168.119   -12990366.3382        441.475          38.750  
C 2  37350624.845   -14287554.5382        447.715          37.500  
C 4  38831347.052   -13041020.2612        418.350          36.250  
C13  36425999.127   -26718419.2922       1086.621          46.750  
C 5  39382174.657   -13949829.6622        443.750          35.500  
G15  21081782.519   -20656680.520        2815.479          42.500  
C16  36705063.498   -18976979.2102       1199.277          43.250  
C 6  36298956.342   -18697212.3392       1014.053          42.500  
C27  22540796.934   -26457171.0642       1982.988          49.500  
G29  21506415.489   -26326491.950        1460.830          46.500  
G30  24485453.875    -9535981.469         782.256          35.250  
C30  26778706.837     -215960.2342       3550.039          41.500  
G25  25762887.851    -3590663.891       -1555.059          28.500  
G18  24776254.739    -5543412.398        3433.369          39.000  
> 2020  5 30 12 33 50.0000000  0 25                     
G 5  21446916.982   -22109236.735        -962.383          48.000  
C28  22163893.939   -32220172.0342      -1113.418          46.750  
G 2  21782500.200   -27248230.027        -626.650          43.000  
C14  25728257.092     -290697.5312      -2079.697          38.000  
G12  25745150.927    -6015184.465       -1673.477          28.750  
G 6  24472338.362   -10317127.794       -2125.430          34.250  
G 7  26011270.063      137946.978        -430.029          30.750  
C 3  36430867.773   -13614291.8012        408.936          41.250  
G13  20374050.617   -22374531.990        1147.178          45.250  
C 9  37761774.486    -7826426.8282       1510.898          36.250  
C 8  36487569.289   -20036220.2902        931.074          44.750  
C 1  37870083.241   -12990807.9372        441.650          38.750  
C 2  37350538.815   -14288002.3942        447.910          37.500  
C 4  38831266.606   -13041438.8002        418.545          36.500  
C13  36425790.422   -26719505.9662       1086.709          46.750  
C 5  39382089.395   -13950273.4752        443.848          35.500  
G15  21081246.937   -20659495.719        2815.088          42.500  
C16  36704833.225   -18978178.3902       1199.160          43.250  
C 6  36298761.493   -18698226.3472       1014.053          42.500  
C27  22540416.100   -26459153.8672       1982.676          49.500  
G29  21506137.681   -26327952.367        1460.234          46.500  
G30  24485305.025    -9536763.540         781.963          35.250  
C30  26778025.127     -219510.3482       3550.146          41.500  
G25  25763182.341    -3589108.804       -1555.000          28.750  
G18  24775601.403    -5546845.834        3433.516          39.000  
> 2020  5 30 12 33 51.0000000  0 25                     
G 5  21447100.175   -22108274.036        -962.764          48.000  
C28  22164107.669   -32219058.0862      -1114.141          46.750  
G 2  21782619.594   -27247602.943        -627.256          43.000  
C14  25728656.562     -288617.6612      -2079.883          38.000  
G12  25745467.159    -6013510.792       -1673.574          28.750  
G 6  24472742.927   -10315002.018       -2125.918          34.000  
G 7  26011349.356      138377.478        -430.703          30.750  
C 3  36430788.967   -13614700.5862        408.721          41.250  
G13  20373832.315   -22375678.505        1146.279          45.250  
C 9  37761484.149    -7827937.4202       1510.547          36.250  
C 8  36487390.354   -20037151.1922        930.850          44.750  
C 1  37869998.502   -12991249.3862        441.416          38.750  
C 2  37350452.925   -14288450.0562        447.617          37.750  
C 4  38831186.126   -13041857.1832        418.408          36.500  
C13  36425581.753   -26720592.4812       1086.465          47.000  
C 5  39382004.378   -13950717.1452        443.691          35.500  
G15  21080711.320   -20662310.240        2814.307          42.500  
C16  36704602.847   -18979377.2472       1198.760          43.250  
C 6  36298566.713   -18699240.0552       1013.633          42.500  
C27  22540035.372   -26461136.0562       1981.992          49.500  
G29  21505859.665   -26329411.995        1459.443          46.500  
G30  24485156.210    -9537545.038         781.338          35.250  
C30  26777343.312     -223060.2092       3549.775          41.500  
G25  25763479.623    -3587553.656       -1555.107          29.250  
G18  24774947.892    -5550279.186        3433.340          39.250  
> 2020  5 30 12 33 52.0000000  0 25                     
G 5  21447283.367   -22107311.256        -962.871          48.000  
C28  22164321.679   -32217943.6882      -1114.600          46.750  
G 2  21782738.884   -27246975.469        -627.617          43.250  
C14  25729056.032     -286537.9042      -2079.746          38.000  
G12  25745788.558    -6011837.351       -1673.379          28.500  
G 6  24473147.738   -10312876.029       -2126.172          34.250  
G 7  26011430.640      138808.427        -431.113          30.500  
C 3  36430710.441   -13615109.3842        408.730          41.250  
G13  20373613.804   -22376824.376        1145.635          45.250  
C 9  37761194.196    -7829447.9282       1510.381          36.250  
C 8  36487211.594   -20038082.0572        930.811          44.750  
C 1  37869913.625   -12991690.8302        441.387          38.750  
C 2  37350366.896   -14288897.7312        447.588          37.750  
C 4  38831105.855   -13042275.5592        418.311          36.500  
C13  36425372.908   -26721679.0302       1086.533          47.000  
C 5  39381919.151   -13951160.8282        443.623          35.500  
G15  21080175.598   -20665124.265        2813.838          42.500  
C16  36704372.713   -18980575.9762       1198.652          43.250  
C 6  36298372.248   -18700253.6392       1013.477          42.500  
C27  22539655.061   -26463117.8212       1981.592          49.500  
G29  21505582.136   -26330870.978        1458.750          46.500  
G30  24485007.604    -9538326.070         780.898          35.000  
C30  26776661.601     -226610.0072       3549.766          41.500  
G25  25763775.439    -3585998.580       -1555.029          29.250  
G18  24774294.556    -5553712.631        3433.428          39.000  
