     3.02           OBSERVATION DATA    M: Mixed            RINEX VERSION / TYPE
RTKCONV 2.4.3 b33                       20200602 075904 UTC PGM / RUN BY / DATE 
log: D:\Documents\Visual Studio 2019\rtklib_portToVS\rtkli  COMMENT             
format: u-blox                                              COMMENT             
                                                            MARKER NAME         
                                                            MARKER NUMBER       
                                                            MARKER TYPE         
                                                            OBSERVER / AGENCY   
                                                            REC # / TYPE / VERS 
                                                            ANT # / TYPE        
 -2191134.8614  5198844.7848  2965373.6828                  APPROX POSITION XYZ 
        0.0000        0.0000        0.0000                  ANTENNA: DELTA H/E/N
G    4 C1C L1C D1C S1C                                      SYS / # / OBS TYPES 
C    4 C1I L1I D1I S1I                                      SYS / # / OBS TYPES 
  2020     5    30    12    31    5.0000000     GPS         TIME OF FIRST OBS   
  2020     5    30    12    44    5.9990000     GPS         TIME OF LAST OBS    
G                                                           SYS / PHASE SHIFT   
C                                                           SYS / PHASE SHIFT   
  0                                                         GLONASS SLOT / FRQ #
 C1C    0.000 C1P    0.000 C2C    0.000 C2P    0.000        GLONASS COD/PHS/BIS 
                                                            END OF HEADER       
> 2020  5 30 12 31  5.0000000  0 24                     
G 2  21641615.762   113727459.159         176.875          45.000  
G 5  21294777.189   111904807.679        -204.069          48.000  
G13  20289561.759   106622372.900        1995.415          46.000  
G29  21431446.492   112623010.027        2306.006          46.000  
G 6  24284007.445   127613315.078       -1346.589          37.000  
G15  21048716.834   110611753.871        3636.854          43.000  
G30  24388812.999   128164077.449        1595.525          38.000  
C 6  36209062.173   188550088.603        1770.811          44.000  
C 8  36394944.789   189518029.967        1669.268          46.000  
C13  36337977.367   189221383.897        1817.164          47.000  
C14  25539935.005   132993134.957       -1360.044          41.000  
C16  36621014.070   190695237.817        1957.005          44.000  
C27  22482178.791   117070606.716        2787.679          50.000  
C28  22007646.818   114599590.762        -301.783          47.000  
C 4  38722311.111   201637232.372        1150.934          38.000  
C 1  37761856.711   196635900.452        1174.130          41.000  
C 3  36321615.415   189136185.701        1141.943          42.000  
C 2  37242524.236   193931594.053        1181.032          38.000  
C25  26553466.755   138270866.139        3155.418          37.000  
G18  24760972.048   130119784.024        4158.288          40.000  
G12  25569722.143   134369807.240        -976.312          31.000  
G25  25591914.038   134486365.540        -829.886          33.000  
C 5  39273948.093   204509752.7851       1176.660          36.000  
C 9  37687727.872   196249903.923        2261.963          37.000  
> 2020  5 30 12 31  6.0000000  0 24                     
G 2  21641582.118   113727282.540         176.240          45.000  
G 5  21294815.894   111905011.951        -204.478          48.000  
G13  20289181.937   106620377.911        1994.457          46.000  
G29  21431007.723   112620704.436        2305.197          46.000  
G 6  24284263.928   127614661.649       -1347.094          37.000  
G15  21048025.177   110608117.471        3635.982          43.000  
G30  24388509.365   128162481.759        1595.420          38.000  
C 6  36208722.278   188548317.863        1770.422          44.000  
C 8  36394624.159   189516360.885        1668.915          46.000  
C13  36337628.188   189219566.783        1817.019          47.000  
C14  25540196.165   132994494.964       -1360.299          41.000  
C16  36620638.402   190693280.986        1956.687          44.000  
C27  22481643.383   117067819.313        2786.989          50.000  
C28  22007704.962   114599892.891        -302.566          47.000  
C 4  38722090.192   201636081.348        1150.745          38.000  
C 1  37761631.184   196634726.484        1173.918          41.000  
C 3  36321396.275   189135043.939        1141.746          42.000  
C 2  37242297.662   193930413.238        1180.868          38.000  
C25  26552860.849   138267710.521        3155.072          37.000  
G18  24760180.611   130115625.740        4158.330          40.000  
G12  25569907.848   134370783.845        -977.114          32.000  
G25  25592071.928   134487195.862        -829.342          33.000  
C 5  39273722.077   204508576.131        1176.628          36.000  
C 9  37687293.641   196247642.049        2261.407          37.000  
> 2020  5 30 12 31  7.0000000  0 24                     
G 2  21641548.509   113727106.336         176.478          45.000  
G 5  21294854.773   111905216.389        -204.331          49.000  
G13  20288802.395   106618383.628        1994.016          46.000  
G29  21430569.409   112618399.539        2304.772          46.000  
G 6  24284520.237   127616008.512       -1347.240          37.000  
G15  21047333.346   110604481.615        3635.902          43.000  
G30  24388205.662   128160886.582        1595.627          38.000  
C 6  36208381.999   188546547.328        1770.626          44.000  
C 8  36394303.773   189514691.879        1669.169          46.000  
C13  36337279.219   189217749.710        1817.317          47.000  
C14  25540457.080   132995854.937       -1359.617          41.000  
C16  36620262.629   190691324.364        1956.758          44.000  
C27  22481108.325   117065032.400        2786.948          50.000  
C28  22007763.176   114600195.548        -302.661          48.000  
C 4  38721869.167   201634930.362        1150.977          38.000  
C 1  37761405.832   196633552.586        1173.829          41.000  
C 3  36321176.960   189133902.254        1141.943          42.000  
C 2  37242070.810   193929232.490        1181.116          38.000  
C25  26552254.803   138264554.838        3155.965          37.000  
G18  24759389.348   130111467.417        4158.740          40.000  
G12  25570093.832   134371760.232        -975.697          32.000  
G25  25592229.992   134488026.232        -830.452          33.000  
C 5  39273495.748   204507399.522        1177.010          36.000  
C 9  37686859.235   196245380.308        2262.006          37.000  
> 2020  5 30 12 31  8.0000000  0 24                     
G 2  21641514.726   113726930.155         176.511          45.000  
G 5  21294893.896   111905420.545        -203.716          49.000  
G13  20288423.097   106616389.607        1994.283          46.000  
G29  21430130.850   112616094.888        2304.833          46.000  
G 6  24284776.371   127617355.210       -1346.390          37.000  
G15  21046641.584   110600845.843        3636.075          43.000  
G30  24387902.028   128159291.486        1595.470          38.000  
C 6  36208041.859   188544776.550        1771.277          44.000  
C 8  36393982.968   189513022.510        1669.844          46.000  
C13  36336930.249   189215932.223        1818.019          47.000  
C14  25540718.275   132997214.464       -1359.109          41.000  
C16  36619886.961   190689367.501        1957.468          44.000  
C27  22480572.987   117062245.530        2787.199          50.000  
C28  22007821.355   114600498.307        -302.532          48.000  
C 4  38721647.898   201633778.978        1151.813          38.000  
C 1  37761180.410   196632378.268        1174.884          41.000  
C 3  36320957.716   189132760.175        1142.509          42.000  
C 2  37241843.817   193928051.360        1181.635          38.000  
C25  26551648.652   138261398.724        3156.302          37.000  
G18  24758597.806   130107308.615        4159.385          40.000  
G12  25570279.188   134372735.990        -975.631          31.000  
G25  25592387.916   134488856.034        -828.933          33.000  
C 5  39273269.872   204506222.540        1177.595          36.000  
C 9  37686424.794   196243118.310        2262.421          38.000  
> 2020  5 30 12 31  9.0000000  0 24                     
G 2  21641481.326   113726754.185         175.819          45.000  
G 5  21294932.775   111905624.658        -204.202          49.000  
G13  20288044.009   106614396.089        1993.241          46.000  
G29  21429692.256   112613790.708        2303.845          46.000  
G 6  24285032.576   127618701.992       -1346.911          37.000  
G15  21045949.927   110597210.425        3634.992          43.000  
G30  24387598.499   128157696.648        1594.628          38.000  
C 6  36207701.824   188543005.753        1770.764          44.000  
C 8  36393662.094   189511352.997        1669.500          46.000  
C13  36336581.210   189214114.574        1817.648          47.000  
C14  25540979.331   132998573.743       -1359.387          41.000  
C16  36619511.327   190687410.633        1956.871          44.000  
C27  22480037.858   117059458.930        2786.394          50.000  
C28  22007879.534   114600801.373        -303.278          48.000  
C 4  38721426.769   201632627.456        1151.154          38.000  
C 1  37760954.744   196631203.812        1174.050          41.000  
C 3  36320738.297   189131617.931        1142.234          42.000  
C 2  37241616.790   193926870.085        1181.121          38.000  
C25  26551042.606   138258242.321        3156.463          37.000  
G18  24757806.613   130103149.540        4159.159          40.000  
G12  25570464.719   134373711.301        -975.101          31.000  
G25  25592545.946   134489685.656        -829.682          33.000  
C 5  39273043.683   204505045.382        1177.109          36.000  
C 9  37685990.284   196240856.236        2262.329          37.000  
> 2020  5 30 12 31 10.0000000  0 24                     
G 2  21641448.101   113726578.275         176.091          45.000  
G 5  21294971.410   111905828.570        -203.832          49.000  
G13  20287664.815   106612402.915        1993.063          46.000  
G29  21429253.837   112611486.857        2303.840          46.000  
G 6  24285288.780   127620048.704       -1346.829          37.000  
G15  21045258.271   110593575.172        3635.076          43.000  
G30  24387295.354   128156101.922        1595.020          38.000  
C 6  36207361.545   188541234.805        1771.059          44.000  
C 8  36393341.742   189509683.230        1670.126          46.000  
C13  36336232.066   189212296.578        1818.219          47.000  
C14  25541240.176   132999932.613       -1358.539          41.000  
C16  36619135.380   190685453.596        1957.217          44.000  
C27  22479502.695   117056672.445        2786.532          50.000  
C28  22007937.888   114601104.606        -303.156          48.000  
C 4  38721205.361   201631475.613        1151.813          38.000  
C 1  37760729.043   196630029.002        1175.219          41.000  
C 3  36320519.087   189130475.365        1142.849          42.000  
C 2  37241389.693   193925688.476        1181.597          38.000  
C25  26550436.281   138255085.527        3157.196          37.000  
G18  24757015.002   130098990.073        4159.858          40.000  
G12  25570650.110   134374686.066        -974.882          31.000  
G25  25592703.661   134490514.889        -829.775          33.000  
C 5  39272817.737   204503867.923        1177.661          36.000  
C 9  37685555.843   196238593.982        2262.659          37.000  
> 2020  5 30 12 31 11.0000000  0 24                     
G 2  21641414.526   113726402.712         175.457          45.000  
G 5  21295010.254   111906032.563        -204.041          48.000  
G13  20287285.727   106610410.363        1992.122          46.000  
G29  21428815.662   112609183.611        2302.822          46.000  
G 6  24285545.158   127621395.584       -1346.899          37.000  
G15  21044566.544   110589940.356        3634.594          43.000  
G30  24386991.860   128154507.674        1593.653          38.000  
C 6  36207021.615   188539463.966        1770.666          44.000  
C 8  36393021.217   189508013.426        1669.802          46.000  
C13  36335882.957   189210478.545        1818.148          47.000  
C14  25541501.057   133001291.387       -1358.924          41.000  
C16  36618759.712   190683496.669        1956.699          44.000  
C27  22478967.741   117053886.353        2785.855          50.000  
C28  22007996.276   114601408.285        -303.971          48.000  
C 4  38720983.987   201630323.721        1152.008          38.000  
C 1  37760503.447   196628854.171        1174.831          41.000  
C 3  36320299.633   189129332.755        1142.621          42.000  
C 2  37241162.945   193924506.812        1181.953          38.000  
C25  26549829.955   138251928.615        3157.167          37.000  
G18  24756223.460   130094830.469        4159.528          40.000  
G12  25570835.536   134375660.500        -974.296          32.000  
G25  25592861.411   134491343.953        -829.087          33.000  
C 5  39272591.652   204502690.385        1177.992          36.000  
C 9  37685121.438   196236331.790        2262.486          37.000  
> 2020  5 30 12 31 12.0000000  0 24                     
G 2  21641381.162   113726227.357         175.427          45.000  
G 5  21295048.959   111906236.480        -203.638          48.000  
G13  20286906.848   106608418.274        1991.960          46.000  
G29  21428377.592   112606880.809        2302.715          46.000  
G 6  24285801.572   127622742.536       -1346.547          37.000  
G15  21043875.062   110586305.866        3634.681          43.000  
G30  24386688.749   128152913.633        1593.921          38.000  
C 6  36206681.580   188537693.067        1771.036          44.000  
C 8  36392700.447   189506343.477        1670.319          46.000  
C13  36335533.708   189208660.298        1818.489          47.000  
C14  25541761.798   133002649.866       -1358.085          41.000  
C16  36618383.729   190681539.713        1957.106          44.000  
C27  22478432.857   117051100.503        2785.998          50.000  
C28  22008054.420   114601712.251        -303.918          48.000  
C 4  38720762.754   201629171.632        1152.466          38.000  
C 1  37760277.955   196627679.155        1175.247          41.000  
C 3  36320080.075   189128189.978        1143.221          42.000  
C 2  37240936.092   193923324.981        1182.178          38.000  
C25  26549223.595   138248771.453        3157.181          37.000  
G18  24755431.953   130090670.564        4160.373          40.000  
G12  25571020.823   134376634.540        -973.433          31.000  
G25  25593019.021   134492172.721        -827.894          33.000  
C 5  39272365.567   204501512.706        1178.018          36.000  
C 9  37684687.102   196234069.557        2262.206          37.000  
> 2020  5 30 12 31 13.0000000  0 24                     
G 2  21641347.657   113726051.771         175.533          45.000  
G 5  21295087.524   111906439.904        -203.241          48.000  
G13  20286527.619   106606426.220        1991.898          46.000  
G29  21427939.452   112604578.042        2302.585          46.000  
G 6  24286057.881   127624089.150       -1346.866          37.000  
G15  21043183.579   110582671.262        3634.436          43.000  
G30  24386385.639   128151319.426        1594.191          38.000  
C 6  36206341.335   188535921.708        1771.528          44.000  
C 8  36392379.642   189504672.953        1670.699          46.000  
C13  36335184.460   189206841.420        1819.138          47.000  
C14  25542022.644   133004007.695       -1357.688          41.000  
C16  36618007.817   190679582.298        1957.357          44.000  
C27  22477897.868   117048314.492        2785.944          50.000  
C28  22008112.948   114602016.103        -303.974          48.000  
C 4  38720541.659   201628018.976        1152.734          38.000  
C 1  37760052.114   196626503.526        1175.781          41.000  
C 3  36319860.446   189127046.590        1143.575          42.000  
C 2  37240709.030   193922142.551        1182.506          38.000  
C25  26548617.375   138245613.556        3158.234          37.000  
G18  24754640.236   130086509.980        4160.720          40.000  
G12  25571206.004   134377607.720        -972.947          31.000  
G25  25593176.596   134493000.852        -828.289          33.000  
C 5  39272138.959   204500334.413        1178.538          36.000  
C 9  37684252.696   196231806.788        2262.548          37.000  
> 2020  5 30 12 31 14.0000000  0 24                     
G 2  21641314.327   113725876.222         175.853          45.000  
G 5  21295126.228   111906643.115        -202.905          48.000  
G13  20286148.426   106604434.505        1991.707          46.000  
G29  21427500.962   112602275.566        2302.595          46.000  
G 6  24286314.015   127625435.598       -1345.276          37.000  
G15  21042491.888   110579036.801        3634.415          43.000  
G30  24386082.529   128149725.317        1594.513          38.000  
C 6  36206001.091   188534150.172        1771.936          44.000  
C 8  36392058.698   189503002.131        1671.143          46.000  
C13  36334835.071   189205022.219        1819.563          47.000  
C14  25542283.385   133005365.103       -1356.980          41.000  
C16  36617631.695   190677624.690        1957.936          44.000  
C27  22477362.775   117045528.575        2786.088          50.000  
C28  22008170.883   114602320.089        -303.904          48.000  
C 4  38720320.425   201626865.952        1153.436          38.000  
C 1  37759826.448   196625327.560        1176.282          41.000  
C 3  36319640.713   189125902.873        1144.124          42.000  
C 2  37240481.828   193920959.767        1183.186          38.000  
C25  26548010.910   138242455.262        3158.499          37.000  
G18  24753848.485   130082348.972        4161.321          40.000  
G12  25571390.942   134378580.260        -972.091          31.000  
G25  25593334.277   134493828.520        -827.439          33.000  
C 5  39271912.525   204499155.779        1179.085          36.000  
C 9  37683818.081   196229543.780        2264.147          37.000  
> 2020  5 30 12 31 15.0000000  0 24                     
G 2  21641281.032   113725700.766         174.908          45.000  
G 5  21295164.933   111906846.121        -203.298          48.000  
G13  20285769.617   106602443.134        1990.740          46.000  
G29  21427062.962   112599973.431        2301.589          46.000  
G 6  24286570.010   127626782.056       -1346.486          37.000  
G15  21041800.196   110575402.519        3633.820          43.000  
G30  24385779.383   128148131.379        1593.699          39.000  
C 6  36205660.916   188532378.460        1771.365          44.000  
C 8  36391737.858   189501331.019        1670.725          46.000  
C13  36334485.718   189203202.672        1819.252          47.000  
C14  25542543.847   133006722.125       -1357.064          41.000  
C16  36617255.956   190675666.946        1957.351          44.000  
C27  22476827.856   117042742.777        2785.384          50.000  
C28  22008229.690   114602624.254        -304.539          48.000  
C 4  38720098.878   201625712.627        1153.003          38.000  
C 1  37759600.642   196624151.293        1175.997          41.000  
C 3  36319421.015   189124758.837        1143.947          42.000  
C 2  37240254.731   193919776.713        1182.695          38.000  
C25  26547404.340   138239296.562        3158.460          37.000  
G18  24753056.455   130078187.547        4161.179          40.000  
G12  25571575.600   134379552.307        -972.866          31.000  
G25  25593491.643   134494655.822        -826.922          33.000  
C 5  39271686.056   204497976.834        1178.918          36.000  
C 9  37683383.431   196227280.584        2263.256          37.000  
> 2020  5 30 12 31 16.0000000  0 24                     
G 2  21641247.493   113725525.666         174.744          45.000  
G 5  21295203.742   111907049.233        -203.243          48.000  
G13  20285390.947   106600452.406        1990.213          46.000  
G29  21426625.171   112597671.915        2301.158          46.000  
G 6  24286826.353   127628128.719       -1347.240          37.000  
G15  21041108.644   110571768.730        3633.339          43.000  
G30  24385476.238   128146537.870        1593.387          39.000  
C 6  36205320.847   188530606.884        1771.331          44.000  
C 8  36391417.158   189499659.922        1671.105          46.000  
C13  36334136.050   189201383.111        1819.459          47.000  
C14  25542804.519   133008079.066       -1357.211          41.000  
C16  36616880.044   190673709.323        1957.469          44.000  
C27  22476292.937   117039957.409        2785.123          50.000  
C28  22008288.288   114602928.891        -305.004          48.000  
C 4  38719877.469   201624559.253        1153.192          38.000  
C 1  37759374.767   196622975.010        1176.012          41.000  
C 3  36319201.386   189123614.797        1143.910          42.000  
C 2  37240027.599   193918593.626        1183.272          38.000  
C25  26546797.840   138236137.746        3158.954          37.000  
G18  24752264.424   130074026.024        4161.400          40.000  
G12  25571760.503   134380524.028        -971.896          31.000  
G25  25593649.323   134495482.988        -826.747          33.000  
C 5  39271459.831   204496797.893        1178.547          36.000  
C 9  37682948.990   196225017.528        2263.064          37.000  
> 2020  5 30 12 31 17.0000000  0 24                     
G 2  21641214.093   113725350.868         174.398          44.000  
G 5  21295242.272   111907252.380        -203.403          48.000  
G13  20285012.243   106598462.245        1989.602          46.000  
G29  21426187.101   112595370.962        2300.432          46.000  
G 6  24287082.592   127629475.510       -1346.881          37.000  
G15  21040417.301   110568135.347        3633.043          43.000  
G30  24385172.988   128144944.714        1592.947          39.000  
C 6  36204980.602   188528835.372        1771.269          44.000  
C 8  36391096.214   189497988.782        1670.973          46.000  
C13  36333786.767   189199563.445        1819.426          47.000  
C14  25543065.260   133009435.846       -1357.158          41.000  
C16  36616504.096   190671751.787        1957.186          44.000  
C27  22475758.088   117037172.387        2784.599          50.000  
C28  22008346.991   114603233.920        -305.562          48.000  
C 4  38719656.026   201623405.838        1153.418          38.000  
C 1  37759148.856   196621798.617        1176.166          41.000  
C 3  36318981.793   189122470.670        1143.792          42.000  
C 2  37239800.466   193917410.469        1182.815          38.000  
C25  26546191.341   138232978.790        3158.775          37.000  
G18  24751472.708   130069864.310        4161.605          40.000  
G12  25571945.405   134381495.436        -971.055          31.000  
G25  25593806.863   134496310.074        -827.192          33.000  
C 5  39271233.362   204495618.860        1178.903          36.000  
C 9  37682514.340   196222754.474        2262.704          38.000  
> 2020  5 30 12 31 18.0000000  0 24                     
G 2  21641180.763   113725176.655         174.030          45.000  
G 5  21295281.116   111907455.841        -203.660          48.000  
G13  20284633.782   106596472.953        1988.818          46.000  
G29  21425749.414   112593070.839        2299.822          46.000  
G 6  24287339.006   127630822.747       -1347.286          37.000  
G15  21039726.168   110564502.665        3632.244          43.000  
G30  24384869.843   128143352.224        1592.250          38.000  
C 6  36204640.463   188527064.219        1770.850          44.000  
C 8  36390775.199   189496317.888        1670.742          46.000  
C13  36333437.274   189197743.959        1819.355          47.000  
C14  25543325.722   133010792.722       -1356.840          41.000  
C16  36616128.149   190669794.585        1957.061          44.000  
C27  22475223.657   117034388.001        2784.042          50.000  
C28  22008405.868   114603539.627        -306.049          48.000  
C 4  38719434.722   201622252.593        1153.229          38.000  
C 1  37758923.364   196620622.438        1176.119          41.000  
C 3  36318762.025   189121326.742        1143.763          42.000  
C 2  37239572.951   193916227.506        1182.808          38.000  
C25  26545584.562   138229819.942        3158.656          38.000  
G18  24750680.887   130065702.699        4161.693          40.000  
G12  25572129.854   134382466.797        -971.136          31.000  
G25  25593964.160   134497137.224        -828.153          33.000  
C 5  39271006.963   204494440.024        1179.139          36.000  
C 9  37682079.795   196220491.733        2262.624          37.000  
> 2020  5 30 12 31 19.0000000  0 24                     
G 2  21641147.608   113725003.122         173.110          45.000  
G 5  21295319.751   111907659.701        -204.137          48.000  
G13  20284255.287   106594484.590        1987.798          46.000  
G29  21425311.658   112590771.648        2298.757          46.000  
G 6  24287595.908   127632170.530       -1348.092          37.000  
G15  21039035.139   110560870.737        3631.700          43.000  
G30  24384567.152   128141760.446        1591.296          38.000  
C 6  36204300.602   188525293.468        1770.603          44.000  
C 8  36390454.325   189494647.290        1670.365          46.000  
C13  36333087.816   189195924.744        1818.958          47.000  
C14  25543586.463   133012149.816       -1357.026          41.000  
C16  36615752.271   190667837.818        1956.514          44.000  
C27  22474688.948   117031604.314        2783.372          50.000  
C28  22008464.570   114603846.097        -306.933          48.000  
C 4  38719213.174   201621099.641        1152.710          38.000  
C 1  37758697.419   196619446.543        1175.447          41.000  
C 3  36318542.606   189120183.084        1143.735          42.000  
C 2  37239345.714   193915044.803        1182.235          38.000  
C25  26544977.783   138226661.273        3158.490          38.000  
G18  24749888.996   130061541.315        4160.962          40.000  
G12  25572314.512   134383438.223        -971.593          31.000  
G25  25594121.491   134497964.546        -827.727          33.000  
C 5  39270780.529   204493261.464        1178.378          36.000  
C 9  37681645.215   196218229.376        2262.396          37.000  
> 2020  5 30 12 31 20.0000000  0 24                     
G 2  21641114.592   113724830.175         172.280          45.000  
G 5  21295358.491   111907863.897        -204.839          48.000  
G13  20283877.211   106592497.093        1986.705          46.000  
G29  21424874.251   112588473.315        2297.407          46.000  
G 6  24287852.182   127633518.765       -1349.032          37.000  
G15  21038344.215   110557239.539        3630.356          43.000  
G30  24384264.251   128140169.349        1590.172          39.000  
C 6  36203960.462   188523523.090        1769.823          44.000  
C 8  36390133.520   189492976.924        1669.709          46.000  
C13  36332738.672   189194105.718        1818.513          47.000  
C14  25543846.995   133013507.038       -1357.617          41.000  
C16  36615376.533   190665881.419        1955.655          44.000  
C27  22474154.483   117028821.284        2782.284          50.000  
C28  22008523.587   114604153.250        -307.916          48.000  
C 4  38718991.766   201619946.891        1152.118          38.000  
C 1  37758471.508   196618270.836        1175.103          41.000  
C 3  36318323.082   189119039.653        1142.893          42.000  
C 2  37239118.617   193913862.327        1181.651          38.000  
C25  26544371.562   138223502.744        3157.864          38.000  
G18  24749097.175   130057380.022        4161.158          40.000  
G12  25572499.345   134384409.494        -970.665          31.000  
G25  25594278.857   134498792.012        -828.385          33.000  
C 5  39270554.339   204492083.142        1177.846          36.000  
C 9  37681210.949   196215967.368        2261.110          37.000  
> 2020  5 30 12 31 21.0000000  0 24                     
G 2  21641081.855   113724658.193         171.354          44.000  
G 5  21295397.614   111908068.790        -205.271          48.000  
G13  20283499.239   106590510.830        1985.781          46.000  
G29  21424437.298   112586176.180        2296.576          46.000  
G 6  24288108.840   127634867.792       -1349.404          37.000  
G15  21037653.396   110553609.384        3629.763          43.000  
G30  24383962.083   128138579.238        1589.342          39.000  
C 6  36203620.567   188521753.413        1769.380          44.000  
C 8  36389812.785   189491307.148        1669.611          46.000  
C13  36332389.493   189192287.233        1818.276          47.000  
C14  25544107.701   133014864.743       -1357.834          41.000  
C16  36615000.969   190663925.714        1955.510          44.000  
C27  22473620.227   117026039.240        2781.586          50.000  
C28  22008582.743   114604461.438        -308.495          48.000  
C 4  38718770.427   201618794.693        1152.075          38.000  
C 1  37758245.772   196617095.689        1174.958          41.000  
C 3  36318103.523   189117896.771        1142.676          42.000  
C 2  37238891.659   193912680.390        1181.409          38.000  
C25  26543765.062   138220344.657        3157.938          38.000  
G18  24748305.354   130053219.189        4160.824          40.000  
G12  25572684.108   134385381.196        -971.530          31.000  
G25  25594436.642   134499619.958        -828.187          32.000  
C 5  39270328.115   204490905.316        1177.719          36.000  
C 9  37680776.682   196213705.976        2260.996          38.000  
> 2020  5 30 12 31 22.0000000  0 24                     
G 2  21641049.258   113724486.479         171.254          45.000  
G 5  21295436.703   111908273.683        -205.101          48.000  
G13  20283121.581   106588525.110        1985.223          46.000  
G29  21424000.204   112583879.586        2296.045          46.000  
G 6  24288365.707   127636216.945       -1349.587          37.000  
G15  21036962.821   110549979.627        3629.273          43.000  
G30  24383659.496   128136989.467        1589.528          39.000  
C 6  36203280.567   188519983.775        1769.450          44.000  
C 8  36389492.120   189489637.290        1669.531          46.000  
C13  36332040.244   189190468.651        1818.374          47.000  
C14  25544368.512   133016222.279       -1357.806          41.000  
C16  36614625.336   190661970.067        1955.326          44.000  
C27  22473085.971   117023257.522        2781.328          50.000  
C28  22008642.109   114604770.014        -309.019          48.000  
C 4  38718549.089   201617642.417        1151.538          38.000  
C 1  37758019.932   196615920.436        1175.148          41.000  
C 3  36317883.895   189116753.787        1142.894          42.000  
C 2  37238664.841   193911498.368        1181.888          38.000  
C25  26543158.598   138217186.398        3158.412          38.000  
G18  24747513.533   130049058.184        4160.988          40.000  
G12  25572868.871   134386352.510        -971.062          31.000  
G25  25594594.322   134500447.719        -828.044          33.000  
C 5  39270101.960   204489727.442        1177.685          36.000  
C 9  37680342.416   196211444.600        2261.104          38.000  
> 2020  5 30 12 31 23.0000000  0 24                     
G 2  21641016.836   113724315.218         171.131          45.000  
G 5  21295475.756   111908478.764        -205.062          48.000  
G13  20282743.749   106586540.121        1984.754          46.000  
G29  21423563.321   112581583.696        2295.575          46.000  
G 6  24288622.295   127637566.411       -1349.326          37.000  
G15  21036272.106   110546350.418        3628.945          43.000  
G30  24383357.084   128135400.220        1589.182          39.000  
C 6  36202940.776   188518214.358        1769.333          44.000  
C 8  36389171.629   189487967.549        1669.797          46.000  
C13  36331690.682   189188650.090        1818.698          47.000  
C14  25544629.323   133017579.788       -1357.468          41.000  
C16  36614249.807   190660014.624        1955.514          44.000  
C27  22472551.715   117020476.310        2781.199          50.000  
C28  22008701.265   114605079.128        -309.243          48.000  
C 4  38718327.995   201616490.162        1152.515          38.000  
C 1  37757794.231   196614745.248        1175.362          41.000  
C 3  36317664.615   189115610.872        1142.990          42.000  
C 2  37238437.814   193910316.398        1182.101          38.000  
C25  26542552.237   138214028.133        3158.345          38.000  
G18  24746721.886   130044897.158        4160.868          40.000  
G12  25573053.494   134387323.639        -971.137          30.000  
G25  25594751.862   134501275.469        -827.732          33.000  
C 5  39269875.665   204488549.583        1178.424          36.000  
C 9  37679908.255   196209183.430        2261.076          37.000  
> 2020  5 30 12 31 24.0000000  0 24                     
G 2  21640984.379   113724144.472         170.745          44.000  
G 5  21295514.565   111908684.076        -205.074          48.000  
G13  20282366.510   106584555.906        1984.213          46.000  
G29  21423126.716   112579288.575        2295.037          46.000  
G 6  24288879.232   127638916.235       -1349.329          37.000  
G15  21035581.776   110542721.820        3628.639          43.000  
G30  24383054.672   128133811.538        1588.756          39.000  
C 6  36202600.881   188516445.180        1769.390          44.000  
C 8  36388851.173   189486297.945        1669.778          46.000  
C13  36331341.677   189186831.626        1818.706          47.000  
C14  25544890.204   133018937.332       -1357.081          41.000  
C16  36613874.279   190658059.477        1955.174          44.000  
C27  22472017.808   117017695.645        2780.791          50.000  
C28  22008760.875   114605388.846        -309.707          48.000  
C 4  38718106.796   201615338.052        1152.557          38.000  
C 1  37757568.564   196613570.180        1175.571          41.000  
C 3  36317445.057   189114468.069        1143.059          42.000  
C 2  37238210.891   193909134.554        1182.272          38.000  
C25  26541945.947   138210869.869        3158.850          38.000  
G18  24745929.925   130040736.137        4161.477          40.000  
G12  25573237.524   134388294.610        -970.787          30.000  
G25  25594909.543   134502103.246        -827.996          33.000  
C 5  39269649.511   204487371.908        1177.747          36.000  
C 9  37679474.094   196206922.446        2261.337          37.000  
> 2020  5 30 12 31 25.0000000  0 24                     
G 2  21640951.816   113723973.879         170.693          44.000  
G 5  21295553.549   111908889.283        -204.952          48.000  
G13  20281988.853   106582572.131        1983.694          46.000  
G29  21422689.903   112576993.856        2294.783          46.000  
G 6  24289136.239   127640266.083       -1349.549          37.000  
G15  21034891.061   110539093.500        3628.483          43.000  
G30  24382752.120   128132223.099        1588.381          39.000  
C 6  36202261.265   188514675.932        1769.503          44.000  
C 8  36388530.613   189484628.166        1670.065          46.000  
C13  36330992.464   189185012.943        1818.918          47.000  
C14  25545150.945   133020294.584       -1356.580          41.000  
C16  36613499.064   190656104.258        1955.271          44.000  
C27  22471483.936   117014915.205        2780.417          50.000  
C28  22008820.450   114605698.830        -310.148          48.000  
C 4  38717885.457   201614185.716        1152.631          38.000  
C 1  37757342.968   196612394.900        1175.385          41.000  
C 3  36317225.359   189113325.049        1143.502          42.000  
C 2  37237983.864   193907952.498        1182.178          38.000  
C25  26541339.273   138207711.322        3158.948          38.000  
G18  24745138.034   130036574.827        4161.358          40.000  
G12  25573415.028   134389265.106        -969.679          30.000  
G25  25595067.083   134502930.716        -827.222          33.000  
C 5  39269423.495   204486193.975        1177.976          36.000  
C 9  37679039.723   196204661.404        2261.299          37.000  
> 2020  5 30 12 31 26.0000000  0 24                     
G 2  21640919.324   113723803.506         169.575          45.000  
G 5  21295592.638   111909094.426        -205.767          48.000  
G13  20281611.509   106580588.832        1982.480          46.000  
G29  21422253.368   112574699.614        2293.453          46.000  
G 6  24289393.001   127641615.997       -1350.642          37.000  
G15  21034200.451   110535465.494        3627.302          43.000  
G30  24382450.091   128130634.913        1587.512          39.000  
C 6  36201921.544   188512906.666        1768.735          44.000  
C 8  36388209.982   189482958.228        1669.391          46.000  
C13  36330643.215   189183194.054        1818.440          47.000  
C14  25545411.791   133021651.604       -1357.649          41.000  
C16  36613123.396   190654148.986        1954.749          44.000  
C27  22470950.029   117012135.003        2779.598          50.000  
C28  22008879.781   114606009.094        -310.927          48.000  
C 4  38717664.084   201613033.219        1151.837          38.000  
C 1  37757117.302   196611219.422        1175.090          41.000  
C 3  36317005.939   189112181.854        1142.681          42.000  
C 2  37237756.906   193906770.254        1181.641          38.000  
C25  26540732.773   138204552.508        3158.375          38.000  
G18  24744346.143   130032413.221        4161.208          40.000  
G12  25573603.874   134390235.196        -970.383          30.000  
G25  25595224.449   134503757.937        -827.605          33.000  
C 5  39269197.341   204485015.854        1177.743          36.000  
C 9  37678605.492   196202400.269        2260.512          37.000  
> 2020  5 30 12 31 27.0000000  0 24                     
G 2  21640886.971   113723633.604         170.001          45.000  
G 5  21295631.691   111909299.784        -205.203          48.000  
G13  20281234.096   106578606.304        1982.364          46.000  
G29  21421816.519   112572406.119        2293.318          46.000  
G 6  24289650.043   127642966.248       -1350.051          37.000  
G15  21033510.121   110531838.082        3627.359          43.000  
G30  24382147.923   128129047.284        1587.462          39.000  
C 6  36201581.963   188511137.658        1768.996          44.000  
C 8  36387889.317   189481288.406        1670.001          46.000  
C13  36330294.106   189181375.269        1818.956          47.000  
C14  25545672.253   133023008.624       -1356.948          41.000  
C16  36612748.181   190652193.991        1954.856          44.000  
C27  22470416.297   117009355.348        2779.688          50.000  
C28  22008939.460   114606319.956        -310.881          48.000  
C 4  38717442.919   201611880.779        1152.563          38.000  
C 1  37756891.531   196610044.054        1175.497          41.000  
C 3  36316786.520   189111038.769        1142.939          42.000  
C 2  37237529.705   193905588.119        1182.307          38.000  
C25  26540125.994   138201393.711        3159.107          38.000  
G18  24743554.043   130028251.655        4161.574          40.000  
G12  25573787.066   134391205.139        -969.620          30.000  
G25  25595381.746   134504585.170        -826.894          33.000  
C 5  39268971.081   204483837.886        1177.631          36.000  
C 9  37678171.121   196200139.317        2261.578          37.000  
> 2020  5 30 12 31 28.0000000  0 24                     
G 2  21640854.619   113723464.140         169.282          45.000  
G 5  21295670.954   111909505.287        -205.494          48.000  
G13  20280856.962   106576624.464        1981.517          46.000  
G29  21421380.334   112570113.288        2292.480          46.000  
G 6  24289906.980   127644316.787       -1350.573          37.000  
G15  21032819.965   110528211.204        3626.740          43.000  
G30  24381845.651   128127460.132        1586.996          39.000  
C 6  36201242.451   188509368.806        1768.871          44.000  
C 8  36387568.652   189479618.642        1669.863          46.000  
C13  36329944.613   189179556.480        1818.887          47.000  
C14  25545932.924   133024365.592       -1356.976          41.000  
C16  36612372.897   190650239.174        1954.610          44.000  
C27  22469882.495   117006576.156        2779.054          50.000  
C28  22008999.105   114606631.326        -311.517          48.000  
C 4  38717221.406   201610728.403        1152.319          38.000  
C 1  37756665.620   196608868.700        1175.520          41.000  
C 3  36316566.962   189109895.686        1143.201          42.000  
C 2  37237302.817   193904406.041        1181.914          38.000  
C25  26539519.145   138198234.861        3159.095          38.000  
G18  24742761.908   130024089.997        4161.930          40.000  
G12  25573972.771   134392174.848        -969.702          30.000  
G25  25595539.391   134505412.329        -826.895          33.000  
C 5  39268744.717   204482659.892        1178.019          36.000  
C 9  37677736.924   196197878.540        2260.972          37.000  
> 2020  5 30 12 31 29.0000000  0 24                     
G 2  21640822.406   113723294.929         168.997          45.000  
G 5  21295709.764   111909710.786        -205.742          48.000  
G13  20280479.898   106574643.162        1980.782          46.000  
G29  21420944.183   112567820.984        2291.761          46.000  
G 6  24290163.847   127645667.423       -1350.533          37.000  
G15  21032129.844   110524584.704        3626.115          43.000  
G30  24381543.727   128125873.304        1586.509          39.000  
C 6  36200902.661   188507600.000        1768.666          44.000  
C 8  36387248.022   189477948.795        1669.703          46.000  
C13  36329595.434   189177737.588        1818.688          47.000  
C14  25546193.491   133025722.391       -1357.185          41.000  
C16  36611997.682   190648284.377        1954.495          44.000  
C27  22469348.658   117003797.286        2778.495          50.000  
C28  22009058.960   114606943.072        -312.197          48.000  
C 4  38717000.033   201609575.871        1152.454          38.000  
C 1  37756439.919   196607693.243        1175.092          41.000  
C 3  36316347.298   189108752.510        1143.107          42.000  
C 2  37237075.929   193903223.827        1182.033          38.000  
C25  26538912.715   138195075.803        3158.815          38.000  
G18  24741969.843   130019928.139        4161.688          40.000  
G12  25574159.593   134393144.166        -969.958          30.000  
G25  25595696.862   134506239.350        -827.440          33.000  
C 5  39268518.492   204481481.810        1177.764          36.000  
C 9  37677302.588   196195617.748        2260.707          37.000  
> 2020  5 30 12 31 30.0000000  0 24                     
G 2  21640790.367   113723126.016         168.587          45.000  
G 5  21295748.922   111909916.307        -205.801          48.000  
G13  20280103.112   106572662.430        1980.193          46.000  
G29  21420507.892   112565529.218        2291.368          46.000  
G 6  24290420.889   127647018.247       -1351.251          37.000  
G15  21031439.827   110520958.619        3625.279          43.000  
G30  24381242.013   128124286.838        1586.292          39.000  
C 6  36200562.765   188505831.242        1768.538          44.000  
C 8  36386927.147   189476278.899        1669.633          46.000  
C13  36329246.116   189175918.568        1818.809          47.000  
C14  25546453.987   133027078.996       -1356.844          41.000  
C16  36611622.154   190646329.657        1954.441          44.000  
C27  22468815.135   117001018.768        2777.986          50.000  
C28  22009118.988   114607255.204        -312.677          48.000  
C 4  38716778.904   201608423.296        1152.563          38.000  
C 1  37756214.183   196606517.691        1175.100          41.000  
C 3  36316127.670   189107609.250        1143.003          42.000  
C 2  37236848.797   193902041.540        1181.709          38.000  
C25  26538305.971   138191916.563        3158.964          38.000  
G18  24741177.428   130015766.122        4161.727          40.000  
G12  25574339.575   134394113.117        -968.680          30.000  
G25  25595854.228   134507066.146        -827.715          33.000  
C 5  39268292.093   204480303.640        1178.029          36.000  
C 9  37676868.218   196193357.023        2259.959          37.000  
> 2020  5 30 12 31 31.0000000  0 24                     
G 2  21640758.503   113722957.864         167.396          45.000  
G 5  21295788.185   111910122.283        -206.306          48.000  
G13  20279726.502   106570682.702        1979.050          46.000  
G29  21420072.021   112563238.461        2290.186          46.000  
G 6  24290677.930   127648369.640       -1351.875          37.000  
G15  21030749.915   110517333.357        3624.611          43.000  
G30  24380940.124   128122701.175        1585.421          39.000  
C 6  36200222.940   188504062.980        1767.897          44.000  
C 8  36386606.656   189474609.396        1669.222          46.000  
C13  36328896.727   189174099.867        1818.341          47.000  
C14  25546714.729   133028435.885       -1357.214          41.000  
C16  36611246.799   190644375.435        1953.876          44.000  
C27  22468281.751   116998241.014        2777.335          50.000  
C28  22009179.122   114607568.156        -313.474          48.000  
C 4  38716557.565   201607271.048        1151.672          38.000  
C 1  37755988.517   196605342.483        1174.756          41.000  
C 3  36315908.076   189106466.322        1142.833          42.000  
C 2  37236621.805   193900859.568        1181.579          38.000  
C25  26537699.262   138188757.587        3158.706          38.000  
G18  24740385.328   130011604.323        4161.582          40.000  
G12  25574528.282   134395082.246        -969.133          30.000  
G25  25596011.524   134507893.214        -827.321          33.000  
C 5  39268065.938   204479125.785        1177.838          36.000  
C 9  37676434.056   196191096.691        2260.063          37.000  
> 2020  5 30 12 31 32.0000000  0 24                     
G 2  21640726.499   113722790.345         167.385          45.000  
G 5  21295827.587   111910328.649        -206.273          48.000  
G13  20279349.717   106568703.910        1978.414          46.000  
G29  21419636.149   112560948.612        2289.530          46.000  
G 6  24290935.216   127649721.551       -1352.056          37.000  
G15  21030060.178   110513708.849        3624.221          43.000  
G30  24380638.654   128121116.241        1584.947          39.000  
C 6  36199883.708   188502295.136        1767.779          44.000  
C 8  36386286.096   189472940.182        1669.114          46.000  
C13  36328547.479   189172281.449        1818.396          47.000  
C14  25546975.609   133029792.961       -1356.945          41.000  
C16  36610871.550   190642421.646        1953.719          44.000  
C27  22467748.403   116995463.975        2776.845          50.000  
C28  22009239.534   114607881.855        -313.851          48.000  
C 4  38716336.262   201606119.057        1152.167          38.000  
C 1  37755762.816   196604167.541        1175.009          41.000  
C 3  36315688.623   189105323.666        1142.869          42.000  
C 2  37236395.126   193899677.878        1181.699          38.000  
C25  26537092.937   138185598.808        3158.707          38.000  
G18  24739593.612   130007442.752        4161.631          40.000  
G12  25574711.125   134396051.363        -969.270          30.000  
G25  25596168.855   134508720.440        -826.367          33.000  
C 5  39267839.958   204477948.217        1177.923          36.000  
C 9  37676000.034   196188836.754        2260.080          37.000  
> 2020  5 30 12 31 33.0000000  0 24                     
G 2  21640694.670   113722623.124         166.949          45.000  
G 5  21295866.885   111910535.038        -206.423          48.000  
G13  20278973.281   106566725.676        1977.881          46.000  
G29  21419200.522   112558659.306        2289.008          46.000  
G 6  24291192.677   127651073.591       -1352.179          37.000  
G15  21029370.301   110510084.772        3623.688          43.000  
G30  24380336.975   128119531.669        1584.055          39.000  
C 6  36199544.406   188500527.337        1767.709          44.000  
C 8  36385965.361   189471270.900        1669.211          46.000  
C13  36328198.265   189170462.897        1818.605          47.000  
C14  25547236.246   133031149.864       -1356.613          41.000  
C16  36610496.649   190640467.897        1953.626          44.000  
C27  22467215.194   116992687.276        2776.415          50.000  
C28  22009299.773   114608195.950        -314.376          48.000  
C 4  38716115.028   201604966.975        1152.075          38.000  
C 1  37755537.185   196602992.500        1175.008          41.000  
C 3  36315469.343   189104180.932        1142.581          42.000  
C 2  37236168.204   193898496.096        1181.663          38.000  
C25  26536486.507   138182439.826        3159.216          38.000  
G18  24738801.895   130003280.972        4161.847          40.000  
G12  25574895.434   134397020.132        -968.668          30.000  
G25  25596326.151   134509547.567        -827.049          33.000  
C 5  39267613.768   204476770.577        1177.915          36.000  
C 9  37675566.013   196186576.837        2259.895          37.000  
> 2020  5 30 12 31 34.0000000  0 24                     
G 2  21640662.806   113722456.100         167.200          45.000  
G 5  21295906.218   111910741.347        -206.093          48.000  
G13  20278596.914   106564747.902        1977.898          46.000  
G29  21418765.209   112556370.458        2288.763          46.000  
G 6  24291449.928   127652425.689       -1351.913          37.000  
G15  21028680.843   110506460.978        3623.933          43.000  
G30  24380035.679   128117947.350        1584.144          39.000  
C 6  36199204.894   188498759.505        1768.101          44.000  
C 8  36385644.835   189469601.464        1669.636          46.000  
C13  36327849.086   189168644.128        1819.202          47.000  
C14  25547496.603   133032506.512       -1356.372          41.000  
C16  36610121.505   190638514.108        1953.968          44.000  
C27  22466682.055   116989910.817        2776.513          50.000  
C28  22009360.255   114608510.324        -314.283          48.000  
C 4  38715893.829   201603814.712        1152.655          38.000  
C 1  37755311.658   196601817.267        1175.497          41.000  
C 3  36315249.889   189103037.984        1143.330          42.000  
C 2  37235941.456   193897314.113        1182.045          38.000  
C25  26535879.484   138179280.587        3159.677          38.000  
G18  24738010.144   129999118.885        4162.667          40.000  
G12  25575079.674   134397988.415        -967.881          30.000  
G25  25596483.901   134510374.344        -825.751          33.000  
C 5  39267387.579   204475592.748        1178.068          36.000  
C 9  37675132.095   196184316.866        2259.947          37.000  
> 2020  5 30 12 31 35.0000000  0 24                     
G 2  21640631.012   113722289.229         167.130          45.000  
G 5  21295945.411   111910947.549        -206.122          48.000  
G13  20278220.548   106562770.581        1977.053          46.000  
G29  21418329.512   112554082.023        2288.312          46.000  
G 6  24291707.144   127653777.784       -1351.945          37.000  
G15  21027991.350   110502837.469        3623.274          43.000  
G30  24379734.070   128116363.221        1584.308          39.000  
C 6  36198865.313   188496991.579        1768.055          44.000  
C 8  36385324.031   189467931.855        1669.819          46.000  
C13  36327499.802   189166825.171        1819.236          47.000  
C14  25547757.030   133033862.850       -1356.123          41.000  
C16  36609746.430   190636560.254        1953.919          44.000  
C27  22466148.916   116987134.568        2776.198          50.000  
C28  22009420.563   114608824.962        -314.682          48.000  
C 4  38715672.071   201602662.225        1152.710          38.000  
C 1  37755085.713   196600641.809        1175.601          41.000  
C 3  36315030.435   189101894.815        1143.594          42.000  
C 2  37235714.393   193896131.927        1182.105          38.000  
C25  26535272.705   138176121.039        3159.840          38.000  
G18  24737217.799   129994956.543        4162.078          40.000  
G12  25575269.672   134398956.250        -967.778          30.000  
G25  25596641.372   134511200.885        -826.726          33.000  
C 5  39267161.563   204474414.716        1177.609          36.000  
C 9  37674698.213   196182056.770        2260.000          37.000  
> 2020  5 30 12 31 36.0000000  0 24                     
G 2  21640599.497   113722122.491         166.316          45.000  
G 5  21295984.639   111911153.589        -206.213          48.000  
G13  20277844.426   106560793.617        1976.632          46.000  
G29  21417894.024   112551793.961        2287.710          46.000  
G 6  24291964.360   127655129.883       -1352.363          37.000  
G15  21027301.787   110499214.177        3622.820          43.000  
G30  24379432.216   128114779.300        1583.688          39.000  
C 6  36198525.871   188495223.542        1767.807          44.000  
C 8  36385003.470   189466261.983        1669.668          46.000  
C13  36327150.484   189165005.924        1819.142          47.000  
C14  25548017.667   133035218.838       -1356.147          41.000  
C16  36609371.006   190634606.278        1953.753          44.000  
C27  22465615.812   116984358.486        2775.730          50.000  
C28  22009480.836   114609139.801        -315.155          48.000  
C 4  38715450.803   201601509.466        1152.509          38.000  
C 1  37754859.942   196599466.071        1175.643          41.000  
C 3  36314810.877   189100751.399        1143.204          42.000  
C 2  37235487.191   193894949.480        1182.120          38.000  
C25  26534665.786   138172961.139        3159.682          38.000  
G18  24736425.769   129990793.772        4162.877          40.000  
G12  25575447.036   134399923.619        -967.727          29.000  
G25  25596798.738   134512026.948        -825.776          33.000  
C 5  39266935.513   204473236.336        1178.364          36.000  
C 9  37674264.122   196179796.498        2260.073          37.000  
> 2020  5 30 12 31 37.0000000  0 24                     
G 2  21640567.912   113721956.084         166.469          45.000  
G 5  21296023.867   111911359.697        -205.837          48.000  
G13  20277468.513   106558817.275        1976.285          46.000  
G29  21417458.816   112549506.482        2287.599          46.000  
G 6  24292221.751   127656482.158       -1352.119          36.000  
G15  21026612.294   110495591.322        3623.034          43.000  
G30  24379130.536   128113195.744        1583.785          39.000  
C 6  36198186.220   188493455.604        1768.082          44.000  
C 8  36384682.840   189464592.094        1670.377          46.000  
C13  36326800.956   189163186.601        1819.767          47.000  
C14  25548278.024   133036574.708       -1355.554          41.000  
C16  36608995.686   190632652.399        1954.164          44.000  
C27  22465082.847   116981582.785        2775.816          50.000  
C28  22009541.249   114609455.079        -315.223          48.000  
C 4  38715229.359   201600356.645        1153.082          38.000  
C 1  37754634.171   196598290.282        1176.109          41.000  
C 3  36314591.213   189099607.915        1143.737          42.000  
C 2  37235260.129   193893766.972        1182.988          38.000  
C25  26534059.077   138169801.091        3160.202          38.000  
G18  24735633.145   129986630.880        4163.377          40.000  
G12  25575632.845   134400890.567        -966.148          30.000  
G25  25596956.104   134512852.976        -825.427          34.000  
C 5  39266709.254   204472057.973        1178.369          36.000  
C 9  37673829.925   196177536.273        2260.765          37.000  
> 2020  5 30 12 31 38.0000000  0 24                     
G 2  21640536.397   113721789.811         166.113          45.000  
G 5  21296062.956   111911565.669        -206.014          48.000  
G13  20277092.531   106556841.341        1975.679          46.000  
G29  21417023.607   112547219.418        2286.682          46.000  
G 6  24292478.898   127657834.413       -1352.373          37.000  
G15  21025922.801   110491968.709        3622.493          43.000  
G30  24378829.346   128111612.425        1583.165          38.000  
C 6  36197846.709   188491687.561        1767.906          44.000  
C 8  36384362.105   189462921.988        1670.126          46.000  
C13  36326451.638   189161367.019        1819.757          47.000  
C14  25548538.416   133037930.233       -1355.419          41.000  
C16  36608620.367   190630698.413        1954.229          44.000  
C27  22464549.638   116978807.272        2775.365          50.000  
C28  22009601.836   114609770.583        -315.615          48.000  
C 4  38715007.846   201599203.564        1152.722          38.000  
C 1  37754408.365   196597114.258        1176.064          41.000  
C 3  36314371.655   189098464.190        1143.744          42.000  
C 2  37235032.823   193892584.215        1182.881          38.000  
C25  26533452.123   138166640.714        3160.506          38.000  
G18  24734840.731   129982467.675        4163.022          40.000  
G12  25575822.215   134401857.112        -967.041          30.000  
G25  25597113.226   134513678.661        -825.897          34.000  
C 5  39266482.750   204470879.328        1178.888          36.000  
C 9  37673395.624   196175275.955        2260.469          37.000  
> 2020  5 30 12 31 39.0000000  0 24                     
G 2  21640504.812   113721624.084         165.155          45.000  
G 5  21296102.114   111911771.924        -206.730          48.000  
G13  20276716.584   106554866.233        1974.348          46.000  
G29  21416588.539   112544933.146        2285.505          46.000  
G 6  24292736.323   127659187.094       -1353.298          37.000  
G15  21025233.552   110488346.768        3621.220          43.000  
G30  24378528.120   128110029.699        1582.025          38.000  
C 6  36197507.232   188489919.818        1767.286          44.000  
C 8  36384041.440   189461252.074        1669.381          46.000  
C13  36326102.214   189159547.576        1819.054          47.000  
C14  25548798.983   133039285.862       -1356.041          41.000  
C16  36608245.292   190628744.779        1953.106          44.000  
C27  22464016.674   116976032.366        2774.221          50.000  
C28  22009662.179   114610086.736        -316.781          48.000  
C 4  38714786.612   201598050.654        1152.557          38.000  
C 1  37754182.803   196595938.394        1175.552          41.000  
C 3  36314152.096   189097320.629        1143.236          42.000  
C 2  37234805.795   193891401.607        1182.506          38.000  
C25  26532845.135   138163480.419        3160.143          38.000  
G18  24734048.595   129978304.501        4163.108          39.000  
G12  25576001.534   134402823.521        -967.297          30.000  
G25  25597270.487   134514504.394        -825.708          34.000  
C 5  39266256.316   204469700.858        1178.567          36.000  
C 9  37672961.672   196173015.889        2259.905          37.000  
> 2020  5 30 12 31 40.0000000  0 24                     
G 2  21640473.646   113721458.935         164.824          45.000  
G 5  21296141.552   111911978.480        -206.829          48.000  
G13  20276340.671   106552891.977        1973.640          46.000  
G29  21416153.574   112542647.710        2284.806          46.000  
G 6  24292993.784   127660540.191       -1353.751          37.000  
G15  21024544.513   110484725.513        3620.697          43.000  
G30  24378226.790   128108447.625        1581.676          39.000  
C 6  36197167.965   188488152.409        1767.151          44.000  
C 8  36383720.739   189459582.371        1669.343          46.000  
C13  36325752.582   189157728.283        1819.116          47.000  
C14  25549059.305   133040641.600       -1355.982          41.000  
C16  36607870.322   190626791.456        1953.041          44.000  
C27  22463483.919   116973258.070        2773.882          50.000  
C28  22009723.394   114610403.546        -317.092          48.000  
C 4  38714565.239   201596897.930        1152.240          38.000  
C 1  37753957.277   196594762.722        1175.349          41.000  
C 3  36313932.607   189096177.257        1143.075          42.000  
C 2  37234578.524   193890219.252        1182.040          38.000  
C25  26532238.042   138160320.211        3160.179          37.000  
G18  24733256.251   129974141.468        4162.726          39.000  
G12  25576182.737   134403789.845        -965.863          30.000  
G25  25597427.539   134515330.230        -825.656          34.000  
C 5  39266029.952   204468522.589        1178.217          36.000  
C 9  37672527.511   196170756.139        2259.126          37.000  
> 2020  5 30 12 31 41.0000000  0 24                     
G 2  21640442.480   113721294.556         164.070          45.000  
G 5  21296180.850   111912185.505        -206.978          48.000  
G13  20275965.282   106550918.720        1973.020          46.000  
G29  21415718.994   112540363.262        2284.241          46.000  
G 6  24293251.349   127661893.882       -1353.689          37.000  
G15  21023855.404   110481105.095        3620.198          43.000  
G30  24377926.122   128106866.341        1581.357          39.000  
C 6  36196828.628   188486385.507        1766.933          44.000  
C 8  36383400.353   189457913.075        1669.263          46.000  
C13  36325403.298   189155909.350        1818.877          47.000  
C14  25549320.011   133041997.604       -1355.889          42.000  
C16  36607495.352   190624838.645        1952.895          44.000  
C27  22462951.268   116970484.568        2773.342          50.000  
C28  22009784.225   114610721.205        -317.909          48.000  
C 4  38714344.110   201595745.555        1152.826          38.000  
C 1  37753731.262   196593587.394        1175.207          41.000  
C 3  36313712.874   189095034.219        1143.438          42.000  
C 2  37234351.566   193889037.228        1181.916          38.000  
C25  26531631.019   138157160.305        3160.289          37.000  
G18  24732463.941   129969978.669        4162.968          39.000  
G12  25576364.114   134404756.319        -966.200          30.000  
G25  25597584.905   134516156.331        -825.360          34.000  
C 5  39265803.901   204467344.659        1178.103          36.000  
C 9  37672093.768   196168496.795        2259.651          37.000  
> 2020  5 30 12 31 42.0000000  0 24                     
G 2  21640411.069   113721130.887         163.565          45.000  
G 5  21296220.287   111912393.007        -207.472          48.000  
G13  20275589.998   106548946.483        1972.053          46.000  
G29  21415284.379   112538079.826        2283.134          46.000  
G 6  24293509.019   127663248.158       -1354.084          37.000  
G15  21023166.644   110477485.544        3619.301          43.000  
G30  24377625.455   128105285.873        1580.171          39.000  
C 6  36196489.466   188484619.094        1766.394          44.000  
C 8  36383079.933   189456244.138        1669.005          46.000  
C13  36325053.945   189154090.761        1818.471          47.000  
C14  25549580.334   133043353.883       -1355.982          42.000  
C16  36607120.556   190622886.340        1952.229          44.000  
C27  22462418.688   116967711.843        2772.611          50.000  
C28  22009845.720   114611039.677        -318.680          48.000  
C 4  38714122.911   201594593.535        1152.258          38.000  
C 1  37753505.525   196592412.380        1175.475          41.000  
C 3  36313493.420   189093891.568        1142.524          42.000  
C 2  37234124.644   193887855.527        1181.433          38.000  
C25  26531023.960   138154000.652        3159.427          37.000  
G18  24731671.806   129965816.135        4162.793          39.000  
G12  25576549.017   134405722.920        -965.997          30.000  
G25  25597742.132   134516982.749        -826.656          34.000  
C 5  39265577.712   204466167.119        1177.163          36.000  
C 9  37671659.921   196166237.960        2258.947          37.000  
> 2020  5 30 12 31 43.0000000  0 24                     
G 2  21640379.938   113720967.606         163.013          45.000  
G 5  21296259.864   111912600.601        -207.673          48.000  
G13  20275214.783   106546974.880        1971.464          46.000  
G29  21414849.973   112535797.009        2282.494          46.000  
G 6  24293766.759   127664602.663       -1354.270          37.000  
G15  21022477.744   110473866.454        3618.878          43.000  
G30  24377324.962   128103705.837        1579.571          38.000  
C 6  36196150.268   188482852.809        1766.240          44.000  
C 8  36382759.198   189454575.219        1668.916          46.000  
C13  36324704.941   189152272.132        1818.688          47.000  
C14  25549840.621   133044710.069       -1356.163          42.000  
C16  36606745.516   190620934.165        1952.271          44.000  
C27  22461886.386   116964939.541        2772.183          50.000  
C28  22009907.075   114611358.619        -319.183          48.000  
C 4  38713901.642   201593441.504        1152.240          38.000  
C 1  37753279.929   196591237.385        1175.064          41.000  
C 3  36313273.861   189092748.866        1142.725          42.000  
C 2  37233897.756   193886673.812        1181.618          38.000  
C25  26530417.286   138150840.872        3159.780          37.000  
G18  24730879.741   129961653.503        4162.913          39.000  
G12  25576738.631   134406689.214        -966.158          30.000  
G25  25597899.254   134517808.984        -825.217          34.000  
C 5  39265351.487   204464989.498        1177.648          36.000  
C 9  37671226.353   196163979.230        2258.748          37.000  
> 2020  5 30 12 31 44.0000000  0 24                     
G 2  21640349.156   113720804.489         162.865          45.000  
G 5  21296299.651   111912808.100        -207.599          48.000  
G13  20274839.778   106545003.737        1970.811          46.000  
G29  21414415.742   112533514.614        2282.034          46.000  
G 6  24294024.568   127665957.181       -1353.418          37.000  
G15  21021789.019   110470247.651        3618.433          43.000  
G30  24377023.981   128102126.033        1579.674          38.000  
C 6  36195811.176   188481086.468        1766.144          44.000  
C 8  36382438.637   189452906.113        1669.088          46.000  
C13  36324355.762   189150453.261        1818.875          47.000  
C14  25550101.257   133046065.960       -1355.903          42.000  
C16  36606370.650   190618981.926        1952.301          44.000  
C27  22461353.910   116962167.471        2771.799          50.000  
C28  22009968.011   114611677.830        -319.511          48.000  
C 4  38713680.373   201592289.259        1152.100          38.000  
C 1  37753053.984   196590062.179        1175.118          41.000  
C 3  36313054.407   189091605.972        1142.897          42.000  
C 2  37233670.833   193885491.903        1181.687          38.000  
C25  26529810.472   138147680.819        3159.816          37.000  
G18  24730087.152   129957490.550        4163.195          39.000  
G12  25576919.729   134407655.053        -965.281          30.000  
G25  25598057.457   134518635.008        -825.696          34.000  
C 5  39265125.612   204463811.733        1177.403          36.000  
C 9  37670792.575   196161720.382        2259.037          37.000  
> 2020  5 30 12 31 45.0000000  0 24                     
G 2  21640318.443   113720642.031         161.785          45.000  
G 5  21296338.704   111913015.968        -208.295          48.000  
G13  20274464.807   106543033.514        1969.479          46.000  
G29  21413981.441   112531233.123        2280.830          46.000  
G 6  24294282.761   127667312.267       -1355.559          37.000  
G15  21021100.643   110466629.614        3617.418          43.000  
G30  24376723.279   128100546.936        1578.419          38.000  
C 6  36195472.223   188479320.516        1765.454          44.000  
C 8  36382118.181   189451237.314        1668.297          46.000  
C13  36324006.513   189148634.645        1818.229          47.000  
C14  25550361.929   133047422.046       -1356.545          42.000  
C16  36605995.750   190617030.105        1951.487          44.000  
C27  22460821.679   116959396.100        2770.694          50.000  
C28  22010029.750   114611997.778        -320.588          48.000  
C 4  38713458.895   201591137.261        1151.642          38.000  
C 1  37752828.422   196588887.200        1174.839          41.000  
C 3  36312834.954   189090463.332        1142.222          42.000  
C 2  37233443.876   193884310.226        1181.373          38.000  
C25  26529203.205   138144520.926        3159.673          37.000  
G18  24729295.191   129953327.815        4162.101          39.000  
G12  25577102.538   134408620.938        -965.536          30.000  
G25  25598213.637   134519461.169        -826.140          34.000  
C 5  39264899.561   204462634.183        1176.670          36.000  
C 9  37670358.693   196159461.928        2257.524          37.000  
> 2020  5 30 12 31 46.0000000  0 24                     
G 2  21640287.905   113720480.532         161.438          45.000  
G 5  21296378.456   111913224.541        -208.672          48.000  
G13  20274090.151   106541064.539        1968.633          46.000  
G29  21413547.768   112528952.866        2279.880          46.000  
G 6  24294540.746   127668668.120       -1355.862          37.000  
G15  21020412.406   110463012.679        3616.606          43.000  
G30  24376422.681   128098968.865        1577.887          38.000  
C 6  36195133.235   188477555.305        1765.311          44.000  
C 8  36381797.830   189449569.106        1668.192          46.000  
C13  36323657.334   189146816.589        1818.104          47.000  
C14  25550622.251   133048778.620       -1356.526          41.000  
C16  36605620.919   190615079.017        1951.079          44.000  
C27  22460289.587   116956625.727        2770.143          50.000  
C28  22010091.419   114612318.782        -321.183          48.000  
C 4  38713237.801   201589985.843        1151.532          38.000  
C 1  37752602.861   196587712.815        1174.403          41.000  
C 3  36312615.674   189089321.281        1141.954          42.000  
C 2  37233217.023   193883129.146        1181.241          38.000  
C25  26528596.391   138141361.567        3159.121          37.000  
G18  24728503.230   129949165.525        4162.332          39.000  
G12  25577289.220   134409587.126        -965.986          31.000  
G25  25598373.306   134520287.833        -826.451          34.000  
C 5  39264673.546   204461457.219        1176.394          36.000  
C 9  37669925.020   196157204.110        2258.200          37.000  
> 2020  5 30 12 31 47.0000000  0 24                     
G 2  21640257.228   113720319.342         160.742          45.000  
G 5  21296418.173   111913433.138        -208.990          48.000  
G13  20273715.495   106539096.126        1967.834          46.000  
G29  21413113.886   112526673.153        2279.141          46.000  
G 6  24294798.904   127670024.137       -1356.243          37.000  
G15  21019723.995   110459396.146        3616.083          43.000  
G30  24376122.538   128097391.158        1577.219          39.000  
C 6  36194794.247   188475790.160        1764.820          44.000  
C 8  36381477.374   189447900.863        1668.063          46.000  
C13  36323308.295   189144998.450        1817.911          47.000  
C14  25550882.504   133050135.039       -1356.610          42.000  
C16  36605246.193   190613128.005        1950.726          44.000  
C27  22459757.599   116953855.708        2769.604          50.000  
C28  22010152.879   114612640.187        -321.892          48.000  
C 4  38713016.637   201588834.332        1151.392          38.000  
C 1  37752377.404   196586538.345        1174.254          41.000  
C 3  36312396.499   189088179.129        1141.880          42.000  
C 2  37232989.856   193881947.999        1180.723          38.000  
C25  26527989.786   138138201.999        3159.125          37.000  
G18  24727710.991   129945003.068        4162.532          40.000  
G12  25577472.587   134410552.975        -966.353          31.000  
G25  25598528.648   134521114.338        -826.688          34.000  
C 5  39264447.601   204460280.148        1177.088          36.000  
C 9  37669491.452   196154946.360        2257.396          37.000  
> 2020  5 30 12 31 48.0000000  0 24                     
G 2  21640226.655   113720158.877         159.869          45.000  
G 5  21296457.785   111913642.183        -209.480          48.000  
G13  20273341.013   106537128.714        1966.622          46.000  
G29  21412680.248   112524394.431        2277.847          46.000  
G 6  24295057.272   127671380.730       -1356.965          37.000  
G15  21019036.352   110455780.463        3614.722          43.000  
G30  24375822.848   128095814.252        1576.496          39.000  
C 6  36194455.364   188474025.481        1764.017          44.000  
C 8  36381157.163   189446232.997        1667.445          46.000  
C13  36322958.942   189143180.621        1817.334          47.000  
C14  25551143.001   133051491.703       -1356.771          41.000  
C16  36604871.677   190611177.465        1949.880          44.000  
C27  22459225.856   116951086.466        2768.534          50.000  
C28  22010215.036   114612962.399        -322.993          48.000  
C 4  38712795.612   201587683.165        1150.549          38.000  
C 1  37752151.738   196585364.193        1173.575          41.000  
C 3  36312176.906   189087037.317        1141.357          42.000  
C 2  37232763.247   193880767.146        1180.373          38.000  
C25  26527382.938   138135042.699        3158.692          37.000  
G18  24726919.065   129940840.893        4161.668          39.000  
G12  25577656.722   134411518.886        -966.105          31.000  
G25  25598685.351   134521941.074        -827.607          34.000  
C 5  39264221.690   204459103.450        1175.966          36.000  
C 9  37669058.198   196152689.063        2256.754          37.000  
> 2020  5 30 12 31 49.0000000  0 24                     
G 2  21640196.048   113719998.870         159.866          45.000  
G 5  21296497.850   111913851.412        -209.270          48.000  
G13  20272966.881   106535162.021        1966.387          46.000  
G29  21412246.785   112522116.401        2277.875          46.000  
G 6  24295315.430   127672737.642       -1356.835          37.000  
G15  21018348.185   110452165.323        3614.963          43.000  
G30  24375522.878   128094237.868        1576.200          39.000  
C 6  36194116.585   188472261.025        1764.243          44.000  
C 8  36380836.812   189444565.200        1667.738          46.000  
C13  36322610.007   189141362.846        1817.887          47.000  
C14  25551403.428   133052848.375       -1356.401          42.000  
C16  36604497.300   190609227.147        1950.212          44.000  
C27  22458694.043   116948317.719        2768.606          50.000  
C28  22010276.950   114613285.160        -322.998          48.000  
C 4  38712574.518   201586532.057        1151.160          38.000  
C 1  37751926.351   196584190.119        1173.999          41.000  
C 3  36311957.731   189085895.573        1141.929          42.000  
C 2  37232536.325   193879586.373        1180.810          38.000  
C25  26526776.194   138131883.355        3159.500          37.000  
G18  24726126.860   129936678.634        4162.515          39.000  
G12  25577840.124   134412484.589        -965.180          31.000  
G25  25598842.542   134522767.760        -825.834          34.000  
C 5  39263995.605   204457926.783        1177.226          36.000  
C 9  37668624.630   196150431.927        2257.208          37.000  
> 2020  5 30 12 31 50.0000000  0 24                     
G 2  21640165.684   113719839.155         159.989          45.000  
G 5  21296537.358   111914060.675        -209.045          48.000  
G13  20272592.678   106533195.903        1965.976          46.000  
G29  21411813.252   112519838.948        2277.369          46.000  
G 6  24295573.798   127674094.722       -1356.995          37.000  
G15  21017660.507   110448550.596        3614.829          43.000  
G30  24375222.874   128092661.832        1576.246          39.000  
C 6  36193777.597   188470496.621        1764.701          44.000  
C 8  36380516.496   189442897.361        1667.986          46.000  
C13  36322260.933   189139544.981        1818.231          47.000  
C14  25551663.959   133054204.875       -1356.250          41.000  
C16  36604122.783   190607276.895        1950.463          44.000  
C27  22458162.196   116945549.322        2768.482          50.000  
C28  22010338.898   114613608.314        -323.049          48.000  
C 4  38712353.738   201585380.868        1151.038          38.000  
C 1  37751700.929   196583015.967        1174.187          41.000  
C 3  36311738.487   189084753.746        1142.236          42.000  
C 2  37232309.646   193878405.529        1181.561          38.000  
C25  26526169.554   138128723.843        3160.307          37.000  
G18  24725334.759   129932516.242        4162.712          39.000  
G12  25578023.909   134413450.002        -965.629          31.000  
G25  25598999.804   134523594.348        -827.152          34.000  
C 5  39263769.520   204456750.056        1177.227          36.000  
C 9  37668191.236   196148174.774        2257.942          37.000  
> 2020  5 30 12 31 51.0000000  0 24                     
G 2  21640135.425   113719679.876         158.899          45.000  
G 5  21296577.284   111914270.090        -209.493          48.000  
G13  20272218.895   106531230.478        1964.925          46.000  
G29  21411380.102   112517562.167        2276.343          46.000  
G 6  24295831.852   127675452.047       -1357.141          37.000  
G15  21016972.619   110444936.402        3613.848          43.000  
G30  24374923.219   128091086.300        1575.216          38.000  
C 6  36193438.749   188468732.413        1764.026          44.000  
C 8  36380196.214   189441229.576        1667.657          46.000  
C13  36321911.859   189137727.136        1817.820          47.000  
C14  25551924.386   133055561.309       -1356.479          41.000  
C16  36603748.197   190605326.828        1950.106          44.000  
C27  22457630.557   116942781.397        2767.695          50.000  
C28  22010401.056   114613931.985        -323.906          48.000  
C 4  38712132.679   201584229.698        1151.007          38.000  
C 1  37751475.262   196581841.817        1173.993          41.000  
C 3  36311519.207   189083611.955        1141.731          42.000  
C 2  37232082.863   193877224.719        1181.029          38.000  
C25  26525562.880   138125564.327        3159.541          37.000  
G18  24724542.903   129928353.785        4162.621          39.000  
G12  25578207.486   134414415.131        -965.200          31.000  
G25  25599156.891   134524420.781        -826.142          33.000  
C 5  39263543.505   204455573.376        1176.255          36.000  
C 9  37667758.122   196145917.824        2256.992          37.000  
> 2020  5 30 12 31 52.0000000  0 24                     
G 2  21640105.167   113719521.354         158.356          45.000  
G 5  21296617.349   111914479.989        -209.883          48.000  
G13  20271844.902   106529266.092        1963.987          46.000  
G29  21410946.709   112515286.403        2275.262          46.000  
G 6  24296090.150   127676810.010       -1358.374          37.000  
G15  21016284.941   110441323.090        3613.002          43.000  
G30  24374623.459   128089511.564        1574.728          39.000  
C 6  36193100.075   188466968.711        1763.741          44.000  
C 8  36379876.038   189439562.206        1667.324          46.000  
C13  36321562.715   189135909.656        1817.499          47.000  
C14  25552185.162   133056918.063       -1356.691          41.000  
C16  36603373.750   190603377.283        1949.615          44.000  
C27  22457099.303   116940014.287        2766.894          50.000  
C28  22010463.423   114614256.514        -324.850          48.000  
C 4  38711911.549   201583078.916        1150.604          38.000  
C 1  37751250.190   196580668.059        1173.812          41.000  
C 3  36311300.102   189082470.545        1141.312          42.000  
C 2  37231856.080   193876044.281        1180.513          38.000  
C25  26524956.101   138122405.081        3159.470          37.000  
G18  24723750.873   129924191.601        4162.419          39.000  
G12  25578390.992   134415380.421        -965.217          31.000  
G25  25599314.257   134525247.599        -826.978          33.000  
C 5  39263317.385   204454397.039        1176.704          36.000  
C 9  37667324.554   196143661.334        2256.724          37.000  
> 2020  5 30 12 31 53.0000000  0 24                     
G 2  21640075.048   113719363.174         157.918          45.000  
G 5  21296657.241   111914689.961        -210.103          48.000  
G13  20271471.118   106527302.324        1963.287          46.000  
G29  21410513.874   112513011.232        2274.730          46.000  
G 6  24296348.658   127678168.164       -1358.359          37.000  
G15  21015597.333   110437710.210        3612.589          43.000  
G30  24374323.769   128087937.279        1574.077          39.000  
C 6  36192761.297   188465205.119        1763.495          44.000  
C 8  36379555.966   189437894.824        1667.196          46.000  
C13  36321213.676   189134092.101        1817.518          47.000  
C14  25552445.485   133058274.689       -1356.714          41.000  
C16  36602999.547   190601427.864        1949.088          44.000  
C27  22456568.188   116937247.571        2766.347          50.000  
C28  22010525.546   114614581.470        -325.258          48.000  
C 4  38711690.455   201581928.072        1150.958          38.000  
C 1  37751024.768   196579494.265        1173.459          41.000  
C 3  36311080.788   189081329.077        1141.458          42.000  
C 2  37231629.542   193874863.838        1180.294          38.000  
C25  26524349.462   138119245.675        3159.909          37.000  
G18  24722958.773   129920029.306        4162.192          39.000  
G12  25578574.429   134416345.402        -964.967          31.000  
G25  25599471.693   134526074.266        -826.846          33.000  
C 5  39263091.300   204453220.646        1176.612          36.000  
C 9  37666891.265   196141404.921        2256.399          37.000  
> 2020  5 30 12 31 54.0000000  0 24                     
G 2  21640045.033   113719205.413         157.740          45.000  
G 5  21296697.167   111914900.081        -210.262          48.000  
G13  20271097.613   106525339.247        1962.588          46.000  
G29  21410081.283   112510736.743        2274.019          46.000  
G 6  24296607.375   127679526.584       -1358.403          37.000  
G15  21014909.829   110434097.870        3612.099          43.000  
G30  24374024.289   128086363.449        1573.699          39.000  
C 6  36192422.623   188463441.699        1763.347          44.000  
C 8  36379235.754   189436227.515        1667.180          46.000  
C13  36320864.706   189132274.578        1817.448          47.000  
C14  25552706.156   133059631.268       -1356.386          41.000  
C16  36602625.205   190599478.606        1949.110          44.000  
C27  22456036.794   116934481.320        2765.898          49.000  
C28  22010588.297   114614906.948        -325.850          48.000  
C 4  38711469.431   201580777.263        1150.720          38.000  
C 1  37750799.206   196578320.466        1173.926          41.000  
C 3  36310861.683   189080187.652        1141.282          42.000  
C 2  37231402.933   193873683.396        1180.216          38.000  
C25  26523742.857   138116086.268        3159.314          37.000  
G18  24722166.533   129915866.958        4162.067          39.000  
G12  25578757.935   134417310.178        -965.151          31.000  
G25  25599628.989   134526900.872        -827.224          33.000  
C 5  39262865.634   204452044.358        1176.101          36.000  
C 9  37666457.871   196139148.644        2256.164          37.000  
> 2020  5 30 12 31 55.0000000  0 24                     
G 2  21640014.810   113719048.225         157.360          45.000  
G 5  21296737.477   111915110.484        -210.159          48.000  
G13  20270724.179   106523376.984        1962.260          46.000  
G29  21409648.727   112508463.064        2273.678          46.000  
G 6  24296865.952   127680885.407       -1358.218          37.000  
G15  21014222.395   110430486.199        3611.791          43.000  
G30  24373724.633   128084790.249        1573.074          39.000  
C 6  36192084.089   188461678.597        1763.396          44.000  
C 8  36378915.403   189434560.386        1667.548          46.000  
C13  36320515.737   189130457.206        1817.709          47.000  
C14  25552966.548   133060987.940       -1356.207          41.000  
C16  36602250.933   190597529.676        1949.270          44.000  
C27  22455505.609   116931715.675        2765.751          49.000  
C28  22010651.013   114615233.060        -325.925          48.000  
C 4  38711248.406   201579626.644        1150.916          38.000  
C 1  37750573.959   196577146.860        1174.007          41.000  
C 3  36310642.334   189079046.396        1141.376          42.000  
C 2  37231176.150   193872503.139        1180.283          38.000  
C25  26523136.253   138112926.913        3159.688          37.000  
G18  24721374.398   129911704.641        4163.065          39.000  
G12  25578938.580   134418274.820        -963.954          30.000  
G25  25599786.250   134527727.562        -826.679          33.000  
C 5  39262639.619   204450868.176        1176.623          36.000  
C 9  37666024.687   196136892.674        2255.712          37.000  
> 2020  5 30 12 31 56.0000000  0 24                     
G 2  21639984.935   113718891.603         155.906          45.000  
G 5  21296777.333   111915321.181        -211.315          48.000  
G13  20270350.884   106521415.569        1960.602          46.000  
G29  21409215.961   112506190.218        2271.996          46.000  
G 6  24297124.669   127682244.657       -1359.399          37.000  
G15  21013535.136   110426875.191        3610.252          43.000  
G30  24373425.502   128083217.672        1571.614          39.000  
C 6  36191745.380   188459915.820        1762.234          44.000  
C 8  36378595.261   189432893.488        1666.271          46.000  
C13  36320166.663   189128639.966        1816.682          47.000  
C14  25553227.115   133062344.717       -1357.083          41.000  
C16  36601876.800   190595581.084        1947.959          44.000  
C27  22454974.739   116928950.643        2764.248          49.000  
C28  22010713.589   114615559.850        -327.563          48.000  
C 4  38711027.487   201578476.186        1150.098          38.000  
C 1  37750348.607   196575973.433        1173.008          41.000  
C 3  36310423.299   189077905.313        1140.632          42.000  
C 2  37230949.716   193871323.053        1179.416          38.000  
C25  26522529.439   138109767.656        3158.936          37.000  
G18  24720582.402   129907542.468        4161.695          40.000  
G12  25579116.014   134419239.399        -964.338          30.000  
G25  25599943.442   134528554.363        -827.956          33.000  
C 5  39262413.708   204449692.223        1175.388          36.000  
C 9  37665591.398   196134636.979        2254.667          37.000  
> 2020  5 30 12 31 57.0000000  0 24                     
G 2  21639955.304   113718735.561         155.580          45.000  
G 5  21296817.538   111915532.212        -211.326          48.000  
G13  20269977.868   106519455.025        1960.052          46.000  
G29  21408783.824   112503918.217        2271.356          46.000  
G 6  24297383.595   127683604.378       -1360.067          37.000  
G15  21012848.016   110423264.900        3609.740          43.000  
G30  24373126.265   128081645.742        1571.476          39.000  
C 6  36191407.125   188458153.390        1762.192          44.000  
C 8  36378275.120   189431226.843        1666.192          46.000  
C13  36319817.798   189126822.934        1816.810          47.000  
C14  25553487.542   133063701.629       -1357.194          41.000  
C16  36601502.563   190593632.846        1947.798          44.000  
C27  22454443.659   116926186.252        2763.915          49.000  
C28  22010776.689   114615887.304        -327.910          48.000  
C 4  38710806.671   201577325.936        1149.957          38.000  
C 1  37750123.359   196574800.200        1173.012          41.000  
C 3  36310204.333   189076764.443        1140.576          42.000  
C 2  37230723.073   193870143.173        1179.564          38.000  
C25  26521922.869   138106608.544        3158.858          37.000  
G18  24719790.476   129903380.403        4161.700          40.000  
G12  25579307.547   134420203.915        -963.265          30.000  
G25  25600100.354   134529381.235        -827.407          33.000  
C 5  39262188.042   204448516.415        1175.771          36.000  
C 9  37665158.249   196132381.561        2255.303          37.000  
> 2020  5 30 12 31 58.0000000  0 24                     
G 2  21639925.604   113718579.583         155.871          45.000  
G 5  21296857.569   111915743.023        -210.646          48.000  
G13  20269604.782   106517494.803        1960.176          46.000  
G29  21408351.617   112501646.529        2271.461          46.000  
G 6  24297642.417   127684964.000       -1359.686          37.000  
G15  21012161.350   110419654.768        3609.914          43.000  
G30  24372827.169   128080073.955        1571.552          39.000  
C 6  36191068.695   188456390.778        1762.947          44.000  
C 8  36377954.908   189429559.870        1667.168          46.000  
C13  36319468.724   189125005.557        1817.764          47.000  
C14  25553748.039   133065058.117       -1356.146          41.000  
C16  36601128.361   190591684.425        1948.520          44.000  
C27  22453912.998   116923421.962        2764.263          49.000  
C28  22010839.684   114616214.918        -327.563          48.000  
C 4  38710585.647   201576175.348        1150.647          38.000  
C 1  37749897.867   196573626.635        1173.509          41.000  
C 3  36309985.228   189075623.235        1141.326          42.000  
C 2  37230496.394   193868962.971        1180.392          38.000  
C25  26521316.090   138103449.000        3159.693          37.000  
G18  24718998.306   129899217.886        4162.810          40.000  
G12  25579484.841   134421167.906        -964.170          30.000  
G25  25600257.511   134530207.685        -825.289          33.000  
C 5  39261962.271   204447340.330        1176.250          36.000  
C 9  37664724.995   196130125.960        2255.771          37.000  
> 2020  5 30 12 31 59.0000000  0 24                     
G 2  21639895.869   113718423.646         156.091          45.000  
G 5  21296897.774   111915953.621        -210.332          48.000  
G13  20269231.941   106515534.909        1960.009          46.000  
G29  21407919.480   112499375.145        2271.462          46.000  
G 6  24297901.099   127686323.510       -1359.092          37.000  
G15  21011474.300   110416044.796        3609.815          43.000  
G30  24372528.107   128078502.272        1571.726          39.000  
C 6  36190729.952   188454627.988        1763.176          44.000  
C 8  36377634.662   189427892.603        1667.709          46.000  
C13  36319119.754   189123187.831        1818.104          47.000  
C14  25554008.745   133066414.204       -1355.596          41.000  
C16  36600754.367   190589735.829        1948.922          44.000  
C27  22453382.127   116920657.777        2764.404          49.000  
C28  22010902.540   114616542.692        -327.770          48.000  
C 4  38710364.553   201575024.435        1151.025          38.000  
C 1  37749672.515   196572452.744        1174.197          41.000  
C 3  36309765.739   189074481.696        1141.924          42.000  
C 2  37230269.541   193867782.428        1181.220          38.000  
C25  26520708.997   138100289.050        3160.241          37.000  
G18  24718205.997   129895054.967        4163.186          40.000  
G12  25579669.430   134422131.279        -962.979          30.000  
G25  25600414.563   134531033.737        -825.554          33.000  
C 5  39261736.500   204446163.856        1176.802          36.000  
C 9  37664291.950   196127870.131        2256.365          37.000  
> 2020  5 30 12 32  0.0000000  0 24                     
G 2  21639866.134   113718267.831         155.951          45.000  
G 5  21296937.770   111916164.068        -210.334          48.000  
G13  20268859.065   106513575.423        1959.298          46.000  
G29  21407487.517   112497104.146        2270.858          46.000  
G 6  24298159.781   127687683.020       -1359.465          37.000  
G15  21010787.634   110412435.040        3609.939          43.000  
G30  24372229.045   128076930.760        1571.695          39.000  
C 6  36190391.487   188452865.083        1762.896          44.000  
C 8  36377314.660   189426225.103        1667.598          46.000  
C13  36318770.575   189121369.834        1818.110          47.000  
C14  25554268.963   133067769.961       -1355.594          41.000  
C16  36600379.921   190587787.123        1948.768          44.000  
C27  22452851.431   116917893.776        2764.069          49.000  
C28  22010965.850   114616870.663        -328.009          48.000  
C 4  38710143.458   201573873.232        1151.306          38.000  
C 1  37749447.024   196571278.577        1174.308          41.000  
C 3  36309546.809   189073339.906        1142.006          42.000  
C 2  37230043.003   193866601.648        1180.665          38.000  
C25  26520102.079   138097128.743        3160.727          37.000  
G18  24717413.687   129890891.691        4163.577          40.000  
G12  25579853.983   134423094.113        -962.481          30.000  
G25  25600571.370   134531859.436        -825.223          33.000  
C 5  39261510.415   204444987.196        1176.652          36.000  
C 9  37663858.557   196125614.177        2256.155          37.000  
> 2020  5 30 12 32  1.0000000  0 24                     
G 2  21639836.748   113718112.429         155.160          45.000  
G 5  21296977.836   111916374.638        -210.518          48.000  
G13  20268486.119   106511616.584        1958.608          46.000  
G29  21407055.520   112494833.786        2270.214          46.000  
G 6  24298418.463   127689042.735       -1359.453          37.000  
G15  21010100.724   110408825.810        3609.200          43.000  
G30  24371930.018   128075359.725        1570.892          39.000  
C 6  36190052.813   188451102.325        1762.789          44.000  
C 8  36376994.309   189424557.642        1667.515          46.000  
C13  36318421.362   189119551.845        1818.150          47.000  
C14  25554529.285   133069125.617       -1355.352          41.000  
C16  36600005.683   190585838.575        1948.490          44.000  
C27  22452320.386   116915130.216        2763.420          49.000  
C28  22011028.810   114617199.129        -328.590          48.000  
C 4  38709922.399   201572722.063        1151.031          38.000  
C 1  37749221.532   196570104.432        1174.257          41.000  
C 3  36309327.460   189072198.119        1141.936          42.000  
C 2  37229816.290   193865420.854        1180.835          38.000  
C25  26519495.230   138093968.369        3160.560          37.000  
G18  24716621.482   129886728.321        4163.513          40.000  
G12  25580037.420   134424056.686        -962.141          30.000  
G25  25600728.702   134532685.093        -825.445          33.000  
C 5  39261284.225   204443810.507        1176.705          36.000  
C 9  37663425.547   196123358.318        2256.069          37.000  
> 2020  5 30 12 32  2.0000000  0 24                     
G 2  21639806.977   113717957.481         154.435          45.000  
G 5  21297017.832   111916585.406        -211.106          48.000  
G13  20268113.522   106509658.502        1957.477          46.000  
G29  21406623.662   112492564.166        2269.014          46.000  
G 6  24298677.389   127690402.819       -1360.758          37.000  
G15  21009414.406   110405217.158        3608.081          43.000  
G30  24371631.236   128073789.200        1570.245          39.000  
C 6  36189714.384   188449339.814        1762.052          44.000  
C 8  36376674.062   189422890.318        1667.094          46.000  
C13  36318072.113   189117733.926        1817.705          47.000  
C14  25554789.503   133070481.307       -1355.819          41.000  
C16  36599631.586   190583890.259        1948.002          44.000  
C27  22451789.830   116912367.183        2762.582          49.000  
C28  22011091.840   114617528.166        -329.743          48.000  
C 4  38709701.444   201571570.967        1150.696          38.000  
C 1  37748995.831   196568930.362        1173.691          41.000  
C 3  36309108.180   189071056.426        1141.229          42.000  
C 2  37229589.646   193864240.164        1180.285          38.000  
C25  26518888.416   138090807.993        3160.107          37.000  
G18  24715829.033   129882564.965        4163.211          39.000  
G12  25580220.752   134425019.076        -961.594          30.000  
G25  25600885.788   134533510.742        -826.532          33.000  
C 5  39261058.280   204442633.892        1176.339          36.000  
C 9  37662992.502   196121102.670        2255.230          37.000  
> 2020  5 30 12 32  3.0000000  0 24                     
G 2  21639777.766   113717803.164         154.419          45.000  
G 5  21297058.002   111916796.524        -210.948          48.000  
G13  20267740.785   106507701.312        1957.221          46.000  
G29  21406191.699   112490295.418        2268.820          46.000  
G 6  24298936.455   127691763.378       -1360.549          37.000  
G15  21008727.915   110401609.240        3607.977          43.000  
G30  24371332.802   128072219.399        1569.648          39.000  
C 6  36189376.094   188447577.673        1762.364          44.000  
C 8  36376353.990   189421223.247        1667.503          46.000  
C13  36317723.178   189115916.221        1818.093          47.000  
C14  25555050.104   133071837.139       -1355.401          41.000  
C16  36599257.453   190581942.328        1948.242          44.000  
C27  22451259.448   116909604.808        2762.509          49.000  
C28  22011155.219   114617857.914        -329.798          48.000  
C 4  38709480.455   201570420.100        1151.202          38.000  
C 1  37748770.339   196567756.506        1174.172          41.000  
C 3  36308888.796   189069914.947        1141.902          42.000  
C 2  37229363.107   193863059.712        1180.610          38.000  
C25  26518281.637   138087647.754        3160.786          37.000  
G18  24715036.862   129878401.740        4163.687          39.000  
G12  25580403.037   134425981.468        -960.935          30.000  
G25  25601043.748   134534336.500        -824.978          33.000  
C 5  39260832.334   204441457.512        1176.721          36.000  
C 9  37662559.353   196118847.366        2255.627          37.000  
> 2020  5 30 12 32  4.0000000  0 24                     
G 2  21639748.589   113717648.773         154.571          45.000  
G 5  21297098.277   111917007.307        -210.686          48.000  
G13  20267368.502   106505744.340        1956.903          46.000  
G29  21405760.085   112488026.867        2268.555          46.000  
G 6  24299195.347   127693123.695       -1360.342          37.000  
G15  21008041.423   110398001.365        3607.935          43.000  
G30  24371034.124   128070649.580        1569.912          39.000  
C 6  36189037.595   188445815.225        1762.522          44.000  
C 8  36376033.849   189419555.764        1667.657          46.000  
C13  36317373.930   189114098.051        1818.333          47.000  
C14  25555310.217   133073192.444       -1355.166          41.000  
C16  36598883.181   190579994.114        1948.316          44.000  
C27  22450728.857   116906842.430        2762.478          49.000  
C28  22011218.564   114618187.680        -329.715          48.000  
C 4  38709259.116   201569268.785        1151.733          38.000  
C 1  37748544.917   196566582.214        1174.664          41.000  
C 3  36308669.517   189068773.032        1142.208          42.000  
C 2  37229136.150   193861878.787        1181.208          38.000  
C25  26517674.753   138084487.021        3161.036          37.000  
G18  24714244.483   129874237.981        4163.928          40.000  
G12  25580591.779   134426943.190        -961.547          30.000  
G25  25601199.508   134535161.727        -824.617          33.000  
C 5  39260606.389   204440280.706        1176.947          36.000  
C 9  37662126.239   196116591.693        2256.252          37.000  
> 2020  5 30 12 32  5.0000000  0 24                     
G 2  21639719.482   113717494.508         154.134          45.000  
G 5  21297138.203   111917217.919        -210.439          48.000  
G13  20266995.905   106503787.741        1956.377          46.000  
G29  21405328.262   112485758.683        2267.972          46.000  
G 6  24299454.064   127694484.003       -1360.560          37.000  
G15  21007354.967   110394393.707        3607.452          43.000  
G30  24370735.341   128069079.930        1569.435          39.000  
C 6  36188698.991   188444052.641        1762.790          44.000  
C 8  36375713.567   189417888.017        1667.794          46.000  
C13  36317024.786   189112279.585        1818.407          47.000  
C14  25555570.435   133074547.399       -1354.711          41.000  
C16  36598509.013   190578045.771        1948.329          44.000  
C27  22450198.440   116904080.217        2762.043          49.000  
C28  22011281.768   114618517.672        -330.247          48.000  
C 4  38709037.882   201568117.221        1151.385          38.000  
C 1  37748319.530   196565407.668        1174.351          41.000  
C 3  36308450.133   189067630.849        1142.177          42.000  
C 2  37228909.332   193860697.618        1181.240          38.000  
C25  26517067.835   138081325.918        3160.951          37.000  
G18  24713452.103   129870073.858        4164.235          40.000  
G12  25580772.458   134427904.368        -960.899          30.000  
G25  25601356.177   134535986.653        -825.749          33.000  
C 5  39260380.479   204439103.608        1177.510          36.000  
C 9  37661693.020   196114335.890        2255.607          37.000  
> 2020  5 30 12 32  6.0000000  0 24                     
G 2  21639690.026   113717340.784         153.459          45.000  
G 5  21297178.409   111917428.827        -211.200          48.000  
G13  20266623.622   106501831.972        1955.150          46.000  
G29  21404896.718   112483491.298        2267.009          46.000  
G 6  24299712.746   127695844.709       -1361.030          37.000  
G15  21006668.545   110390786.709        3606.780          43.000  
G30  24370436.698   128067510.908        1568.434          39.000  
C 6  36188360.701   188442290.382        1761.882          44.000  
C 8  36375393.391   189416220.474        1667.283          46.000  
C13  36316675.607   189110461.276        1818.184          47.000  
C14  25555830.618   133075902.437       -1354.958          41.000  
C16  36598134.811   190576097.732        1947.865          44.000  
C27  22449668.337   116901318.597        2761.103          49.000  
C28  22011345.496   114618848.284        -330.962          48.000  
C 4  38708816.788   201566965.776        1151.721          38.000  
C 1  37748093.864   196564233.237        1174.470          41.000  
C 3  36308230.853   189066488.820        1141.790          42.000  
C 2  37228682.514   193859516.600        1181.034          38.000  
C25  26516460.811   138078164.864        3161.009          37.000  
G18  24712659.654   129865909.804        4163.982          40.000  
G12  25580953.347   134428865.361        -960.398          30.000  
G25  25601514.904   134536811.520        -824.315          33.000  
C 5  39260154.533   204437926.695        1176.656          36.000  
C 9  37661259.870   196112080.331        2255.527          37.000  
> 2020  5 30 12 32  7.0000000  0 24                     
G 2  21639660.814   113717187.244         153.111          45.000  
G 5  21297218.684   111917639.635        -211.091          48.000  
G13  20266251.653   106499876.639        1954.838          46.000  
G29  21404465.384   112481224.360        2266.415          46.000  
G 6  24299971.812   127697205.431       -1361.008          37.000  
G15  21005982.193   110387180.013        3606.135          43.000  
G30  24370138.474   128065942.119        1568.368          39.000  
C 6  36188022.236   188440528.046        1762.063          44.000  
C 8  36375073.110   189414552.755        1667.579          46.000  
C13  36316326.463   189108642.751        1818.257          47.000  
C14  25556090.835   133077257.194       -1355.032          41.000  
C16  36597760.852   190574149.655        1947.708          44.000  
C27  22449138.025   116898557.205        2760.883          49.000  
C28  22011409.050   114619179.179        -331.379          48.000  
C 4  38708595.694   201565814.164        1151.495          38.000  
C 1  37747868.128   196563058.635        1174.241          41.000  
C 3  36308011.574   189065346.586        1142.129          42.000  
C 2  37228455.487   193858335.394        1180.871          38.000  
C25  26515853.649   138075003.553        3161.209          37.000  
G18  24711867.310   129861745.448        4164.224          40.000  
G12  25581136.679   134429826.039        -960.997          30.000  
G25  25601670.141   134537636.228        -825.066          33.000  
C 5  39259928.169   204436749.540        1177.148          36.000  
C 9  37660826.791   196109824.719        2255.234          37.000  
> 2020  5 30 12 32  8.0000000  0 24                     
G 2  21639631.812   113717033.988         153.596          45.000  
G 5  21297258.784   111917850.462        -210.458          48.000  
G13  20265879.684   106497921.878        1954.945          46.000  
G29  21404034.154   112478957.958        2266.549          46.000  
G 6  24300230.668   127698566.284       -1360.205          37.000  
G15  21005296.050   110383573.702        3606.498          43.000  
G30  24369840.110   128064373.674        1568.682          39.000  
C 6  36187683.807   188438765.779        1762.628          44.000  
C 8  36374752.724   189412884.975        1668.289          45.000  
C13  36315976.970   189106824.102        1818.903          47.000  
C14  25556350.669   133078611.749       -1353.757          41.000  
C16  36597386.720   190572201.626        1948.331          44.000  
C27  22448607.818   116895796.158        2761.162          49.000  
C28  22011472.499   114619510.453        -331.166          48.000  
C 4  38708374.635   201564662.434        1152.423          38.000  
C 1  37747642.811   196561883.919        1174.960          41.000  
C 3  36307792.259   189064204.262        1142.645          42.000  
C 2  37228228.634   193857154.054        1181.772          38.000  
C25  26515246.521   138071842.056        3161.991          37.000  
G18  24711075.000   129857580.925        4164.494          40.000  
G12  25581320.779   134430786.227        -959.307          31.000  
G25  25601827.786   134538460.694        -823.623          33.000  
C 5  39259702.084   204435572.319        1177.547          36.000  
C 9  37660393.921   196107569.100        2255.836          37.000  
> 2020  5 30 12 32  9.0000000  0 24                     
G 2  21639602.915   113716881.295         152.474          45.000  
G 5  21297299.164   111918061.573        -211.132          48.000  
G13  20265507.680   106495967.949        1953.514          46.000  
G29  21403603.203   112476692.373        2265.298          46.000  
G 6  24300489.804   127699927.596       -1361.682          37.000  
G15  21004609.594   110379968.055        3605.339          43.000  
G30  24369541.712   128062805.851        1567.963          39.000  
C 6  36187345.377   188437003.809        1761.934          44.000  
C 8  36374432.477   189411217.396        1667.645          46.000  
C13  36315627.826   189105005.596        1818.379          47.000  
C14  25556610.642   133079966.416       -1354.493          41.000  
C16  36597012.762   190570253.908        1947.661          44.000  
C27  22448077.505   116893035.704        2760.332          49.000  
C28  22011536.158   114619842.372        -332.271          48.000  
C 4  38708153.505   201563510.869        1151.611          38.000  
C 1  37747417.284   196560709.359        1174.611          41.000  
C 3  36307572.840   189063062.090        1142.213          42.000  
C 2  37228001.606   193855972.880        1181.551          38.000  
C25  26514639.253   138068680.640        3161.234          37.000  
G18  24710282.551   129853416.441        4164.529          39.000  
G12  25581508.438   134431746.419        -960.303          31.000  
G25  25601984.873   134539285.177        -824.249          33.000  
C 5  39259476.243   204434395.260        1176.700          36.000  
C 9  37659960.841   196105313.748        2255.294          37.000  
> 2020  5 30 12 32 10.0000000  0 24                     
G 2  21639573.947   113716729.003         152.062          45.000  
G 5  21297339.195   111918272.809        -211.349          48.000  
G13  20265135.642   106494014.672        1952.938          46.000  
G29  21403172.218   112474427.440        2264.656          46.000  
G 6  24300748.835   127701289.116       -1361.587          37.000  
G15  21003923.486   110376362.931        3604.631          43.000  
G30  24369243.557   128061238.499        1567.119          39.000  
C 6  36187006.948   188435241.998        1761.564          44.000  
C 8  36374111.986   189409549.854        1667.350          46.000  
C13  36315278.577   189103187.077        1818.414          47.000  
C14  25556870.930   133081321.019       -1354.570          41.000  
C16  36596638.768   190568306.357        1947.339          44.000  
C27  22447547.438   116890275.706        2759.802          49.000  
C28  22011600.409   114620174.772        -332.623          48.000  
C 4  38707932.341   201562359.313        1151.550          38.000  
C 1  37747191.583   196559534.818        1174.462          41.000  
C 3  36307353.317   189061919.933        1142.194          42.000  
C 2  37227774.719   193854791.726        1181.464          38.000  
C25  26514032.265   138065519.153        3161.451          37.000  
G18  24709489.892   129849251.892        4164.676          39.000  
G12  25581692.643   134432706.306        -959.790          31.000  
G25  25602142.623   134540109.683        -824.490          33.000  
C 5  39259250.193   204433218.185        1177.127          36.000  
C 9  37659527.797   196103058.545        2254.620          37.000  
> 2020  5 30 12 32 11.0000000  0 24                     
G 2  21639545.085   113716576.793         152.089          45.000  
G 5  21297379.296   111918483.859        -211.025          48.000  
G13  20264764.022   106492061.765        1952.729          46.000  
G29  21402741.337   112472162.868        2264.332          46.000  
G 6  24301007.796   127702650.603       -1361.433          37.000  
G15  21003237.553   110372757.997        3604.617          43.000  
G30  24368945.368   128059671.291        1567.333          39.000  
C 6  36186668.518   188433480.039        1762.160          44.000  
C 8  36373791.635   189407882.041        1667.848          46.000  
C13  36314929.468   189101368.269        1818.981          47.000  
C14  25557130.903   133082675.251       -1354.298          41.000  
C16  36596264.566   190566358.671        1947.549          44.000  
C27  22447017.335   116887515.846        2759.800          49.000  
C28  22011664.172   114620507.372        -332.725          48.000  
C 4  38707711.177   201561207.483        1151.697          38.000  
C 1  37746965.952   196558359.965        1175.333          41.000  
C 3  36307134.247   189060777.491        1142.557          42.000  
C 2  37227547.796   193853610.293        1181.406          38.000  
C25  26513425.032   138062357.272        3162.502          37.000  
G18  24708697.408   129845086.988        4164.948          39.000  
G12  25581870.042   134433665.675        -958.868          31.000  
G25  25602298.977   134540933.770        -823.976          33.000  
C 5  39259024.003   204432040.834        1177.650          36.000  
C 9  37659094.647   196100803.099        2255.535          37.000  
> 2020  5 30 12 32 12.0000000  0 24                     
G 2  21639516.082   113716424.454         152.349          45.000  
G 5  21297419.501   111918694.510        -210.583          48.000  
G13  20264392.437   106490108.995        1952.745          46.000  
G29  21402310.317   112469898.412        2264.257          46.000  
G 6  24301266.967   127704011.799       -1361.204          37.000  
G15  21002551.515   110369153.040        3604.741          43.000  
G30  24368647.109   128058104.044        1567.101          39.000  
C 6  36186330.158   188431717.714        1762.437          44.000  
C 8  36373471.563   189406213.745        1668.380          45.000  
C13  36314580.045   189099548.932        1819.491          47.000  
C14  25557390.876   133084028.883       -1353.484          41.000  
C16  36595890.678   190564410.604        1948.184          44.000  
C27  22446487.197   116884755.912        2759.886          49.000  
C28  22011727.866   114620839.927        -332.662          48.000  
C 4  38707490.013   201560055.098        1152.161          38.000  
C 1  37746740.390   196557184.624        1175.437          41.000  
C 3  36306914.583   189059634.515        1143.384          42.000  
C 2  37227320.769   193852428.326        1182.126          38.000  
C25  26512817.799   138059194.814        3162.663          37.000  
G18  24707904.644   129840921.437        4165.652          39.000  
G12  25582053.199   134434624.223        -957.672          31.000  
G25  25602455.470   134541757.203        -822.401          33.000  
C 5  39258797.744   204430862.960        1178.599          36.000  
C 9  37658661.428   196098547.311        2255.706          38.000  
> 2020  5 30 12 32 13.0000000  0 24                     
G 2  21639487.080   113716271.973         152.873          45.000  
G 5  21297459.427   111918904.745        -209.790          48.000  
G13  20264020.992   106488156.363        1952.746          46.000  
G29  21401879.576   112467634.068        2264.578          46.000  
G 6  24301526.033   127705372.703       -1360.382          37.000  
G15  21001865.338   110365548.037        3605.385          43.000  
G30  24368348.954   128056536.691        1567.513          39.000  
C 6  36185991.520   188429955.020        1763.146          44.000  
C 8  36373151.212   189404544.974        1669.341          45.000  
C13  36314230.517   189097729.045        1820.297          47.000  
C14  25557650.675   133085381.912       -1352.565          41.000  
C16  36595516.650   190562462.185        1948.826          44.000  
C27  22445957.478   116881995.901        2760.313          49.000  
C28  22011791.978   114621172.444        -332.239          48.000  
C 4  38707268.605   201558902.210        1153.284          38.000  
C 1  37746514.724   196556008.739        1176.604          41.000  
C 3  36306695.025   189058491.052        1144.039          42.000  
C 2  37227094.056   193851245.885        1182.613          38.000  
C25  26512210.287   138056031.772        3163.364          37.000  
G18  24707111.741   129836755.285        4166.479          39.000  
G12  25582237.369   134435582.013        -956.665          31.000  
G25  25602611.964   134542580.125        -822.901          32.000  
C 5  39258571.414   204429684.616        1178.612          36.000  
C 9  37658228.000   196096291.079        2257.095          38.000  
> 2020  5 30 12 32 14.0000000  0 24                     
G 2  21639458.078   113716119.795         151.920          45.000  
G 5  21297499.493   111919115.001        -210.237          48.000  
G13  20263649.372   106486204.291        1951.791          46.000  
G29  21401448.660   112465370.278        2263.445          46.000  
G 6  24301785.029   127706733.759       -1361.100          37.000  
G15  21001179.509   110361943.464        3604.218          43.000  
G30  24368050.870   128054969.706        1566.557          39.000  
C 6  36185653.160   188428192.376        1762.662          44.000  
C 8  36372830.791   189402876.138        1668.792          45.000  
C13  36313880.989   189095909.067        1819.889          47.000  
C14  25557910.544   133086734.772       -1352.834          41.000  
C16  36595142.517   190560513.818        1948.309          44.000  
C27  22445427.620   116879236.233        2759.374          49.000  
C28  22011855.671   114621505.351        -333.082          48.000  
C 4  38707047.371   201557749.216        1153.223          38.000  
C 1  37746288.709   196554832.771        1175.779          41.000  
C 3  36306475.396   189057347.488        1143.531          42.000  
C 2  37226866.819   193850063.314        1182.415          38.000  
C25  26511603.124   138052868.533        3163.465          37.000  
G18  24706319.187   129832588.946        4166.111          39.000  
G12  25582420.177   134436539.458        -956.990          32.000  
G25  25602768.388   134543402.797        -822.679          32.000  
C 5  39258345.295   204428506.126        1178.609          36.000  
C 9  37657794.781   196094034.880        2256.355          38.000  
> 2020  5 30 12 32 15.0000000  0 24                     
G 2  21639429.041   113715968.223         151.016          45.000  
G 5  21297539.558   111919325.588        -210.749          48.000  
G13  20263278.206   106484253.107        1950.702          46.000  
G29  21401017.849   112463107.348        2262.458          46.000  
G 6  24302044.165   127708095.286       -1361.836          37.000  
G15  21000493.576   110358339.593        3603.703          43.000  
G30  24367752.785   128053403.389        1566.000          39.000  
C 6  36185314.695   188426430.095        1762.146          44.000  
C 8  36372510.091   189401207.547        1668.337          45.000  
C13  36313531.566   189094089.307        1819.581          47.000  
C14  25558170.308   133088087.783       -1353.296          41.000  
C16  36594768.384   190558565.845        1947.525          44.000  
C27  22444897.727   116876477.218        2758.679          49.000  
C28  22011919.644   114621838.955        -334.110          48.000  
C 4  38706826.102   201556596.455        1152.802          38.000  
C 1  37746063.008   196553657.006        1175.374          41.000  
C 3  36306255.942   189056204.133        1143.109          42.000  
C 2  37226639.757   193848880.975        1182.211          38.000  
C25  26510995.438   138049705.426        3163.035          37.000  
G18  24705526.564   129828422.719        4166.340          39.000  
G12  25582602.218   134437496.915        -957.594          31.000  
G25  25602925.405   134544225.605        -822.677          32.000  
C 5  39258119.140   204427327.882        1178.132          36.000  
C 9  37657361.736   196091779.019        2255.797          38.000  
> 2020  5 30 12 32 16.0000000  0 24                     
G 2  21639400.597   113715817.045         150.842          45.000  
G 5  21297580.008   111919536.313        -210.798          48.000  
G13  20262907.144   106482302.604        1950.167          46.000  
G29  21400587.143   112460845.088        2261.962          46.000  
G 6  24302303.300   127709457.062       -1361.807          37.000  
G15  20999807.852   110354736.268        3603.087          43.000  
G30  24367454.875   128051837.570        1565.139          39.000  
C 6  36184976.231   188424667.983        1762.053          44.000  
C 8  36372189.601   189399539.010        1668.466          45.000  
C13  36313182.038   189092269.530        1819.790          47.000  
C14  25558430.002   133089440.727       -1352.828          41.000  
C16  36594394.252   190556618.014        1947.813          44.000  
C27  22444367.798   116873718.666        2758.282          49.000  
C28  22011983.860   114622173.055        -334.397          48.000  
C 4  38706604.938   201555443.719        1152.789          38.000  
C 1  37745837.376   196552481.280        1175.627          41.000  
C 3  36306036.244   189055060.797        1143.378          42.000  
C 2  37226412.764   193847698.650        1182.307          38.000  
C25  26510387.822   138046542.274        3162.953          37.000  
G18  24704733.696   129824256.466        4166.085          39.000  
G12  25582784.398   134438454.103        -957.595          32.000  
G25  25603080.607   134545048.361        -822.265          32.000  
C 5  39257893.124   204426149.638        1178.190          36.000  
C 9  37656928.482   196089523.287        2255.609          38.000  
> 2020  5 30 12 32 17.0000000  0 24                     
G 2  21639371.699   113715665.981         151.157          45.000  
G 5  21297620.353   111919746.875        -210.491          48.000  
G13  20262535.978   106480352.484        1949.937          46.000  
G29  21400156.750   112458583.202        2261.741          46.000  
G 6  24302562.611   127710818.825       -1361.832          37.000  
G15  20999121.989   110351133.142        3603.277          43.000  
G30  24367156.965   128050271.885        1565.829          39.000  
C 6  36184637.732   188422905.745        1762.352          44.000  
C 8  36371869.284   189397870.192        1669.050          45.000  
C13  36312832.615   189090449.479        1820.275          47.000  
C14  25558689.801   133090793.314       -1352.552          41.000  
C16  36594020.468   190554670.076        1947.906          44.000  
C27  22443838.149   116870960.260        2758.437          49.000  
C28  22012047.972   114622507.351        -334.292          48.000  
C 4  38706383.460   201554290.708        1153.351          38.000  
C 1  37745611.396   196551305.244        1176.249          41.000  
C 3  36305816.755   189053917.191        1143.821          42.000  
C 2  37226185.737   193846516.057        1182.836          38.000  
C25  26509780.240   138043378.755        3163.621          37.000  
G18  24703940.827   129820089.803        4167.193          39.000  
G12  25582966.474   134439410.700        -955.956          31.000  
G25  25603236.752   134545870.728        -822.273          32.000  
C 5  39257666.690   204424971.137        1178.533          36.000  
C 9  37656495.298   196087267.402        2255.895          38.000  
> 2020  5 30 12 32 18.0000000  0 24                     
G 2  21639342.871   113715515.313         150.513          45.000  
G 5  21297660.209   111919957.542        -210.597          48.000  
G13  20262165.126   106478403.010        1949.327          46.000  
G29  21399726.498   112456321.935        2261.100          46.000  
G 6  24302821.677   127712180.785       -1361.906          37.000  
G15  20998436.335   110347530.526        3602.404          43.000  
G30  24366858.810   128048706.663        1565.314          40.000  
C 6  36184299.372   188421143.648        1762.039          44.000  
C 8  36371549.073   189396201.451        1668.722          45.000  
C13  36312483.262   189088629.408        1820.117          47.000  
C14  25558949.495   133092145.816       -1352.396          41.000  
C16  36593646.335   190552722.273        1947.914          44.000  
C27  22443308.326   116868202.300        2757.868          49.000  
C28  22012112.154   114622842.138        -334.944          48.000  
C 4  38706161.807   201553137.646        1153.644          38.000  
C 1  37745385.346   196550129.232        1175.951          41.000  
C 3  36305597.197   189052773.573        1143.721          42.000  
C 2  37225958.535   193845333.452        1182.587          38.000  
C25  26509172.658   138040215.141        3163.391          37.000  
G18  24703147.715   129815923.076        4166.917          39.000  
G12  25583151.865   134440367.099        -956.694          31.000  
G25  25603392.722   134546692.979        -821.221          33.000  
C 5  39257440.291   204423792.638        1178.303          36.000  
C 9  37656062.393   196085011.600        2255.608          38.000  
> 2020  5 30 12 32 19.0000000  0 24                     
G 2  21639314.358   113715364.746         150.570          45.000  
G 5  21297700.100   111920168.049        -210.272          48.000  
G13  20261794.169   106476453.932        1948.960          46.000  
G29  21399296.280   112454061.057        2260.742          46.000  
G 6  24303080.603   127713542.740       -1361.810          37.000  
G15  20997750.925   110343928.128        3602.283          43.000  
G30  24366560.796   128047141.610        1565.094          40.000  
C 6  36183961.222   188419381.430        1762.106          44.000  
C 8  36371228.512   189394532.493        1669.054          45.000  
C13  36312133.594   189086809.038        1820.659          47.000  
C14  25559209.084   133093497.969       -1351.969          41.000  
C16  36593272.098   190550774.355        1948.211          44.000  
C27  22442778.817   116865444.509        2757.835          49.000  
C28  22012176.371   114623177.116        -334.902          48.000  
C 4  38705940.504   201551984.356        1153.412          38.000  
C 1  37745159.715   196548952.926        1176.684          41.000  
C 3  36305377.533   189051629.702        1144.170          42.000  
C 2  37225731.438   193844150.578        1183.128          38.000  
C25  26508564.937   138037051.190        3164.241          37.000  
G18  24702354.882   129811755.976        4167.454          39.000  
G12  25583330.555   134441322.944        -956.006          31.000  
G25  25603551.065   134547514.942        -821.842          33.000  
C 5  39257213.857   204422613.836        1178.987          36.000  
C 9  37655629.174   196082755.627        2256.266          38.000  
> 2020  5 30 12 32 20.0000000  0 24                     
G 2  21639285.600   113715214.786         149.892          45.000  
G 5  21297740.306   111920378.875        -210.673          48.000  
G13  20261423.387   106474505.715        1948.172          46.000  
G29  21398866.307   112451801.027        2259.879          46.000  
G 6  24303339.634   127714905.130       -1362.224          37.000  
G15  20997065.446   110340326.427        3601.746          43.000  
G30  24366263.130   128045577.237        1564.376          40.000  
C 6  36183622.897   188417619.549        1761.957          44.000  
C 8  36370907.882   189392863.748        1668.896          45.000  
C13  36311784.101   189084988.860        1820.320          47.000  
C14  25559468.779   133094850.261       -1352.206          41.000  
C16  36592897.791   190548826.795        1947.692          44.000  
C27  22442249.377   116862687.352        2757.192          49.000  
C28  22012240.937   114623512.786        -335.627          48.000  
C 4  38705719.200   201550831.264        1153.180          38.000  
C 1  37744933.699   196547776.836        1176.089          41.000  
C 3  36305157.835   189050486.028        1143.624          42.000  
C 2  37225504.166   193842967.925        1182.895          38.000  
C25  26507957.355   138033887.355        3164.187          37.000  
G18  24701561.700   129807588.988        4167.431          39.000  
G12  25583511.200   134442278.682        -954.616          31.000  
G25  25603707.558   134548336.964        -822.106          33.000  
C 5  39256987.423   204421435.249        1179.209          36.000  
C 9  37655195.990   196080499.989        2255.902          38.000  
> 2020  5 30 12 32 21.0000000  0 24                     
G 2  21639256.982   113715064.771         149.516          45.000  
G 5  21297780.127   111920589.392        -210.833          48.000  
G13  20261052.745   106472557.727        1947.385          46.000  
G29  21398436.159   112449541.201        2259.276          46.000  
G 6  24303598.839   127716267.309       -1362.339          37.000  
G15  20996380.001   110336724.796        3601.032          43.000  
G30  24365965.499   128044012.874        1563.867          40.000  
C 6  36183284.363   188415857.389        1761.901          44.000  
C 8  36370587.217   189391194.612        1668.735          46.000  
C13  36311434.294   189083168.235        1820.443          47.000  
C14  25559728.263   133096202.031       -1352.030          41.000  
C16  36592523.798   190546878.953        1947.764          44.000  
C27  22441720.077   116859930.212        2756.529          49.000  
C28  22012305.538   114623848.500        -336.297          48.000  
C 4  38705497.617   201549677.719        1153.430          38.000  
C 1  37744708.208   196546600.313        1176.154          41.000  
C 3  36304937.858   189049341.919        1143.927          42.000  
C 2  37225277.139   193841784.849        1182.367          38.000  
C25  26507349.459   138030722.997        3164.261          37.000  
G18  24700768.587   129803421.481        4167.318          39.000  
G12  25583693.625   134443233.832        -955.128          31.000  
G25  25603862.970   134549158.499        -821.966          33.000  
C 5  39256760.710   204420256.272        1178.351          36.000  
C 9  37654762.666   196078244.029        2255.351          38.000  
> 2020  5 30 12 32 22.0000000  0 24                     
G 2  21639228.712   113714915.011         149.599          45.000  
G 5  21297820.332   111920799.883        -210.535          48.000  
G13  20260681.927   106470610.261        1947.157          46.000  
G29  21398006.255   112447281.889        2259.031          46.000  
G 6  24303858.010   127717629.640       -1362.645          37.000  
G15  20995694.522   110333123.528        3600.894          43.000  
G30  24365667.833   128042448.819        1563.761          40.000  
C 6  36182945.828   188414095.253        1761.955          44.000  
C 8  36370266.831   189389525.333        1669.357          46.000  
C13  36311084.487   189081347.447        1820.776          47.000  
C14  25559987.643   133097553.608       -1351.631          41.000  
C16  36592149.700   190544931.142        1947.682          44.000  
C27  22441190.707   116857173.360        2756.734          49.000  
C28  22012369.894   114624184.561        -336.232          48.000  
C 4  38705276.069   201548524.043        1153.906          38.000  
C 1  37744482.018   196545423.644        1176.738          41.000  
C 3  36304718.299   189048197.682        1144.197          42.000  
C 2  37225049.972   193840601.632        1182.931          38.000  
C25  26506741.564   138027558.441        3164.814          37.000  
G18  24699975.649   129799253.745        4167.977          39.000  
G12  25583875.875   134444188.519        -953.933          31.000  
G25  25604020.231   134549979.803        -821.361          33.000  
C 5  39256534.416   204419077.120        1179.147          36.000  
C 9  37654329.237   196075988.038        2255.879          38.000  
> 2020  5 30 12 32 23.0000000  0 24                     
G 2  21639200.443   113714765.659         148.837          45.000  
G 5  21297860.224   111921010.501        -210.983          48.000  
G13  20260311.180   106468663.477        1946.076          46.000  
G29  21397576.352   112445023.241        2258.060          46.000  
G 6  24304117.041   127718992.171       -1363.026          37.000  
G15  20995009.182   110329522.760        3600.220          43.000  
G30  24365370.446   128040885.225        1563.218          40.000  
C 6  36182607.399   188412333.258        1761.853          44.000  
C 8  36369946.201   189387856.114        1668.948          46.000  
C13  36310734.820   189079526.665        1820.510          47.000  
C14  25560247.338   133098905.089       -1351.589          41.000  
C16  36591775.881   190542983.480        1947.395          44.000  
C27  22440661.198   116854416.969        2755.865          49.000  
C28  22012434.634   114624521.110        -336.970          48.000  
C 4  38705054.347   201547370.404        1153.113          38.000  
C 1  37744255.968   196544246.989        1176.481          41.000  
C 3  36304498.740   189047053.444        1143.892          42.000  
C 2  37224822.770   193839418.422        1182.860          38.000  
C25  26506134.052   138024393.834        3164.225          37.000  
G18  24699182.537   129795085.953        4167.406          39.000  
G12  25584059.276   134445143.007        -955.264          32.000  
G25  25604176.655   134550801.028        -822.533          33.000  
C 5  39256307.912   204417898.019        1178.599          36.000  
C 9  37653895.948   196073732.202        2255.348          38.000  
> 2020  5 30 12 32 24.0000000  0 24                     
G 2  21639172.173   113714616.754         148.562          45.000  
G 5  21297900.220   111921221.289        -210.841          48.000  
G13  20259941.026   106466717.396        1945.789          46.000  
G29  21397146.728   112442765.293        2257.633          46.000  
G 6  24304376.421   127720355.018       -1362.789          37.000  
G15  20994324.331   110325922.556        3599.791          43.000  
G30  24365072.990   128039322.155        1562.731          40.000  
C 6  36182268.934   188410571.495        1761.653          44.000  
C 8  36369625.501   189386186.995        1668.936          46.000  
C13  36310385.083   189077705.935        1820.701          47.000  
C14  25560506.927   133100256.558       -1351.599          41.000  
C16  36591401.923   190541036.029        1947.124          44.000  
C27  22440132.002   116851661.071        2755.585          49.000  
C28  22012499.410   114624858.195        -337.362          48.000  
C 4  38704832.624   201546216.799        1153.424          38.000  
C 1  37744029.987   196543070.399        1176.528          41.000  
C 3  36304279.147   189045909.277        1144.094          42.000  
C 2  37224595.708   193838235.260        1183.015          38.000  
C25  26505526.365   138021229.175        3164.420          37.000  
G18  24698389.215   129790918.103        4168.030          39.000  
G12  25584238.839   134446097.284        -954.742          31.000  
G25  25604333.044   134551622.182        -821.768          33.000  
C 5  39256081.443   204416718.936        1178.787          36.000  
C 9  37653462.764   196071476.501        2255.739          38.000  
> 2020  5 30 12 32 25.0000000  0 24                     
G 2  21639143.974   113714468.141         148.419          45.000  
G 5  21297940.564   111921432.113        -210.887          48.000  
G13  20259570.802   106464771.891        1945.146          46.000  
G29  21396717.278   112440507.904        2257.107          46.000  
G 6  24304635.627   127721718.020       -1362.797          37.000  
G15  20993639.235   110322322.750        3599.685          43.000  
G30  24364775.673   128037759.436        1562.432          40.000  
C 6  36181930.644   188408809.762        1761.719          44.000  
C 8  36369305.010   189384517.822        1669.177          46.000  
C13  36310035.415   189075885.143        1820.619          47.000  
C14  25560766.621   133101607.872       -1351.609          41.000  
C16  36591027.930   190539088.631        1947.467          44.000  
C27  22439602.877   116848905.524        2755.321          49.000  
C28  22012564.045   114625195.680        -337.784          48.000  
C 4  38704611.041   201545063.115        1153.619          38.000  
C 1  37743803.658   196541893.715        1176.652          41.000  
C 3  36304059.448   189044765.020        1144.332          42.000  
C 2  37224368.297   193837052.021        1183.293          38.000  
C25  26504918.574   138018064.341        3164.695          37.000  
G18  24697596.173   129786750.098        4168.079          39.000  
G12  25584420.845   134447051.154        -953.630          31.000  
G25  25604489.607   134552443.156        -820.635          32.000  
C 5  39255854.939   204415539.762        1179.342          36.000  
C 9  37653029.754   196069220.855        2255.135          38.000  
> 2020  5 30 12 32 26.0000000  0 24                     
G 2  21639115.600   113714320.123         148.038          45.000  
G 5  21297980.805   111921643.244        -211.082          48.000  
G13  20259200.788   106462827.251        1944.457          46.000  
G29  21396287.828   112438251.368        2256.204          46.000  
G 6  24304895.111   127723081.470       -1363.300          37.000  
G15  20992954.454   110318723.665        3598.989          43.000  
G30  24364478.636   128036197.381        1562.025          40.000  
C 6  36181592.389   188407048.375        1761.556          44.000  
C 8  36368984.659   189382848.891        1669.083          46.000  
C13  36309685.922   189074064.484        1820.748          47.000  
C14  25561026.141   133102959.289       -1351.303          41.000  
C16  36590654.042   190537141.607        1947.163          44.000  
C27  22439073.717   116846150.617        2754.744          49.000  
C28  22012628.890   114625533.830        -338.269          48.000  
C 4  38704389.354   201543909.604        1153.839          38.000  
C 1  37743577.852   196540717.215        1176.676          41.000  
C 3  36303839.576   189043620.964        1144.327          42.000  
C 2  37224141.025   193835868.975        1183.266          38.000  
C25  26504311.028   138014899.629        3165.140          37.000  
G18  24696803.270   129782582.195        4167.942          39.000  
G12  25584602.397   134448005.080        -954.476          31.000  
G25  25604645.124   134553264.314        -821.011          33.000  
C 5  39255628.610   204414360.803        1179.364          36.000  
C 9  37652596.570   196066965.499        2255.409          38.000  
> 2020  5 30 12 32 27.0000000  0 24                     
G 2  21639087.610   113714172.578         147.656          45.000  
G 5  21298021.045   111921854.573        -211.306          48.000  
G13  20258831.157   106460883.355        1943.732          46.000  
G29  21395858.622   112435995.555        2255.704          46.000  
G 6  24305154.596   127724445.247       -1363.539          37.000  
G15  20992269.602   110315125.151        3598.371          43.000  
G30  24364181.389   128034635.853        1561.495          39.000  
C 6  36181254.239   188405287.236        1761.373          44.000  
C 8  36368664.238   189381180.070        1668.977          46.000  
C13  36309336.429   189072243.902        1820.811          47.000  
C14  25561285.695   133104310.716       -1351.099          41.000  
C16  36590280.188   190535194.818        1946.836          44.000  
C27  22438544.731   116843396.226        2754.439          49.000  
C28  22012693.735   114625872.551        -338.711          47.000  
C 4  38704167.876   201542756.207        1153.741          38.000  
C 1  37743352.221   196539540.797        1176.840          41.000  
C 3  36303619.877   189042476.999        1144.301          42.000  
C 2  37223914.033   193834686.015        1183.386          38.000  
C25  26503703.446   138011734.951        3164.889          37.000  
G18  24696010.192   129778414.269        4168.374          39.000  
G12  25584784.054   134448958.757        -953.441          31.000  
G25  25604801.548   134554085.429        -821.221          33.000  
C 5  39255402.176   204413181.930        1179.379          36.000  
C 9  37652163.421   196064710.338        2255.459          38.000  
> 2020  5 30 12 32 28.0000000  0 24                     
G 2  21639059.550   113714025.126         147.381          45.000  
G 5  21298061.390   111922065.721        -211.317          48.000  
G13  20258461.317   106458939.825        1943.184          46.000  
G29  21395429.521   112433740.087        2255.239          46.000  
G 6  24305413.976   127725808.961       -1363.652          37.000  
G15  20991585.030   110311526.839        3598.074          43.000  
G30  24363884.037   128033074.487        1561.254          40.000  
C 6  36180916.019   188403525.956        1761.305          44.000  
C 8  36368343.573   189379510.989        1669.048          46.000  
C13  36308986.797   189070423.044        1820.958          47.000  
C14  25561545.145   133105661.777       -1350.796          41.000  
C16  36589906.405   190533247.884        1946.726          44.000  
C27  22438015.884   116840641.996        2754.071          49.000  
C28  22012758.894   114626211.452        -339.046          47.000  
C 4  38703946.153   201541602.493        1153.888          38.000  
C 1  37743126.206   196538364.100        1176.814          41.000  
C 3  36303400.109   189041332.736        1144.263          42.000  
C 2  37223686.831   193833502.782        1183.214          38.000  
C25  26503095.759   138008569.879        3165.081          37.000  
G18  24695217.184   129774245.996        4168.076          39.000  
G12  25584965.501   134449911.879        -952.703          31.000  
G25  25604957.064   134554906.184        -821.086          32.000  
C 5  39255175.811   204412002.796        1179.200          36.000  
C 9  37651730.376   196062455.008        2255.502          38.000  
> 2020  5 30 12 32 29.0000000  0 24                     
G 2  21639031.385   113713877.660         147.197          45.000  
G 5  21298101.351   111922276.568        -211.013          48.000  
G13  20258091.652   106456996.543        1942.936          46.000  
G29  21395000.316   112431484.865        2254.889          46.000  
G 6  24305673.461   127727172.517       -1363.564          37.000  
G15  20990900.423   110307928.623        3597.891          43.000  
G30  24363586.825   128031513.180        1560.979          40.000  
C 6  36180577.450   188401764.407        1761.139          44.000  
C 8  36368023.187   189377841.534        1669.319          46.000  
C13  36308636.990   189068601.748        1821.285          47.000  
C14  25561804.665   133107012.357       -1350.468          41.000  
C16  36589532.551   190531300.695        1946.842          44.000  
C27  22437486.898   116837887.792        2753.879          49.000  
C28  22012823.844   114626550.441        -339.392          47.000  
C 4  38703724.780   201540448.401        1153.961          38.000  
C 1  37742900.016   196537187.001        1176.989          41.000  
C 3  36303180.306   189040188.073        1144.585          42.000  
C 2  37223459.454   193832319.146        1183.519          38.000  
C25  26502487.933   138005404.318        3165.576          37.000  
G18  24694423.863   129770077.220        4168.442          39.000  
G12  25585146.914   134450864.365        -952.264          31.000  
G25  25605112.545   134555726.396        -820.671          32.000  
C 5  39254949.377   204410823.213        1179.609          36.000  
C 9  37651297.297   196060199.371        2255.761          38.000  
> 2020  5 30 12 32 30.0000000  0 24                     
G 2  21639003.430   113713730.599         146.998          45.000  
G 5  21298141.556   111922487.535        -210.778          48.000  
G13  20257721.987   106455053.947        1942.436          46.000  
G29  21394571.215   112429230.308        2254.337          46.000  
G 6  24305932.736   127728536.318       -1363.473          37.000  
G15  20990215.817   110304330.916        3597.749          43.000  
G30  24363289.857   128029952.306        1560.858          40.000  
C 6  36180239.544   188400003.012        1761.469          44.000  
C 8  36367702.382   189376172.098        1669.684          46.000  
C13  36308287.113   189066780.450        1821.477          47.000  
C14  25562063.975   133108362.881       -1350.278          41.000  
C16  36589158.837   190529353.674        1947.161          44.000  
C27  22436957.947   116835134.043        2753.652          49.000  
C28  22012888.898   114626889.912        -339.485          47.000  
C 4  38703502.848   201539294.293        1154.388          38.000  
C 1  37742673.896   196536009.907        1177.203          41.000  
C 3  36302960.329   189039043.410        1144.993          42.000  
C 2  37223231.834   193831135.525        1183.642          38.000  
C25  26501879.724   138002238.698        3166.062          37.000  
G18  24693630.645   129765908.328        4169.296          39.000  
G12  25585328.570   134451816.631        -952.351          31.000  
G25  25605268.585   134556546.546        -819.914          32.000  
C 5  39254722.839   204409643.672        1179.417          36.000  
C 9  37650864.043   196057943.891        2255.546          38.000  
> 2020  5 30 12 32 31.0000000  0 24                     
G 2  21638975.544   113713583.534         147.259          45.000  
G 5  21298181.343   111922698.244        -210.262          48.000  
G13  20257352.321   106453111.622        1942.396          46.000  
G29  21394142.079   112426976.005        2254.321          46.000  
G 6  24306192.465   127729899.990       -1363.334          37.000  
G15  20989531.175   110300733.338        3597.584          43.000  
G30  24362992.889   128028391.520        1561.199          40.000  
C 6  36179901.219   188398241.392        1762.034          44.000  
C 8  36367381.612   189374502.353        1670.171          46.000  
C13  36307937.271   189064958.763        1822.203          47.000  
C14  25562323.111   133109712.938       -1349.476          41.000  
C16  36588784.705   190527406.432        1947.571          44.000  
C27  22436429.311   116832380.350        2754.004          49.000  
C28  22012954.058   114627229.484        -339.403          47.000  
C 4  38703281.091   201538139.827        1154.956          38.000  
C 1  37742447.951   196534832.434        1177.640          41.000  
C 3  36302740.421   189037898.394        1145.414          42.000  
C 2  37223004.667   193829951.533        1184.351          38.000  
C25  26501271.549   137999072.594        3166.892          37.000  
G18  24692837.289   129761739.008        4169.598          39.000  
G12  25585507.330   134452768.220        -951.614          31.000  
G25  25605424.625   134557366.232        -819.167          32.000  
C 5  39254496.440   204408463.718        1180.398          36.000  
C 9  37650430.719   196055688.133        2256.030          38.000  
> 2020  5 30 12 32 32.0000000  0 24                     
G 2  21638947.519   113713436.529         146.726          45.000  
G 5  21298221.443   111922908.737        -210.557          48.000  
G13  20256982.761   106451169.618        1941.569          46.000  
G29  21393713.223   112424722.002        2253.667          46.000  
G 6  24306451.950   127731263.564       -1363.643          37.000  
G15  20988846.498   110297135.902        3597.215          43.000  
G30  24362695.991   128026830.868        1560.388          40.000  
C 6  36179562.859   188396479.587        1761.759          44.000  
C 8  36367060.912   189372832.287        1669.850          46.000  
C13  36307587.499   189063136.719        1821.936          47.000  
C14  25562582.072   133111062.604       -1349.774          41.000  
C16  36588410.572   190525459.004        1947.396          44.000  
C27  22435900.534   116829626.770        2753.325          49.000  
C28  22013019.321   114627569.204        -340.024          47.000  
C 4  38703059.473   201536985.025        1154.962          38.000  
C 1  37742221.656   196533654.615        1177.901          41.000  
C 3  36302520.479   189036753.038        1145.298          42.000  
C 2  37222777.221   193828767.200        1184.224          38.000  
C25  26500663.374   137995906.134        3166.447          37.000  
G18  24692043.932   129757569.250        4169.650          39.000  
G12  25585687.347   134453719.195        -950.740          31.000  
G25  25605580.490   134558185.474        -819.161          32.000  
C 5  39254269.796   204407283.473        1180.292          36.000  
C 9  37649997.325   196053432.124        2256.097          38.000  
> 2020  5 30 12 32 33.0000000  0 24                     
G 2  21638919.564   113713289.704         146.674          45.000  
G 5  21298261.474   111923119.132        -210.160          48.000  
G13  20256613.409   106449228.068        1941.548          46.000  
G29  21393284.541   112422468.446        2253.485          46.000  
G 6  24306711.505   127732627.167       -1363.572          37.000  
G15  20988161.996   110293538.773        3596.995          43.000  
G30  24362399.198   128025270.442        1560.367          40.000  
C 6  36179224.430   188394717.728        1761.897          44.000  
C 8  36366740.212   189371162.056        1670.592          46.000  
C13  36307237.517   189061314.465        1822.520          47.000  
C14  25562841.208   133112411.957       -1349.282          41.000  
C16  36588036.649   190523511.521        1947.766          44.000  
C27  22435371.932   116826873.417        2753.334          49.000  
C28  22013084.550   114627909.193        -340.059          47.000  
C 4  38702838.064   201535830.017        1155.011          38.000  
C 1  37741995.432   196532476.596        1178.283          41.000  
C 3  36302300.397   189035607.471        1145.734          42.000  
C 2  37222549.914   193827582.662        1185.072          38.000  
C25  26500055.268   137992739.345        3166.885          37.000  
G18  24691250.471   129753399.173        4170.754          39.000  
G12  25585872.075   134454669.720        -950.096          31.000  
G25  25605736.181   134559004.521        -819.797          32.000  
C 5  39254043.257   204406103.007        1180.559          36.000  
C 9  37649564.141   196051176.055        2255.991          38.000  
> 2020  5 30 12 32 34.0000000  0 24                     
G 2  21638891.609   113713142.869         146.539          45.000  
G 5  21298301.505   111923329.251        -210.316          48.000  
G13  20256243.814   106447286.789        1940.948          46.000  
G29  21392855.684   112420215.136        2252.941          46.000  
G 6  24306970.989   127733990.603       -1363.619          37.000  
G15  20987477.633   110289941.730        3596.824          43.000  
G30  24362102.160   128023710.066        1560.265          40.000  
C 6  36178885.861   188392955.610        1762.010          44.000  
C 8  36366419.407   189369491.455        1670.723          46.000  
C13  36306887.396   189059491.806        1822.587          47.000  
C14  25563100.413   133113760.839       -1348.844          41.000  
C16  36587662.621   190521563.808        1947.575          44.000  
C27  22434843.260   116824120.108        2753.144          49.000  
C28  22013149.744   114628249.277        -340.480          47.000  
C 4  38702616.133   201534674.622        1155.133          38.000  
C 1  37741768.963   196531298.193        1178.337          41.000  
C 3  36302080.315   189034461.507        1145.989          42.000  
C 2  37222322.433   193826397.745        1184.944          38.000  
C25  26499446.954   137989572.084        3167.176          37.000  
G18  24690456.939   129749228.656        4170.614          39.000  
G12  25586051.219   134455619.660        -950.856          31.000  
G25  25605891.907   134559822.964        -818.891          32.000  
C 5  39253816.370   204404922.145        1180.863          36.000  
C 9  37649130.817   196048919.701        2256.374          38.000  
> 2020  5 30 12 32 35.0000000  0 24                     
G 2  21638863.898   113712996.594         146.004          45.000  
G 5  21298341.605   111923539.643        -210.634          48.000  
G13  20255874.358   106445346.338        1940.006          46.000  
G29  21392427.037   112417962.646        2251.960          46.000  
G 6  24307230.579   127735354.462       -1364.288          37.000  
G15  20986793.340   110286345.375        3595.918          43.000  
G30  24361805.262   128022150.336        1559.211          40.000  
C 6  36178547.396   188391193.798        1761.705          44.000  
C 8  36366098.532   189367821.074        1670.366          46.000  
C13  36306537.484   189057669.307        1822.404          47.000  
C14  25563359.584   133115109.817       -1349.017          41.000  
C16  36587288.349   190519616.405        1947.124          44.000  
C27  22434314.588   116821367.403        2752.497          49.000  
C28  22013215.287   114628589.991        -341.144          47.000  
C 4  38702394.166   201533519.348        1155.389          38.000  
C 1  37741542.843   196530119.951        1178.065          41.000  
C 3  36301860.407   189033315.733        1145.499          42.000  
C 2  37222094.847   193825212.971        1184.682          38.000  
C25  26498838.779   137986404.914        3167.286          37.000  
G18  24689663.304   129745058.193        4170.241          39.000  
G12  25586232.666   134456569.425        -950.399          32.000  
G25  25606047.702   134560641.491        -818.113          32.000  
C 5  39253589.726   204403741.475        1180.356          36.000  
C 9  37648697.459   196046663.596        2255.878          38.000  
> 2020  5 30 12 32 36.0000000  0 24                     
G 2  21638836.152   113712850.923         145.291          45.000  
G 5  21298381.811   111923750.360        -210.839          48.000  
G13  20255505.320   106443406.753        1939.166          46.000  
G29  21391998.599   112415711.009        2251.216          46.000  
G 6  24307489.994   127736718.760       -1364.454          37.000  
G15  20986109.047   110282749.711        3595.523          43.000  
G30  24361508.539   128020591.244        1558.916          40.000  
C 6  36178209.211   188389432.360        1761.343          44.000  
C 8  36365777.902   189366150.937        1670.000          46.000  
C13  36306187.363   189055847.005        1822.184          47.000  
C14  25563618.475   133116458.934       -1349.487          41.000  
C16  36586914.216   190517669.355        1947.133          44.000  
C27  22433786.126   116818615.354        2751.768          49.000  
C28  22013280.935   114628931.398        -341.627          47.000  
C 4  38702172.408   201532364.314        1155.078          38.000  
C 1  37741316.688   196528941.916        1177.651          41.000  
C 3  36301640.464   189032170.150        1145.653          42.000  
C 2  37221867.646   193824028.426        1184.454          38.000  
C25  26498230.639   137983237.901        3166.928          37.000  
G18  24688869.703   129740887.878        4170.023          39.000  
G12  25586413.206   134457519.176        -950.029          32.000  
G25  25606203.463   134561460.171        -818.068          32.000  
C 5  39253362.943   204402560.967        1180.574          36.000  
C 9  37648264.344   196044407.837        2255.629          38.000  
> 2020  5 30 12 32 37.0000000  0 24                     
G 2  21638808.476   113712705.515         145.540          45.000  
G 5  21298421.911   111923961.073        -210.488          48.000  
G13  20255136.597   106441467.698        1939.082          46.000  
G29  21391570.301   112413459.896        2251.184          46.000  
G 6  24307749.688   127738083.178       -1364.246          37.000  
G15  20985424.929   110279154.429        3595.538          43.000  
G30  24361211.850   128019032.500        1558.766          40.000  
C 6  36177871.026   188387670.937        1761.798          44.000  
C 8  36365457.446   189364480.699        1670.380          46.000  
C13  36305837.486   189054024.546        1822.885          47.000  
C14  25563877.402   133117807.838       -1348.822          41.000  
C16  36586540.607   190515722.351        1947.306          44.000  
C27  22433257.594   116815863.619        2751.746          49.000  
C28  22013346.548   114629273.156        -341.631          47.000  
C 4  38701950.721   201531209.167        1155.420          38.000  
C 1  37741090.394   196527763.731        1178.593          41.000  
C 3  36301420.452   189031024.455        1145.939          42.000  
C 2  37221639.955   193822843.747        1185.243          38.000  
C25  26497622.254   137980070.679        3166.919          37.000  
G18  24688075.962   129736717.298        4170.885          39.000  
G12  25586594.270   134458468.491        -948.656          32.000  
G25  25606359.119   134562278.644        -817.468          32.000  
C 5  39253136.265   204401380.387        1180.802          36.000  
C 9  37647831.439   196042152.051        2256.199          38.000  
> 2020  5 30 12 32 38.0000000  0 24                     
G 2  21638780.870   113712559.990         145.364          45.000  
G 5  21298461.977   111924171.398        -210.389          48.000  
G13  20254767.490   106439528.804        1938.519          46.000  
G29  21391142.073   112411208.925        2250.703          46.000  
G 6  24308009.068   127739447.355       -1364.659          36.000  
G15  20984740.706   110275559.173        3594.714          43.000  
G30  24360915.162   128017473.690        1558.685          40.000  
C 6  36177532.771   188385909.178        1761.734          44.000  
C 8  36365136.502   189362809.976        1670.866          46.000  
C13  36305487.504   189052201.614        1822.916          47.000  
C14  25564136.398   133119156.144       -1348.141          41.000  
C16  36586166.509   190513774.996        1947.212          44.000  
C27  22432729.306   116813111.817        2751.731          49.000  
C28  22013412.230   114629614.909        -342.009          47.000  
C 4  38701728.998   201530053.534        1155.310          38.000  
C 1  37740863.960   196526585.069        1178.756          41.000  
C 3  36301200.126   189029878.241        1146.454          42.000  
C 2  37221412.439   193821658.588        1185.393          38.000  
C25  26497013.975   137976902.823        3168.080          37.000  
G18  24687282.186   129732546.152        4171.450          39.000  
G12  25586775.926   134459417.097        -948.486          32.000  
G25  25606514.740   134563096.509        -817.489          32.000  
C 5  39252909.412   204400199.306        1181.080          36.000  
C 9  37647398.360   196039895.909        2256.128          38.000  
> 2020  5 30 12 32 39.0000000  0 24                     
G 2  21638753.298   113712414.909         144.619          45.000  
G 5  21298501.903   111924381.892        -210.902          48.000  
G13  20254398.767   106437590.620        1937.552          46.000  
G29  21390713.879   112408958.649        2249.635          46.000  
G 6  24308268.727   127740811.749       -1364.199          36.000  
G15  20984056.448   110271964.416        3594.183          43.000  
G30  24360618.752   128015915.403        1557.538          40.000  
C 6  36177194.306   188384147.603        1761.262          44.000  
C 8  36364815.627   189361139.357        1670.243          46.000  
C13  36305137.244   189050378.697        1822.866          47.000  
C14  25564395.499   133120504.451       -1348.378          41.000  
C16  36585792.900   190511827.831        1946.778          44.000  
C27  22432200.948   116810360.510        2750.857          50.000  
C28  22013478.192   114629957.168        -342.790          47.000  
C 4  38701506.962   201528897.900        1155.139          38.000  
C 1  37740637.665   196525406.457        1178.086          41.000  
C 3  36300979.974   189028732.078        1146.001          42.000  
C 2  37221184.749   193820473.460        1184.849          38.000  
C25  26496405.486   137973734.974        3167.515          37.000  
G18  24686488.620   129728374.952        4171.372          39.000  
G12  25586956.536   134460365.507        -948.585          32.000  
G25  25606670.326   134563914.366        -818.442          32.000  
C 5  39252682.559   204399018.264        1180.441          36.000  
C 9  37646965.176   196037639.906        2255.867          38.000  
> 2020  5 30 12 32 40.0000000  0 24                     
G 2  21638725.762   113712270.546         143.703          45.000  
G 5  21298542.143   111924592.827        -211.387          48.000  
G13  20254029.904   106435653.426        1936.542          46.000  
G29  21390286.140   112406709.353        2248.478          46.000  
G 6  24308528.456   127742176.798       -1365.640          36.000  
G15  20983372.469   110268370.513        3593.329          43.000  
G30  24360322.482   128014357.865        1556.937          40.000  
C 6  36176856.086   188382386.501        1760.578          44.000  
C 8  36364494.892   189359469.086        1669.815          46.000  
C13  36304787.192   189048556.098        1822.250          47.000  
C14  25564654.390   133121852.998       -1348.784          41.000  
C16  36585418.907   190509881.159        1946.118          44.000  
C27  22431672.695   116807609.967        2749.941          50.000  
C28  22013543.910   114630300.254        -343.822          47.000  
C 4  38701285.239   201527742.618        1154.773          38.000  
C 1  37740411.615   196524228.158        1177.717          41.000  
C 3  36300759.891   189027586.274        1145.112          42.000  
C 2  37220956.988   193819288.663        1184.743          38.000  
C25  26495797.450   137970567.363        3167.397          37.000  
G18  24685694.740   129724204.019        4170.908          39.000  
G12  25587136.797   134461313.942        -948.452          32.000  
G25  25606825.878   134564732.389        -817.600          32.000  
C 5  39252455.602   204397837.525        1180.274          36.000  
C 9  37646531.921   196035384.341        2255.019          38.000  
> 2020  5 30 12 32 41.0000000  0 24                     
G 2  21638698.295   113712127.007         143.555          45.000  
G 5  21298582.558   111924804.306        -211.355          48.000  
G13  20253661.705   106433717.329        1935.954          46.000  
G29  21389858.330   112404461.118        2248.104          46.000  
G 6  24308788.325   127743542.466       -1365.720          36.000  
G15  20982688.770   110264777.535        3593.024          43.000  
G30  24360026.213   128012801.240        1556.492          40.000  
C 6  36176517.971   188380625.977        1760.468          44.000  
C 8  36364174.332   189357799.278        1669.899          46.000  
C13  36304437.350   189046733.890        1822.301          47.000  
C14  25564913.351   133123201.900       -1348.664          41.000  
C16  36585045.193   190507935.066        1946.157          44.000  
C27  22431144.931   116804860.300        2749.634          50.000  
C28  22013609.662   114630644.242        -344.126          47.000  
C 4  38701063.203   201526587.740        1155.365          38.000  
C 1  37740185.041   196523050.278        1178.099          41.000  
C 3  36300540.054   189026440.880        1145.448          42.000  
C 2  37220729.507   193818104.305        1184.708          38.000  
C25  26495189.170   137967400.117        3167.323          37.000  
G18  24684900.720   129720033.429        4170.693          39.000  
G12  25587317.581   134462262.602        -948.485          32.000  
G25  25606981.673   134565550.834        -818.243          32.000  
C 5  39252229.098   204396657.250        1180.416          36.000  
C 9  37646098.772   196033129.293        2255.431          38.000  
> 2020  5 30 12 32 42.0000000  0 24                     
G 2  21638671.248   113711983.992         142.599          45.000  
G 5  21298622.833   111925016.033        -212.153          48.000  
G13  20253293.435   106431782.034        1934.619          46.000  
G29  21389430.695   112402213.689        2246.746          46.000  
G 6  24309048.403   127744908.537       -1366.175          36.000  
G15  20982004.966   110261185.202        3591.797          43.000  
G30  24359730.222   128011245.191        1555.759          40.000  
C 6  36176179.960   188378865.720        1759.900          44.000  
C 8  36363853.876   189356129.639        1669.329          46.000  
C13  36304087.473   189044911.821        1821.747          47.000  
C14  25565172.347   133124550.858       -1349.364          41.000  
C16  36584671.619   190505989.257        1945.246          44.000  
C27  22430616.852   116802111.196        2748.617          50.000  
C28  22013675.833   114630988.827        -345.058          47.000  
C 4  38700841.445   201525433.016        1154.749          38.000  
C 1  37739958.747   196521872.568        1177.251          41.000  
C 3  36300320.286   189025295.612        1144.877          42.000  
C 2  37220502.131   193816920.115        1183.517          38.000  
C25  26494580.961   137964232.911        3167.311          37.000  
G18  24684106.875   129715862.868        4170.360          39.000  
G12  25587497.842   134463211.131        -948.744          31.000  
G25  25607137.713   134566369.278        -817.929          33.000  
C 5  39252002.454   204395477.075        1180.071          36.000  
C 9  37645666.007   196030874.535        2254.396          38.000  
> 2020  5 30 12 32 43.0000000  0 24                     
G 2  21638644.130   113711841.307         142.231          45.000  
G 5  21298662.969   111925227.801        -212.019          48.000  
G13  20252925.480   106429847.308        1934.194          46.000  
G29  21389003.200   112399966.812        2246.376          46.000  
G 6  24309308.237   127746274.782       -1366.704          36.000  
G15  20981321.580   110257593.291        3591.534          43.000  
G30  24359433.917   128009689.543        1555.478          40.000  
C 6  36175841.810   188377105.559        1759.738          44.000  
C 8  36363533.001   189354459.958        1669.585          46.000  
C13  36303737.492   189043089.669        1821.997          47.000  
C14  25565431.518   133125899.663       -1349.014          41.000  
C16  36584297.940   190504043.534        1945.399          44.000  
C27  22430088.948   116799362.463        2748.470          50.000  
C28  22013742.040   114631333.844        -345.548          47.000  
C 4  38700619.897   201524278.227        1154.846          38.000  
C 1  37739732.418   196520694.727        1177.858          41.000  
C 3  36300100.413   189024150.301        1144.785          42.000  
C 2  37220274.859   193815735.812        1184.218          38.000  
C25  26493972.925   137961065.582        3167.270          37.000  
G18  24683313.274   129711692.177        4170.287          39.000  
G12  25587678.068   134464159.351        -949.083          32.000  
G25  25607293.543   134567187.593        -818.921          32.000  
C 5  39251775.811   204394296.870        1179.796          36.000  
C 9  37645233.102   196028619.791        2254.565          38.000  
> 2020  5 30 12 32 44.0000000  0 24                     
G 2  21638616.873   113711699.061         141.699          45.000  
G 5  21298703.313   111925439.749        -212.373          48.000  
G13  20252557.560   106427913.324        1933.268          46.000  
G29  21388575.530   112397720.658        2245.505          46.000  
G 6  24309568.315   127747641.311       -1366.738          36.000  
G15  20980638.265   110254001.951        3590.723          43.000  
G30  24359137.822   128008134.392        1554.639          40.000  
C 6  36175503.799   188375345.602        1759.448          44.000  
C 8  36363212.406   189352790.386        1669.179          46.000  
C13  36303387.720   189041267.577        1821.671          47.000  
C14  25565690.584   133127248.448       -1349.224          41.000  
C16  36583924.610   190502098.036        1944.827          44.000  
C27  22429561.114   116796614.251        2747.544          50.000  
C28  22013808.350   114631679.397        -346.161          47.000  
C 4  38700398.105   201523123.505        1154.382          38.000  
C 1  37739506.368   196519517.000        1177.331          41.000  
C 3  36299880.470   189023005.027        1144.991          42.000  
C 2  37220047.483   193814551.575        1183.977          38.000  
C25  26493364.785   137957898.235        3166.954          37.000  
G18  24682519.499   129707521.436        4170.434          39.000  
G12  25587858.363   134465107.299        -948.211          31.000  
G25  25607449.164   134568005.813        -817.849          32.000  
C 5  39251549.272   204393116.724        1179.505          36.000  
C 9  37644800.162   196026365.240        2254.043          38.000  
> 2020  5 30 12 32 45.0000000  0 24                     
G 2  21638590.174   113711557.197         141.703          45.000  
G 5  21298743.693   111925651.800        -211.946          48.000  
G13  20252189.709   106425979.978        1933.162          46.000  
G29  21388148.209   112395475.119        2245.488          46.000  
G 6  24309828.148   127749008.070       -1366.501          36.000  
G15  20979954.949   110250411.100        3590.692          43.000  
G30  24358841.936   128006579.702        1554.579          40.000  
C 6  36175165.893   188373585.778        1759.816          44.000  
C 8  36362891.985   189351120.852        1669.482          46.000  
C13  36303037.878   189039445.441        1822.059          47.000  
C14  25565949.545   133128597.129       -1348.349          41.000  
C16  36583551.000   190500152.648        1945.385          44.000  
C27  22429033.420   116793866.447        2747.685          50.000  
C28  22013874.975   114632025.406        -346.197          47.000  
C 4  38700176.383   201521968.769        1154.669          38.000  
C 1  37739280.073   196518339.242        1177.851          41.000  
C 3  36299660.493   189021859.755        1145.382          42.000  
C 2  37219820.037   193813367.352        1184.302          38.000  
C25  26492756.715   137954730.767        3167.815          37.000  
G18  24681726.072   129703350.606        4170.935          39.000  
G12  25588038.380   134466055.042        -947.814          31.000  
G25  25607604.890   134568823.969        -817.467          32.000  
C 5  39251322.803   204391936.509        1180.568          36.000  
C 9  37644367.466   196024110.786        2254.330          38.000  
> 2020  5 30 12 32 46.0000000  0 24                     
G 2  21638563.266   113711415.573         141.665          45.000  
G 5  21298784.108   111925863.814        -211.757          48.000  
G13  20251821.928   106424047.156        1932.649          46.000  
G29  21387720.923   112393230.099        2244.923          46.000  
G 6  24310088.087   127750374.948       -1366.868          36.000  
G15  20979271.494   110246820.597        3590.662          43.000  
G30  24358546.260   128005025.319        1554.379          40.000  
C 6  36174827.952   188371825.961        1759.976          44.000  
C 8  36362571.459   189349451.190        1669.962          46.000  
C13  36302687.966   189037623.158        1822.544          47.000  
C14  25566208.646   133129945.619       -1348.380          41.000  
C16  36583177.322   190498207.291        1945.625          44.000  
C27  22428505.760   116791118.947        2747.566          50.000  
C28  22013941.670   114632371.756        -346.403          47.000  
C 4  38699954.486   201520813.871        1155.255          38.000  
C 1  37739054.093   196517161.335        1178.466          41.000  
C 3  36299440.446   189020714.327        1145.829          42.000  
C 2  37219592.521   193812182.981        1184.687          38.000  
C25  26492148.540   137951563.104        3168.122          37.000  
G18  24680932.436   129699179.547        4171.712          39.000  
G12  25588218.536   134467002.326        -946.318          31.000  
G25  25607760.616   134569641.973        -818.420          32.000  
C 5  39251096.125   204390756.220        1180.742          36.000  
C 9  37643934.561   196021856.293        2254.594          38.000  
> 2020  5 30 12 32 47.0000000  0 24                     
G 2  21638536.392   113711274.361         141.145          45.000  
G 5  21298824.488   111926075.956        -211.985          49.000  
G13  20251454.148   106422115.002        1932.081          46.000  
G29  21387294.020   112390985.725        2244.233          46.000  
G 6  24310348.514   127751742.064       -1366.875          36.000  
G15  20978588.632   110243230.621        3589.807          43.000  
G30  24358250.339   128003471.381        1554.010          40.000  
C 6  36174490.151   188370066.303        1759.751          44.000  
C 8  36362250.829   189347781.597        1669.688          46.000  
C13  36302337.845   189035800.871        1822.478          47.000  
C14  25566467.433   133131294.016       -1348.016          41.000  
C16  36582803.782   190496262.093        1945.262          44.000  
C27  22427978.484   116788371.901        2747.117          50.000  
C28  22014008.365   114632718.595        -346.907          47.000  
C 4  38699732.589   201519659.001        1155.206          38.000  
C 1  37738827.694   196515983.455        1178.149          41.000  
C 3  36299220.643   189019568.935        1145.747          42.000  
C 2  37219365.075   193810998.615        1184.789          38.000  
C25  26491540.190   137948395.359        3168.159          37.000  
G18  24680138.765   129695008.397        4171.785          39.000  
G12  25588398.552   134467949.390        -946.362          31.000  
G25  25607916.342   134570459.853        -819.198          32.000  
C 5  39250869.028   204389575.930        1180.460          36.000  
C 9  37643501.726   196019601.917        2254.547          38.000  
> 2020  5 30 12 32 48.0000000  0 24                     
G 2  21638509.763   113711133.569         140.191          45.000  
G 5  21298864.763   111926288.249        -212.802          49.000  
G13  20251086.681   106420183.556        1930.768          46.000  
G29  21386867.049   112388742.042        2243.007          46.000  
G 6  24310608.697   127753109.451       -1367.567          36.000  
G15  20977905.456   110239641.167        3588.794          43.000  
G30  24357954.592   128001917.954        1552.883          40.000  
C 6  36174152.140   188368306.824        1759.086          44.000  
C 8  36361930.094   189346112.048        1669.202          46.000  
C13  36301988.003   189033978.621        1821.845          47.000  
C14  25566726.499   133132642.391       -1348.575          41.000  
C16  36582430.278   190494317.090        1944.576          44.000  
C27  22427451.034   116785625.332        2745.983          50.000  
C28  22014074.850   114633065.952        -347.988          47.000  
C 4  38699510.762   201518504.183        1154.370          38.000  
C 1  37738601.818   196514805.611        1177.305          41.000  
C 3  36299000.665   189018423.589        1144.761          42.000  
C 2  37219137.733   193809814.310        1183.992          38.000  
C25  26490931.841   137945227.578        3167.720          37.000  
G18  24679345.060   129690837.228        4171.072          39.000  
G12  25588578.290   134468896.241        -947.128          31.000  
G25  25608072.172   134571277.613        -817.742          32.000  
C 5  39250642.350   204388395.649        1180.167          36.000  
C 9  37643068.786   196017347.729        2253.809          38.000  
> 2020  5 30 12 32 49.0000000  0 24                     
G 2  21638482.995   113710993.554         139.676          46.000  
G 5  21298905.247   111926501.040        -213.192          48.000  
G13  20250719.354   106418253.141        1929.796          46.000  
G29  21386440.426   112386499.384        2242.189          46.000  
G 6  24310869.228   127754477.481       -1368.386          36.000  
G15  20977222.419   110236052.614        3588.013          43.000  
G30  24357659.439   128000365.364        1551.981          40.000  
C 6  36173814.478   188366547.881        1758.688          44.000  
C 8  36361609.673   189344442.909        1668.993          46.000  
C13  36301638.021   189032156.750        1821.671          47.000  
C14  25566985.285   133133991.075       -1348.876          41.000  
C16  36582056.773   190492372.623        1944.043          44.000  
C27  22426923.793   116782879.586        2745.198          50.000  
C28  22014141.789   114633414.169        -348.618          47.000  
C 4  38699289.039   201517349.708        1154.315          38.000  
C 1  37738375.663   196513628.126        1177.387          41.000  
C 3  36298780.583   189017278.591        1144.991          42.000  
C 2  37218910.287   193808630.374        1183.794          38.000  
C25  26490323.561   137942060.113        3167.419          37.000  
G18  24678551.319   129686666.330        4170.854          39.000  
G12  25588758.201   134469843.235        -947.008          30.000  
G25  25608226.083   134572095.724        -819.117          31.000  
C 5  39250415.671   204387215.802        1179.654          36.000  
C 9  37642635.811   196015094.008        2253.336          38.000  
> 2020  5 30 12 32 50.0000000  0 24                     
G 2  21638456.470   113710853.703         139.955          46.000  
G 5  21298945.732   111926713.713        -212.624          49.000  
G13  20250352.027   106416323.170        1929.785          46.000  
G29  21386013.524   112384257.156        2242.108          46.000  
G 6  24311129.411   127755845.528       -1368.229          36.000  
G15  20976539.557   110232464.312        3588.367          43.000  
G30  24357363.972   127998812.978        1552.534          40.000  
C 6  36173476.782   188364788.852        1759.068          44.000  
C 8  36361289.043   189342773.611        1669.374          46.000  
C13  36301288.075   189030334.626        1822.240          47.000  
C14  25567244.247   133135339.433       -1348.041          41.000  
C16  36581683.339   190490428.087        1944.484          44.000  
C27  22426396.378   116780134.053        2745.443          50.000  
C28  22014208.833   114633762.642        -348.575          47.000  
C 4  38699067.317   201516195.019        1154.956          38.000  
C 1  37738149.334   196512450.435        1177.588          41.000  
C 3  36298560.710   189016133.403        1145.179          42.000  
C 2  37218683.225   193807446.223        1184.481          38.000  
C25  26489715.247   137938892.328        3167.981          37.000  
G18  24677757.648   129682495.129        4171.223          39.000  
G12  25588937.834   134470789.806        -947.491          30.000  
G25  25608381.215   134572913.468        -817.385          31.000  
C 5  39250188.958   204386035.690        1180.215          36.000  
C 9  37642203.186   196012840.184        2253.919          38.000  
> 2020  5 30 12 32 51.0000000  0 24                     
G 2  21638429.806   113710713.896         140.105          46.000  
G 5  21298986.286   111926926.141        -212.073          49.000  
G13  20249984.665   106414393.490        1929.932          46.000  
G29  21385586.796   112382015.204        2242.208          46.000  
G 6  24311389.943   127757213.451       -1367.836          36.000  
G15  20975856.800   110228876.182        3588.202          43.000  
G30  24357068.680   127997260.714        1552.794          40.000  
C 6  36173139.085   188363029.607        1759.700          44.000  
C 8  36360968.517   189341103.926        1670.261          46.000  
C13  36300938.302   189028512.135        1822.916          47.000  
C14  25567503.313   133136687.380       -1347.713          41.000  
C16  36581309.660   190488483.344        1945.096          44.000  
C27  22425869.276   116777388.604        2745.742          50.000  
C28  22014275.912   114634111.234        -348.444          47.000  
C 4  38698845.594   201515039.990        1155.377          38.000  
C 1  37737923.214   196511272.369        1178.815          41.000  
C 3  36298340.698   189014987.846        1145.944          42.000  
C 2  37218455.604   193806261.716        1184.923          38.000  
C25  26489106.757   137935724.117        3168.964          37.000  
G18  24676963.908   129678323.471        4172.256          39.000  
G12  25589117.780   134471735.645        -944.927          30.000  
G25  25608534.324   134573730.781        -816.126          31.000  
C 5  39249962.280   204384855.253        1180.983          36.000  
C 9  37641770.246   196010586.115        2254.200          38.000  
> 2020  5 30 12 32 52.0000000  0 24                     
G 2  21638403.073   113710574.187         139.294          45.000  
G 5  21299026.736   111927138.413        -212.404          49.000  
G13  20249617.408   106412464.206        1928.946          46.000  
G29  21385160.243   112379773.630        2241.229          46.000  
G 6  24311650.230   127758581.317       -1368.110          36.000  
G15  20975173.938   110225288.245        3587.713          43.000  
G30  24356773.457   127995708.612        1551.966          40.000  
C 6  36172800.795   188361270.254        1759.155          44.000  
C 8  36360647.782   189339434.052        1669.774          46.000  
C13  36300588.286   189026689.355        1822.737          47.000  
C14  25567762.029   133138034.947       -1347.655          41.000  
C16  36580936.260   190486538.482        1944.698          44.000  
C27  22425342.210   116774643.323        2744.990          50.000  
C28  22014342.851   114634460.023        -349.027          47.000  
C 4  38698623.697   201513884.655        1155.298          38.000  
C 1  37737697.094   196510094.043        1178.221          41.000  
C 3  36298120.686   189013842.012        1145.685          42.000  
C 2  37218228.089   193805076.910        1185.011          38.000  
C25  26488498.233   137932555.567        3168.104          37.000  
G18  24676169.713   129674151.430        4172.379          39.000  
G12  25589299.018   134472680.973        -945.118          30.000  
G25  25608691.166   134574547.716        -815.983          31.000  
C 5  39249735.532   204383674.488        1181.046          36.000  
C 9  37641337.480   196008331.860        2254.082          38.000  
> 2020  5 30 12 32 53.0000000  0 24                     
G 2  21638376.478   113710434.927         139.331          45.000  
G 5  21299067.360   111927350.859        -212.178          49.000  
G13  20249250.709   106410535.653        1928.455          46.000  
G29  21384733.759   112377532.760        2240.814          46.000  
G 6  24311910.762   127759949.494       -1368.322          36.000  
G15  20974491.321   110221700.899        3587.268          43.000  
G30  24356478.199   127994157.041        1551.458          40.000  
C 6  36172463.064   188359511.073        1759.629          44.000  
C 8  36360327.047   189337764.264        1670.023          46.000  
C13  36300238.200   189024866.603        1823.098          47.000  
C14  25568020.781   133139382.500       -1347.511          41.000  
C16  36580562.790   190484593.826        1944.861          44.000  
C27  22424814.969   116771898.534        2744.883          50.000  
C28  22014410.139   114634809.364        -349.238          47.000  
C 4  38698401.870   201512729.395        1155.475          38.000  
C 1  37737470.835   196508915.745        1178.809          41.000  
C 3  36297900.743   189012696.234        1146.119          42.000  
C 2  37218000.677   193803892.194        1185.112          38.000  
C25  26487889.814   137929386.970        3168.895          37.000  
G18  24675375.763   129669979.405        4172.521          39.000  
G12  25589476.348   134473626.132        -944.584          30.000  
G25  25608845.182   134575364.704        -817.606          31.000  
C 5  39249508.644   204382493.802        1180.928          36.000  
C 9  37640904.750   196006077.777        2254.702          38.000  
> 2020  5 30 12 32 54.0000000  0 24                     
G 2  21638349.884   113710295.496         139.409          46.000  
G 5  21299107.600   111927562.846        -211.681          49.000  
G13  20248883.591   106408607.175        1928.429          46.000  
G29  21384307.381   112375291.977        2240.708          46.000  
G 6  24312170.875   127761317.338       -1367.991          36.000  
G15  20973808.878   110218113.459        3587.408          43.000  
G30  24356182.697   127992605.341        1551.562          40.000  
C 6  36172125.088   188357751.500        1759.838          44.000  
C 8  36360006.243   189336093.939        1670.546          46.000  
C13  36299888.183   189023043.293        1823.590          47.000  
C14  25568279.359   133140729.406       -1346.678          41.000  
C16  36580189.356   190482648.756        1945.330          44.000  
C27  22424287.938   116769153.626        2744.975          50.000  
C28  22014477.392   114635158.610        -349.141          47.000  
C 4  38698179.764   201511573.572        1155.872          38.000  
C 1  37737244.505   196507736.909        1179.024          41.000  
C 3  36297680.452   189011549.900        1146.593          42.000  
C 2  37217773.022   193802706.925        1185.395          38.000  
C25  26487281.604   137926217.723        3169.757          37.000  
G18  24674581.674   129665806.689        4173.282          39.000  
G12  25589655.771   134474570.469        -944.108          30.000  
G25  25609000.873   134576180.936        -815.119          31.000  
C 5  39249281.582   204381312.620        1180.847          36.000  
C 9  37640471.635   196003823.284        2254.515          38.000  
> 2020  5 30 12 32 55.0000000  0 24                     
G 2  21638323.325   113710156.114         139.125          45.000  
G 5  21299147.805   111927774.637        -212.197          49.000  
G13  20248516.683   106406679.034        1927.561          46.000  
G29  21383880.932   112373051.496        2240.009          46.000  
G 6  24312431.162   127762685.118       -1368.721          36.000  
G15  20973126.155   110214526.205        3586.774          43.000  
G30  24355887.509   127991053.751        1551.389          40.000  
C 6  36171787.287   188355991.760        1759.443          44.000  
C 8  36359685.403   189334423.328        1670.363          46.000  
C13  36299537.748   189021219.638        1823.521          47.000  
C14  25568537.692   133142075.916       -1346.634          41.000  
C16  36579815.886   190480703.512        1945.242          44.000  
C27  22423760.871   116766408.843        2744.369          50.000  
C28  22014544.331   114635508.012        -349.868          47.000  
C 4  38697957.588   201510417.427        1155.957          38.000  
C 1  37737017.687   196506557.735        1179.064          41.000  
C 3  36297460.160   189010403.245        1146.538          42.000  
C 2  37217545.262   193801521.306        1185.623          38.000  
C25  26486672.801   137923048.114        3169.612          37.000  
G18  24673787.724   129661633.583        4173.104          39.000  
G12  25589832.646   134475514.188        -944.017          29.000  
G25  25609156.947   134576996.770        -815.510          32.000  
C 5  39249054.659   204380131.061        1180.926          36.000  
C 9  37640038.800   196001568.591        2253.687          38.000  
> 2020  5 30 12 32 56.0000000  0 24                     
G 2  21638296.975   113710017.234         139.014          45.000  
G 5  21299188.046   111927986.631        -211.956          49.000  
G13  20248150.054   106404751.654        1927.215          46.000  
G29  21383454.868   112370811.771        2239.554          46.000  
G 6  24312691.659   127764053.174       -1367.841          36.000  
G15  20972443.817   110210939.549        3586.511          43.000  
G30  24355592.287   127989502.732        1551.072          40.000  
C 6  36171449.241   188354232.253        1759.609          44.000  
C 8  36359364.563   189332752.849        1670.542          46.000  
C13  36299187.592   189019396.059        1823.790          47.000  
C14  25568796.339   133143422.453       -1346.405          41.000  
C16  36579442.242   190478758.549        1944.955          44.000  
C27  22423233.944   116763664.594        2744.088          50.000  
C28  22014611.444   114635857.993        -350.046          47.000  
C 4  38697735.656   201509261.368        1156.079          38.000  
C 1  37736791.498   196505378.671        1179.160          41.000  
C 3  36297240.078   189009256.675        1146.875          42.000  
C 2  37217317.606   193800335.827        1185.655          38.000  
C25  26486064.242   137919878.505        3169.985          37.000  
G18  24672993.494   129657460.487        4173.228          39.000  
G12  25590008.265   134476457.754        -943.454          29.000  
G25  25609314.523   134577812.635        -815.193          32.000  
C 5  39248827.946   204378949.612        1181.230          36.000  
C 9  37639605.651   195999314.056        2254.357          38.000  
> 2020  5 30 12 32 57.0000000  0 24                     
G 2  21638270.800   113709878.925         137.983          45.000  
G 5  21299228.460   111928198.908        -212.603          49.000  
G13  20247783.494   106402825.110        1926.073          46.000  
G29  21383028.838   112368572.866        2238.475          46.000  
G 6  24312952.226   127765421.741       -1369.379          36.000  
G15  20971761.374   110207353.567        3585.583          43.000  
G30  24355297.238   127987952.353        1550.021          40.000  
C 6  36171111.614   188352473.067        1758.919          44.000  
C 8  36359043.828   189331082.564        1669.984          46.000  
C13  36298837.331   189017572.658        1823.176          47.000  
C14  25569054.846   133144769.089       -1346.970          41.000  
C16  36579068.982   190476813.866        1944.395          44.000  
C27  22422707.018   116760920.956        2743.283          50.000  
C28  22014678.767   114636208.632        -351.060          48.000  
C 4  38697513.479   201508105.485        1155.994          38.000  
C 1  37736565.064   196504199.789        1178.540          41.000  
C 3  36297019.996   189008110.314        1145.942          42.000  
C 2  37217089.846   193799150.467        1185.097          38.000  
C25  26485455.683   137916709.003        3169.105          38.000  
G18  24672199.544   129653287.476        4172.589          39.000  
G12  25590187.339   134477401.196        -943.381          29.000  
G25  25609467.491   134578628.537        -815.063          32.000  
C 5  39248601.093   204377768.317        1181.140          36.000  
C 9  37639172.571   195997059.811        2254.054          38.000  
> 2020  5 30 12 32 58.0000000  0 24                     
G 2  21638244.520   113709741.170         137.599          45.000  
G 5  21299269.154   111928411.472        -212.869          49.000  
G13  20247417.319   106400899.408        1925.079          46.000  
G29  21382602.844   112366334.783        2237.545          46.000  
G 6  24313212.793   127766790.627       -1368.951          36.000  
G15  20971079.070   110203768.276        3584.735          43.000  
G30  24355002.783   127986402.600        1549.132          40.000  
C 6  36170773.708   188350714.199        1758.667          44.000  
C 8  36358722.954   189329412.498        1669.754          46.000  
C13  36298487.210   189015749.392        1823.126          47.000  
C14  25569313.319   133146115.804       -1346.963          41.000  
C16  36578695.373   190474869.522        1944.063          44.000  
C27  22422180.056   116758177.937        2742.566          50.000  
C28  22014746.404   114636559.903        -351.685          47.000  
C 4  38697291.583   201506949.800        1155.292          38.000  
C 1  37736338.699   196503021.062        1178.348          41.000  
C 3  36296799.844   189006964.096        1145.924          42.000  
C 2  37216862.120   193797965.321        1184.808          38.000  
C25  26484846.636   137913539.594        3168.872          38.000  
G18  24671405.420   129649114.528        4172.935          39.000  
G12  25590367.042   134478344.620        -943.493          29.000  
G25  25609625.451   134579444.567        -814.884          32.000  
C 5  39248374.380   204376587.214        1180.943          36.000  
C 9  37638739.806   195994805.867        2253.558          38.000  
> 2020  5 30 12 32 59.0000000  0 24                     
G 2  21638218.275   113709603.790         137.213          45.000  
G 5  21299309.534   111928624.127        -212.838          49.000  
G13  20247050.969   106398974.341        1924.692          46.000  
G29  21382176.919   112364097.334        2237.012          46.000  
G 6  24313473.324   127768159.793       -1369.324          36.000  
G15  20970396.871   110200183.459        3584.399          43.000  
G30  24354708.119   127984853.273        1549.102          40.000  
C 6  36170435.837   188348955.467        1758.649          44.000  
C 8  36358402.358   189327742.451        1669.929          46.000  
C13  36298136.984   189013926.116        1823.110          47.000  
C14  25569571.896   133147462.446       -1347.079          41.000  
C16  36578322.078   190472925.328        1944.203          44.000  
C27  22421653.723   116755435.348        2742.258          50.000  
C28  22014813.937   114636911.652        -352.104          47.000  
C 4  38697069.616   201505794.072        1155.432          38.000  
C 1  37736112.230   196501842.310        1178.409          41.000  
C 3  36296579.587   189005817.877        1146.025          42.000  
C 2  37216634.570   193796780.139        1185.194          38.000  
C25  26484238.217   137910370.076        3169.587          38.000  
G18  24670611.400   129644941.516        4172.635          39.000  
G12  25590543.777   134479287.728        -943.186          29.000  
G25  25609783.445   134580260.496        -815.821          32.000  
C 5  39248147.701   204375406.082        1181.423          36.000  
C 9  37638306.971   195992552.026        2253.673          38.000  
> 2020  5 30 12 33  0.0000000  0 24                     
G 2  21638192.414   113709467.039         136.720          45.000  
G 5  21299350.298   111928837.123        -212.861          49.000  
G13  20246684.864   106397050.177        1923.881          46.000  
G29  21381751.273   112361860.763        2236.277          46.000  
G 6  24313734.031   127769529.431       -1369.904          36.000  
G15  20969714.952   110196599.373        3584.027          43.000  
G30  24354413.280   127983304.642        1548.414          40.000  
C 6  36170098.036   188347197.112        1758.345          44.000  
C 8  36358081.798   189326072.661        1669.904          46.000  
C13  36297787.037   189012103.060        1823.058          47.000  
C14  25569830.683   133148809.209       -1346.688          41.000  
C16  36577948.608   190470981.509        1943.892          44.000  
C27  22421127.040   116752693.408        2741.895          50.000  
C28  22014881.643   114637264.100        -352.590          48.000  
C 4  38696847.754   201504638.587        1155.054          38.000  
C 1  37735885.901   196500663.781        1178.381          41.000  
C 3  36296359.610   189004671.869        1146.138          42.000  
C 2  37216406.844   193795595.202        1185.283          38.000  
C25  26483629.518   137907200.722        3169.360          38.000  
G18  24669817.694   129640768.607        4173.318          39.000  
G12  25590722.782   134480230.861        -943.203          28.000  
G25  25609931.946   134581076.544        -815.235          32.000  
C 5  39247920.883   204374225.173        1181.801          36.000  
C 9  37637874.310   195990298.492        2253.921          38.000  
> 2020  5 30 12 33  1.0000000  0 24                     
G 2  21638166.552   113709330.732         136.149          45.000  
G 5  21299390.678   111929050.306        -213.459          49.000  
G13  20246318.793   106395126.720        1922.996          46.000  
G29  21381325.906   112359624.889        2235.455          46.000  
G 6  24313994.876   127770899.317       -1369.899          36.000  
G15  20969032.927   110193015.853        3583.124          43.000  
G30  24354118.721   127981756.520        1547.699          40.000  
C 6  36169760.548   188345438.960        1757.910          44.000  
C 8  36357761.202   189324402.973        1669.604          46.000  
C13  36297437.056   189010280.039        1822.853          47.000  
C14  25570089.330   133150155.973       -1346.954          41.000  
C16  36577575.313   190469037.916        1943.239          44.000  
C27  22420600.602   116749951.987        2741.109          50.000  
C28  22014949.350   114637617.085        -353.347          48.000  
C 4  38696625.996   201503483.133        1155.249          38.000  
C 1  37735659.642   196499485.316        1178.613          41.000  
C 3  36296139.737   189003525.946        1145.870          42.000  
C 2  37216179.398   193794410.341        1184.437          38.000  
C25  26483021.029   137904031.340        3169.291          38.000  
G18  24669023.605   129636595.685        4173.168          39.000  
G12  25590899.936   134481173.728        -942.644          28.000  
G25  25610089.557   134581892.528        -814.729          32.000  
C 5  39247694.240   204373044.386        1180.485          36.000  
C 9  37637441.545   195988045.173        2252.969          38.000  
> 2020  5 30 12 33  2.0000000  0 24                     
G 2  21638140.412   113709194.590         136.061          45.000  
G 5  21299431.127   111929263.355        -213.004          49.000  
G13  20245952.967   106393203.693        1922.890          46.000  
G29  21380900.610   112357389.425        2235.281          46.000  
G 6  24314255.653   127772269.270       -1369.747          36.000  
G15  20968351.252   110189432.587        3583.142          43.000  
G30  24353824.196   127980208.615        1547.781          40.000  
C 6  36169423.026   188343680.737        1758.209          44.000  
C 8  36357440.397   189322733.064        1670.127          46.000  
C13  36297086.516   189008456.766        1823.375          47.000  
C14  25570347.977   133151502.400       -1346.289          41.000  
C16  36577202.192   190467094.223        1943.705          44.000  
C27  22420074.443   116747210.768        2741.195          50.000  
C28  22015017.301   114637970.319        -353.404          48.000  
C 4  38696404.064   201502327.469        1155.438          38.000  
C 1  37735433.277   196498306.633        1178.840          41.000  
C 3  36295919.480   189002379.776        1146.270          42.000  
C 2  37215952.092   193793225.227        1185.286          38.000  
C25  26482412.365   137900861.652        3169.894          38.000  
G18  24668229.341   129632422.464        4173.187          39.000  
G12  25591078.068   134482116.139        -942.331          28.000  
G25  25610245.317   134582708.262        -815.726          32.000  
C 5  39247467.457   204371863.341        1180.585          36.000  
C 9  37637008.675   195985791.722        2253.239          38.000  
> 2020  5 30 12 33  3.0000000  0 24                     
G 2  21638114.690   113709059.198         135.314          45.000  
G 5  21299471.996   111929476.891        -213.494          49.000  
G13  20245587.489   106391281.698        1921.654          46.000  
G29  21380475.662   112355154.989        2233.962          46.000  
G 6  24314516.254   127773639.804       -1370.096          36.000  
G15  20967669.437   110185850.205        3581.982          43.000  
G30  24353529.845   127978661.541        1546.608          40.000  
C 6  36169085.504   188341923.009        1757.506          44.000  
C 8  36357119.942   189321063.563        1669.601          46.000  
C13  36296736.465   189006633.865        1822.924          47.000  
C14  25570606.415   133152849.133       -1346.564          41.000  
C16  36576829.246   190465151.052        1943.013          44.000  
C27  22419548.144   116744470.355        2740.182          50.000  
C28  22015085.288   114638324.381        -354.288          48.000  
C 4  38696182.342   201501172.148        1155.316          38.000  
C 1  37735207.088   196497128.291        1178.339          41.000  
C 3  36295699.259   189001233.973        1145.887          42.000  
C 2  37215724.157   193792040.459        1185.004          38.000  
C25  26481803.772   137897692.261        3169.477          38.000  
G18  24667435.181   129628249.477        4173.044          39.000  
G12  25591257.107   134483058.683        -942.563          27.000  
G25  25610401.602   134583524.230        -815.738          32.000  
C 5  39247241.023   204370682.619        1180.701          36.000  
C 9  37636575.735   195983538.721        2253.257          38.000  
> 2020  5 30 12 33  4.0000000  0 24                     
G 2  21638089.143   113708924.161         135.022          45.000  
G 5  21299512.375   111929690.494        -213.529          49.000  
G13  20245221.767   106389360.325        1921.103          46.000  
G29  21380050.365   112352921.139        2233.789          46.000  
G 6  24314777.030   127775010.558       -1370.903          36.000  
G15  20966988.041   110182268.265        3581.866          43.000  
G30  24353235.600   127977114.881        1546.454          40.000  
C 6  36168747.773   188340165.381        1757.725          44.000  
C 8  36356799.311   189319394.057        1669.627          46.000  
C13  36296386.448   189004810.884        1823.121          47.000  
C14  25570865.097   133154195.736       -1346.535          41.000  
C16  36576456.161   190463207.994        1943.141          44.000  
C27  22419021.846   116741730.337        2739.809          50.000  
C28  22015153.378   114638678.887        -354.575          48.000  
C 4  38695960.375   201500016.791        1155.695          38.000  
C 1  37734980.793   196495949.903        1178.628          41.000  
C 3  36295479.107   189000088.128        1146.068          42.000  
C 2  37215496.431   193790855.690        1185.207          38.000  
C25  26481195.038   137894522.743        3169.535          38.000  
G18  24666641.127   129624076.391        4173.684          39.000  
G12  25591438.380   134484000.873        -942.093          27.000  
G25  25610557.048   134584340.082        -815.899          32.000  
C 5  39247014.135   204369501.896        1180.637          36.000  
C 9  37636143.214   195981285.846        2252.721          38.000  
> 2020  5 30 12 33  5.0000000  0 24                     
G 2  21638063.456   113708789.215         134.433          45.000  
G 5  21299552.965   111929903.925        -213.711          48.000  
G13  20244856.046   106387439.303        1920.486          46.000  
G29  21379625.313   112350687.654        2232.970          46.000  
G 6  24315037.806   127776381.253       -1371.182          36.000  
G15  20966306.261   110178686.541        3581.317          43.000  
G30  24352941.354   127975568.368        1545.914          41.000  
C 6  36168410.216   188338407.617        1757.419          44.000  
C 8  36356478.576   189317724.297        1669.475          46.000  
C13  36296036.362   189002987.617        1823.035          47.000  
C14  25571123.744   133155541.981       -1346.355          41.000  
C16  36576082.901   190461264.798        1942.852          44.000  
C27  22418495.582   116738990.472        2739.350          50.000  
C28  22015221.678   114639033.593        -355.231          47.000  
C 4  38695738.304   201498861.152        1155.688          38.000  
C 1  37734754.220   196494771.240        1178.511          41.000  
C 3  36295258.920   188998942.012        1145.940          42.000  
C 2  37215269.020   193789670.621        1184.770          38.000  
C25  26480586.270   137891352.852        3169.701          38.000  
G18  24665846.967   129619902.914        4173.454          39.000  
G12  25591617.175   134484942.478        -941.648          27.000  
G25  25610709.703   134585155.482        -815.072          32.000  
C 5  39246787.527   204368320.872        1180.426          36.000  
C 9  37635710.658   195979032.735        2252.592          38.000  
> 2020  5 30 12 33  6.0000000  0 24                     
G 2  21638037.770   113708654.550         134.553          46.000  
G 5  21299593.624   111930117.357        -213.452          48.000  
G13  20244490.499   106385518.854        1920.178          46.000  
G29  21379200.575   112348454.711        2232.699          46.000  
G 6  24315298.722   127777752.050       -1370.521          36.000  
G15  20965624.900   110175105.215        3581.244          43.000  
G30  24352647.458   127974022.213        1545.784          41.000  
C 6  36168072.798   188336649.889        1757.585          44.000  
C 8  36356157.981   189316054.470        1669.876          46.000  
C13  36295686.241   189001164.231        1823.351          47.000  
C14  25571381.903   133156888.027       -1346.045          41.000  
C16  36575709.606   190459321.644        1943.004          44.000  
C27  22417969.563   116736250.944        2739.322          50.000  
C28  22015289.699   114639388.654        -355.191          48.000  
C 4  38695516.442   201497705.418        1155.774          38.000  
C 1  37734528.100   196493592.475        1178.808          41.000  
C 3  36295038.977   188997795.775        1146.332          42.000  
C 2  37215041.574   193788485.445        1185.399          38.000  
C25  26479977.606   137888182.777        3170.271          38.000  
G18  24665052.738   129615729.269        4173.568          39.000  
G12  25591797.296   134485883.835        -941.510          27.000  
G25  25610867.069   134585970.724        -814.727          32.000  
C 5  39246560.779   204367139.712        1181.365          36.000  
C 9  37635277.857   195976779.669        2252.774          38.000  
> 2020  5 30 12 33  7.0000000  0 24                     
G 2  21638012.257   113708519.837         134.767          46.000  
G 5  21299634.178   111930330.463        -212.753          49.000  
G13  20244125.196   106383598.603        1920.283          46.000  
G29  21378775.522   112346221.977        2232.522          46.000  
G 6  24315559.603   127779122.676       -1370.713          36.000  
G15  20964943.469   110171523.946        3581.403          43.000  
G30  24352353.456   127972476.050        1546.310          41.000  
C 6  36167735.067   188334891.867        1758.248          44.000  
C 8  36355837.176   189314384.228        1670.453          46.000  
C13  36295335.945   188999340.384        1824.169          47.000  
C14  25571640.340   133158233.548       -1345.087          41.000  
C16  36575336.659   190457378.202        1943.654          44.000  
C27  22417443.299   116733511.412        2739.614          50.000  
C28  22015358.034   114639743.763        -355.126          47.000  
C 4  38695294.231   201496549.211        1156.543          38.000  
C 1  37734301.631   196492413.239        1179.677          41.000  
C 3  36294818.860   188996649.099        1146.992          42.000  
C 2  37214814.093   193787299.809        1186.004          38.000  
C25  26479368.629   137885012.180        3171.065          38.000  
G18  24664258.404   129611555.063        4174.946          39.000  
G12  25591979.128   134486824.410        -940.358          27.000  
G25  25611020.421   134586785.451        -814.543          31.000  
C 5  39246333.821   204365958.149        1181.972          36.000  
C 9  37634845.162   195974526.244        2253.865          38.000  
> 2020  5 30 12 33  8.0000000  0 24                     
G 2  21637986.780   113708385.185         134.304          45.000  
G 5  21299674.697   111930543.366        -213.049          48.000  
G13  20243759.928   106381678.702        1919.616          46.000  
G29  21378350.505   112343989.549        2232.079          46.000  
G 6  24315820.274   127780493.192       -1370.570          36.000  
G15  20964262.073   110167942.854        3580.835          43.000  
G30  24352059.246   127970930.045        1545.445          41.000  
C 6  36167397.475   188333133.669        1758.178          44.000  
C 8  36355516.336   189312713.690        1670.416          46.000  
C13  36294985.614   188997516.222        1824.118          47.000  
C14  25571898.743   133159578.685       -1345.175          41.000  
C16  36574963.399   190455434.594        1943.567          44.000  
C27  22416917.419   116730772.002        2739.201          50.000  
C28  22015426.055   114640099.020        -355.450          47.000  
C 4  38695072.159   201495392.705        1156.738          38.000  
C 1  37734075.127   196491233.708        1179.625          41.000  
C 3  36294598.883   188995502.119        1146.729          42.000  
C 2  37214586.228   193786113.900        1185.531          38.000  
C25  26478759.546   137881841.199        3171.181          38.000  
G18  24663464.175   129607380.475        4174.465          39.000  
G12  25592159.772   134487764.407        -939.998          28.000  
G25  25611174.960   134587599.762        -815.093          31.000  
C 5  39246107.073   204364776.247        1182.127          36.000  
C 9  37634412.536   195972272.614        2253.777          38.000  
> 2020  5 30 12 33  9.0000000  0 24                     
G 2  21637961.198   113708250.903         134.254          45.000  
G 5  21299715.077   111930756.352        -212.856          49.000  
G13  20243394.590   106379759.452        1918.988          46.000  
G29  21377925.941   112341757.763        2231.646          46.000  
G 6  24316081.329   127781863.968       -1370.631          36.000  
G15  20963580.886   110164362.249        3580.530          43.000  
G30  24351765.035   127969384.470        1545.392          41.000  
C 6  36167059.813   188331375.604        1758.147          44.000  
C 8  36355195.462   189311043.192        1670.564          46.000  
C13  36294635.354   188995692.014        1824.321          47.000  
C14  25572157.041   133160923.716       -1344.769          41.000  
C16  36574590.244   190453491.128        1943.671          44.000  
C27  22416391.226   116728033.020        2739.046          50.000  
C28  22015494.460   114640454.743        -355.727          47.000  
C 4  38694850.192   201494236.169        1156.854          38.000  
C 1  37733848.693   196490054.147        1179.727          41.000  
C 3  36294378.521   188994355.093        1147.133          42.000  
C 2  37214358.433   193784927.950        1186.073          38.000  
C25  26478150.708   137878670.135        3171.273          38.000  
G18  24662669.562   129603205.756        4174.879          39.000  
G12  25592337.625   134488704.121        -939.797          28.000  
G25  25611330.302   134588413.950        -814.247          31.000  
C 5  39245880.185   204363594.366        1181.836          36.000  
C 9  37633979.701   195970019.118        2253.543          38.000  
> 2020  5 30 12 33 10.0000000  0 24                     
G 2  21637935.756   113708116.923         133.584          45.000  
G 5  21299755.422   111930969.366        -213.406          48.000  
G13  20243029.322   106377840.758        1918.057          46.000  
G29  21377501.482   112339526.536        2230.593          46.000  
G 6  24316342.210   127783234.846       -1371.039          36.000  
G15  20962899.734   110160782.047        3579.706          43.000  
G30  24351470.824   127967839.257        1544.546          41.000  
C 6  36166722.535   188329617.585        1757.670          44.000  
C 8  36354874.692   189309372.609        1670.286          46.000  
C13  36294285.023   188993867.715        1823.881          47.000  
C14  25572415.200   133162268.572       -1344.938          41.000  
C16  36574216.914   190451547.715        1943.022          44.000  
C27  22415865.171   116725294.387        2738.070          50.000  
C28  22015562.795   114640810.859        -356.708          47.000  
C 4  38694628.260   201493079.564        1156.189          38.000  
C 1  37733622.014   196488874.490        1179.369          41.000  
C 3  36294158.335   188993207.980        1147.035          42.000  
C 2  37214130.638   193783741.887        1186.200          38.000  
C25  26477541.695   137875498.882        3170.939          38.000  
G18  24661875.263   129599030.854        4174.517          39.000  
G12  25592516.036   134489643.474        -939.360          28.000  
G25  25611485.400   134589227.930        -814.859          32.000  
C 5  39245653.053   204362412.351        1182.288          36.000  
C 9  37633546.865   195967765.627        2252.887          38.000  
> 2020  5 30 12 33 11.0000000  0 24                     
G 2  21637910.278   113707983.393         133.385          46.000  
G 5  21299796.081   111931182.544        -213.082          48.000  
G13  20242664.264   106375922.775        1917.881          46.000  
G29  21377077.092   112337295.995        2230.371          46.000  
G 6  24316603.195   127784606.038       -1371.219          36.000  
G15  20962218.548   110157202.405        3579.340          43.000  
G30  24351176.788   127966294.537        1544.758          41.000  
C 6  36166384.943   188327859.785        1757.662          44.000  
C 8  36354553.887   189307702.121        1670.641          46.000  
C13  36293934.588   188992043.453        1824.484          47.000  
C14  25572673.289   133163613.402       -1344.569          41.000  
C16  36573843.758   190449604.526        1943.043          44.000  
C27  22415339.257   116722556.246        2738.018          50.000  
C28  22015631.235   114641167.498        -356.773          47.000  
C 4  38694405.875   201491923.010        1156.458          38.000  
C 1  37733395.546   196487694.899        1179.626          41.000  
C 3  36293937.903   188992060.939        1147.372          42.000  
C 2  37213902.878   193782555.918        1185.982          38.000  
C25  26476932.857   137872327.611        3170.958          38.000  
G18  24661080.685   129594855.925        4175.317          39.000  
G12  25592694.133   134490582.607        -938.300          28.000  
G25  25611640.358   134590041.872        -814.323          32.000  
C 5  39245426.131   204361230.434        1182.448          36.000  
C 9  37633114.170   195965512.292        2253.409          38.000  
> 2020  5 30 12 33 12.0000000  0 24                     
G 2  21637884.941   113707850.401         132.178          46.000  
G 5  21299836.600   111931396.001        -213.971          48.000  
G13  20242299.310   106374005.634        1916.362          46.000  
G29  21376652.878   112335066.274        2228.859          46.000  
G 6  24316864.146   127785977.648       -1372.423          36.000  
G15  20961537.431   110153623.414        3578.314          43.000  
G30  24350882.857   127964750.459        1543.215          41.000  
C 6  36166047.386   188326102.278        1756.824          44.000  
C 8  36354233.082   189306031.838        1669.928          46.000  
C13  36293584.397   188990219.338        1823.596          47.000  
C14  25572931.552   133164958.323       -1345.292          41.000  
C16  36573470.568   190447661.630        1942.169          44.000  
C27  22414813.586   116719818.709        2736.958          50.000  
C28  22015699.710   114641524.774        -357.972          47.000  
C 4  38694183.664   201490766.592        1155.768          38.000  
C 1  37733169.181   196486515.446        1179.219          41.000  
C 3  36293717.682   188990914.071        1146.346          42.000  
C 2  37213675.117   193781370.111        1185.030          38.000  
C25  26476323.984   137869156.428        3170.489          38.000  
G18  24660286.455   129590681.081        4174.375          39.000  
G12  25592873.800   134491521.686        -938.881          28.000  
G25  25611795.490   134590855.897        -814.136          32.000  
C 5  39245198.964   204360048.652        1181.473          36.000  
C 9  37632681.579   195963259.228        2252.247          38.000  
> 2020  5 30 12 33 13.0000000  0 24                     
G 2  21637859.708   113707718.264         131.820          45.000  
G 5  21299877.329   111931610.037        -214.205          48.000  
G13  20241934.530   106372089.600        1915.573          46.000  
G29  21376228.872   112332837.655        2228.191          46.000  
G 6  24317125.201   127787349.910       -1372.281          36.000  
G15  20960856.488   110150045.396        3577.692          43.000  
G30  24350589.379   127963207.271        1542.693          41.000  
C 6  36165709.829   188324345.382        1756.556          44.000  
C 8  36353912.417   189304362.061        1669.381          46.000  
C13  36293234.101   188988395.676        1823.535          47.000  
C14  25573189.955   133166303.622       -1345.541          41.000  
C16  36573097.482   190445719.339        1942.068          44.000  
C27  22414287.951   116717082.070        2736.407          50.000  
C28  22015768.778   114641882.985        -358.591          47.000  
C 4  38693961.523   201489610.614        1156.146          38.000  
C 1  37732942.712   196485336.456        1178.942          41.000  
C 3  36293497.565   188989767.632        1146.353          42.000  
C 2  37213447.497   193780184.738        1185.100          38.000  
C25  26475715.007   137865985.609        3170.840          38.000  
G18  24659491.912   129586506.616        4173.945          39.000  
G12  25593051.025   134492460.966        -939.592          28.000  
G25  25611950.308   134591670.294        -815.122          32.000  
C 5  39244972.111   204358867.357        1180.819          36.000  
C 9  37632248.988   195961006.730        2252.345          38.000  
> 2020  5 30 12 33 14.0000000  0 24                     
G 2  21637834.789   113707586.807         131.336          45.000  
G 5  21299918.093   111931824.467        -214.423          48.000  
G13  20241570.379   106370174.529        1914.597          46.000  
G29  21375805.041   112330609.979        2227.272          46.000  
G 6  24317386.605   127788722.754       -1373.069          36.000  
G15  20960175.825   110146468.166        3576.953          43.000  
G30  24350296.076   127961664.841        1542.195          41.000  
C 6  36165372.552   188322588.915        1756.349          44.000  
C 8  36353591.857   189302692.588        1669.381          46.000  
C13  36292883.980   188986572.298        1823.260          47.000  
C14  25573448.323   133167649.102       -1345.219          41.000  
C16  36572724.711   190443777.508        1941.736          44.000  
C27  22413762.490   116714346.168        2735.654          50.000  
C28  22015837.741   114642241.957        -359.176          47.000  
C 4  38693739.626   201488454.955        1155.542          38.000  
C 1  37732716.104   196484157.750        1178.733          41.000  
C 3  36293277.482   188988621.503        1145.967          42.000  
C 2  37213219.876   193778999.672        1184.600          38.000  
C25  26475105.924   137862815.016        3170.819          38.000  
G18  24658697.683   129582332.328        4174.218          39.000  
G12  25593228.109   134493400.291        -939.281          28.000  
G25  25612105.476   134592484.846        -814.147          32.000  
C 5  39244745.363   204357686.334        1180.348          36.000  
C 9  37631816.676   195958754.638        2252.152          38.000  
> 2020  5 30 12 33 15.0000000  0 24                     
G 2  21637809.905   113707455.885         130.672          45.000  
G 5  21299959.031   111932039.156        -214.688          48.000  
G13  20241206.019   106368260.250        1913.865          46.000  
G29  21375381.106   112328383.078        2226.710          46.000  
G 6  24317647.731   127790095.964       -1373.766          36.000  
G15  20959495.476   110142891.586        3576.281          43.000  
G30  24350002.738   127960122.998        1541.813          41.000  
C 6  36165035.518   188320832.736        1756.161          44.000  
C 8  36353271.401   189301023.277        1669.380          46.000  
C13  36292533.789   188984749.032        1823.187          47.000  
C14  25573706.621   133168994.671       -1345.535          41.000  
C16  36572351.939   190441835.959        1941.397          44.000  
C27  22413237.134   116711610.840        2735.147          50.000  
C28  22015906.774   114642601.559        -359.818          47.000  
C 4  38693517.938   201487299.422        1155.426          38.000  
C 1  37732489.565   196482979.194        1178.525          41.000  
C 3  36293057.365   188987475.482        1146.313          42.000  
C 2  37212992.325   193777814.750        1184.469          38.000  
C25  26474496.877   137859644.506        3170.429          38.000  
G18  24657903.523   129578158.117        4174.185          39.000  
G12  25593408.545   134494339.417        -938.673          27.000  
G25  25612260.294   134593299.456        -814.148          32.000  
C 5  39244518.545   204356505.405        1181.099          36.000  
C 9  37631384.016   195956502.806        2251.655          38.000  
> 2020  5 30 12 33 16.0000000  0 24                     
G 2  21637785.021   113707325.739         129.581          45.000  
G 5  21299999.934   111932254.351        -215.604          48.000  
G13  20240842.042   106366347.016        1912.666          46.000  
G29  21374957.554   112326157.232        2225.273          46.000  
G 6  24317909.205   127791469.811       -1374.780          36.000  
G15  20958815.057   110139315.879        3575.494          43.000  
G30  24349709.714   127958582.017        1540.206          41.000  
C 6  36164698.415   188319077.063        1755.143          44.000  
C 8  36352950.701   189299354.398        1668.549          46.000  
C13  36292183.703   188982926.139        1822.654          47.000  
C14  25573965.093   133170340.545       -1346.228          41.000  
C16  36571979.098   190439894.948        1940.596          44.000  
C27  22412712.057   116708876.341        2734.055          50.000  
C28  22015976.121   114642962.012        -361.104          47.000  
C 4  38693296.181   201486144.264        1155.115          38.000  
C 1  37732263.410   196481801.012        1177.894          41.000  
C 3  36292837.388   188986329.891        1145.219          42.000  
C 2  37212764.670   193776630.187        1184.199          38.000  
C25  26473888.074   137856474.269        3170.116          38.000  
G18  24657109.329   129573984.192        4173.654          39.000  
G12  25593587.793   134495278.739        -939.317          27.000  
G25  25612414.798   134594114.413        -814.889          31.000  
C 5  39244291.657   204355324.940        1179.691          36.000  
C 9  37630951.774   195954251.450        2250.819          38.000  
> 2020  5 30 12 33 17.0000000  0 24                     
G 2  21637760.276   113707196.120         129.508          45.000  
G 5  21300041.047   111932469.785        -215.435          48.000  
G13  20240478.205   106364434.592        1912.152          46.000  
G29  21374534.107   112323932.165        2224.808          46.000  
G 6  24318170.748   127792843.994       -1374.193          36.000  
G15  20958134.987   110135740.838        3574.902          43.000  
G30  24349416.515   127957041.607        1540.260          41.000  
C 6  36164361.172   188317321.699        1755.375          44.000  
C 8  36352630.280   189297685.684        1668.715          46.000  
C13  36291833.582   188981103.355        1822.822          47.000  
C14  25574223.566   133171686.453       -1345.772          41.000  
C16  36571606.396   190437954.213        1940.790          44.000  
C27  22412187.119   116706142.420        2733.746          50.000  
C28  22016045.398   114643323.070        -361.137          47.000  
C 4  38693074.319   201484989.263        1155.280          38.000  
C 1  37732037.290   196480622.957        1178.249          41.000  
C 3  36292617.376   188985184.411        1145.608          42.000  
C 2  37212536.909   193775445.785        1184.219          38.000  
C25  26473279.340   137853304.087        3170.622          38.000  
G18  24656315.239   129569810.323        4174.035          39.000  
G12  25593768.787   134496217.893        -938.527          27.000  
G25  25612564.556   134594929.436        -815.779          31.000  
C 5  39244065.048   204354144.563        1180.250          36.000  
C 9  37630519.392   195952000.342        2251.382          38.000  
> 2020  5 30 12 33 18.0000000  0 24                     
G 2  21637735.532   113707067.130         128.367          45.000  
G 5  21300082.125   111932685.569        -216.174          48.000  
G13  20240114.438   106362523.054        1910.707          46.000  
G29  21374110.835   112321707.966        2223.424          46.000  
G 6  24318432.362   127794218.680       -1375.117          37.000  
G15  20957454.813   110132166.525        3573.633          43.000  
G30  24349123.631   127955501.909        1538.866          41.000  
C 6  36164024.243   188315566.711        1754.512          44.000  
C 8  36352309.824   189296017.245        1667.922          46.000  
C13  36291483.565   188979280.800        1822.130          47.000  
C14  25574482.248   133173032.534       -1346.375          41.000  
C16  36571233.694   190436013.880        1939.814          44.000  
C27  22411662.251   116703409.160        2732.652          50.000  
C28  22016114.711   114643684.856        -362.521          47.000  
C 4  38692852.701   201483834.489        1154.083          38.000  
C 1  37731811.205   196479445.139        1177.531          41.000  
C 3  36292397.293   188984039.162        1144.895          42.000  
C 2  37212309.673   193774261.629        1183.636          38.000  
C25  26472670.363   137850134.088        3169.576          38.000  
G18  24655521.115   129565636.619        4172.931          39.000  
G12  25593948.524   134497157.110        -939.327          27.000  
G25  25612727.716   134595744.471        -815.583          31.000  
C 5  39243838.370   204352964.407        1179.313          36.000  
C 9  37630087.290   195949749.589        2250.445          38.000  
> 2020  5 30 12 33 19.0000000  0 24                     
G 2  21637711.206   113706938.715         128.364          45.000  
G 5  21300123.307   111932901.667        -215.936          48.000  
G13  20239750.775   106360612.354        1910.629          46.000  
G29  21373687.632   112319484.615        2223.217          46.000  
G 6  24318694.220   127795593.791       -1375.173          37.000  
G15  20956774.778   110128592.903        3573.615          43.000  
G30  24348830.816   127953962.827        1539.114          41.000  
C 6  36163687.279   188313812.054        1754.904          44.000  
C 8  36351989.438   189294349.005        1668.334          46.000  
C13  36291133.793   188977458.407        1822.584          47.000  
C14  25574740.930   133174378.701       -1345.769          41.000  
C16  36570861.516   190434073.875        1940.123          44.000  
C27  22411137.663   116700676.542        2732.560          50.000  
C28  22016184.232   114644047.293        -362.508          47.000  
C 4  38692631.153   201482679.890        1154.572          38.000  
C 1  37731585.190   196478267.505        1177.800          41.000  
C 3  36292177.630   188982894.108        1145.217          42.000  
C 2  37212082.506   193773077.624        1184.202          38.000  
C25  26472061.524   137846964.198        3169.927          38.000  
G18  24654726.956   129561462.999        4173.701          39.000  
G12  25594128.017   134498096.221        -939.007          27.000  
G25  25612879.567   134596559.708        -815.722          31.000  
C 5  39243611.901   204351784.442        1180.446          36.000  
C 9  37629655.223   195947499.164        2250.404          38.000  
> 2020  5 30 12 33 20.0000000  0 24                     
G 2  21637686.776   113706810.714         127.778          45.000  
G 5  21300164.420   111933117.900        -216.323          48.000  
G13  20239387.217   106358702.354        1909.669          46.000  
G29  21373264.743   112317261.933        2222.312          46.000  
G 6  24318956.183   127796969.165       -1375.333          37.000  
G15  20956094.568   110125019.812        3572.797          43.000  
G30  24348538.001   127952424.242        1538.337          41.000  
C 6  36163350.351   188312057.569        1754.498          44.000  
C 8  36351669.017   189292680.818        1668.224          46.000  
C13  36290783.916   188975636.050        1822.311          47.000  
C14  25574999.507   133175724.837       -1346.018          41.000  
C16  36570488.919   190432134.063        1939.807          44.000  
C27  22410613.040   116697944.391        2731.916          50.000  
C28  22016253.754   114644410.245        -363.271          47.000  
C 4  38692409.430   201481525.311        1154.749          38.000  
C 1  37731359.245   196477089.897        1177.575          41.000  
C 3  36291957.513   188981749.069        1145.142          42.000  
C 2  37211855.234   193771893.676        1183.782          38.000  
C25  26471453.000   137843794.227        3170.316          38.000  
G18  24653932.796   129557289.304        4173.652          39.000  
G12  25594304.613   134499035.066        -939.240          27.000  
G25  25613034.456   134597374.762        -814.069          31.000  
C 5  39243385.118   204350604.524        1179.971          36.000  
C 9  37629223.016   195945248.818        2250.504          38.000  
> 2020  5 30 12 33 21.0000000  0 24                     
G 2  21637662.520   113706683.403         127.000          45.000  
G 5  21300205.638   111933334.537        -216.985          48.000  
G13  20239024.009   106356793.309        1908.486          46.000  
G29  21372841.820   112315040.193        2220.990          46.000  
G 6  24319218.076   127798345.062       -1375.912          37.000  
G15  20955414.777   110121447.507        3571.875          43.000  
G30  24348245.361   127950886.416        1537.338          41.000  
C 6  36163013.457   188310303.522        1753.960          44.000  
C 8  36351348.561   189291012.964        1667.590          46.000  
C13  36290433.795   188973813.967        1821.840          47.000  
C14  25575258.015   133177071.183       -1346.688          41.000  
C16  36570116.532   190430194.679        1939.103          44.000  
C27  22410088.346   116695212.980        2730.903          50.000  
C28  22016323.869   114644773.948        -364.157          47.000  
C 4  38692187.708   201480371.027        1154.456          38.000  
C 1  37731133.230   196475912.572        1177.242          41.000  
C 3  36291737.605   188980604.346        1144.363          42.000  
C 2  37211627.962   193770710.015        1183.715          38.000  
C25  26470844.337   137840624.510        3169.412          38.000  
G18  24653138.951   129553115.865        4172.904          39.000  
G12  25594483.583   134499973.898        -938.844          28.000  
G25  25613189.169   134598190.125        -814.350          31.000  
C 5  39243158.405   204349424.908        1179.201          36.000  
C 9  37628790.809   195942998.922        2249.635          38.000  
> 2020  5 30 12 33 22.0000000  0 24                     
G 2  21637638.544   113706556.683         126.074          45.000  
G 5  21300246.960   111933551.486        -217.271          48.000  
G13  20238660.835   106354885.121        1907.496          46.000  
G29  21372419.176   112312819.295        2220.127          46.000  
G 6  24319479.969   127799721.433       -1377.118          37.000  
G15  20954735.231   110117875.912        3571.094          43.000  
G30  24347953.070   127949349.212        1536.711          41.000  
C 6  36162676.842   188308549.831        1753.251          44.000  
C 8  36351028.245   189289345.339        1667.268          46.000  
C13  36290083.848   188971992.054        1821.755          47.000  
C14  25575516.557   133178417.624       -1346.527          41.000  
C16  36569743.969   190428255.652        1938.700          44.000  
C27  22409563.793   116692482.199        2730.148          50.000  
C28  22016393.775   114645138.334        -364.996          47.000  
C 4  38691966.020   201479216.939        1154.224          38.000  
C 1  37730907.110   196474735.458        1176.827          41.000  
C 3  36291517.733   188979459.800        1144.170          42.000  
C 2  37211400.796   193769526.585        1182.843          38.000  
C25  26470235.534   137837454.905        3168.901          38.000  
G18  24652344.757   129548942.504        4172.843          39.000  
G12  25594663.076   134500912.755        -938.937          28.000  
G25  25613348.141   134599005.602        -815.588          31.000  
C 5  39242931.866   204348245.460        1179.414          36.000  
C 9  37628358.776   195940749.340        2249.073          38.000  
> 2020  5 30 12 33 23.0000000  0 24                     
G 2  21637614.393   113706430.531         125.585          45.000  
G 5  21300288.003   111933768.733        -217.633          48.000  
G13  20238297.975   106352977.776        1906.744          46.000  
G29  21371996.706   112310599.219        2219.535          46.000  
G 6  24319741.931   127801098.174       -1377.006          37.000  
G15  20954055.929   110114305.009        3570.197          43.000  
G30  24347660.744   127947812.674        1536.144          41.000  
C 6  36162340.192   188306796.456        1753.180          44.000  
C 8  36350707.999   189287677.954        1667.025          46.000  
C13  36289733.936   188970170.323        1821.371          47.000  
C14  25575774.890   133179764.192       -1346.714          41.000  
C16  36569371.512   190426316.957        1938.226          44.000  
C27  22409039.484   116689752.040        2729.680          50.000  
C28  22016463.890   114645503.381        -365.549          47.000  
C 4  38691744.333   201478063.059        1153.632          38.000  
C 1  37730680.745   196473558.508        1176.829          41.000  
C 3  36291297.895   188978315.433        1144.213          42.000  
C 2  37211173.349   193768343.289        1182.838          38.000  
C25  26469627.045   137834285.398        3169.115          38.000  
G18  24651550.911   129544769.196        4173.139          39.000  
G12  25594843.546   134501851.468        -938.897          28.000  
G25  25613499.015   134599821.121        -815.058          31.000  
C 5  39242705.258   204347066.232        1178.892          36.000  
C 9  37627926.674   195938500.022        2248.930          38.000  
> 2020  5 30 12 33 24.0000000  0 24                     
G 2  21637590.346   113706304.977         125.329          45.000  
G 5  21300329.569   111933986.303        -217.727          48.000  
G13  20237935.080   106351071.306        1906.157          46.000  
G29  21371574.271   112308380.031        2218.595          46.000  
G 6  24320004.103   127802475.399       -1377.176          37.000  
G15  20953376.767   110110734.801        3570.031          43.000  
G30  24347368.488   127946276.798        1535.430          41.000  
C 6  36162003.508   188305043.449        1752.728          44.000  
C 8  36350387.648   189286010.797        1667.137          46.000  
C13  36289384.129   188968348.790        1821.532          47.000  
C14  25576033.677   133181110.879       -1346.921          41.000  
C16  36568999.334   190424378.630        1938.110          44.000  
C27  22408515.384   116687022.539        2729.243          50.000  
C28  22016533.970   114645869.113        -366.014          47.000  
C 4  38691522.715   201476909.351        1153.845          38.000  
C 1  37730454.765   196472381.788        1176.403          41.000  
C 3  36291078.301   188977171.294        1144.098          42.000  
C 2  37210946.322   193767160.208        1183.129          38.000  
C25  26469018.137   137831116.031        3169.298          38.000  
G18  24650756.752   129540596.075        4173.188          39.000  
G12  25595022.690   134502790.181        -938.740          29.000  
G25  25613657.708   134600636.806        -816.361          32.000  
C 5  39242478.963   204345887.189        1179.055          36.000  
C 9  37627494.816   195936251.051        2248.827          38.000  
> 2020  5 30 12 33 25.0000000  0 24                     
G 2  21637566.858   113706180.127         124.644          45.000  
G 5  21300370.996   111934204.290        -218.268          48.000  
G13  20237572.465   106349165.806        1905.020          46.000  
G29  21371152.325   112306161.769        2218.042          46.000  
G 6  24320266.240   127803853.155       -1377.075          37.000  
G15  20952697.360   110107165.413        3569.195          43.000  
G30  24347076.266   127944741.680        1534.968          41.000  
C 6  36161666.998   188303290.888        1752.292          44.000  
C 8  36350067.576   189284343.978        1666.603          46.000  
C13  36289034.392   188966527.530        1821.229          47.000  
C14  25576292.289   133182457.785       -1347.012          41.000  
C16  36568627.155   190422440.753        1937.787          44.000  
C27  22407991.109   116684293.780        2728.617          50.000  
C28  22016604.154   114646235.622        -366.781          47.000  
C 4  38691301.376   201475755.987        1153.241          38.000  
C 1  37730229.099   196471205.338        1176.753          41.000  
C 3  36290858.673   188976027.453        1143.931          42.000  
C 2  37210719.155   193765977.460        1182.760          38.000  
C25  26468409.543   137827946.888        3169.010          38.000  
G18  24649962.802   129536423.186        4172.682          39.000  
G12  25595204.242   134503728.961        -939.021          29.000  
G25  25613814.585   134601452.688        -816.846          32.000  
C 5  39242252.564   204344708.453        1178.574          36.000  
C 9  37627063.202   195934002.482        2248.691          38.000  
> 2020  5 30 12 33 26.0000000  0 24                     
G 2  21637543.161   113706055.618         124.271          45.000  
G 5  21300412.492   111934422.335        -218.024          48.000  
G13  20237210.024   106347260.905        1904.636          46.000  
G29  21370730.169   112303944.123        2217.268          46.000  
G 6  24320528.552   127805231.124       -1378.005          37.000  
G15  20952018.093   110103596.482        3568.542          43.000  
G30  24346784.115   127943206.972        1534.606          41.000  
C 6  36161330.313   188301538.414        1752.477          44.000  
C 8  36349747.643   189282677.141        1666.957          46.000  
C13  36288684.550   188964706.200        1821.241          47.000  
C14  25576551.006   133183804.553       -1346.551          41.000  
C16  36568254.907   190420502.971        1937.740          44.000  
C27  22407467.324   116681565.413        2728.153          50.000  
C28  22016674.653   114646602.559        -367.103          47.000  
C 4  38691079.863   201474602.523        1153.644          38.000  
C 1  37730003.049   196470028.855        1176.704          41.000  
C 3  36290638.870   188974883.581        1143.668          42.000  
C 2  37210492.023   193764794.646        1182.827          38.000  
C25  26467800.914   137824777.608        3169.445          38.000  
G18  24649168.642   129532250.124        4173.006          39.000  
G12  25595379.791   134504667.343        -938.674          30.000  
G25  25613968.810   134602268.363        -815.173          32.000  
C 5  39242026.165   204343529.675        1178.646          36.000  
C 9  37626631.833   195931753.972        2248.460          38.000  
> 2020  5 30 12 33 27.0000000  0 24                     
G 2  21637519.533   113705931.504         123.479          45.000  
G 5  21300454.094   111934640.499        -218.655          48.000  
G13  20236847.652   106345356.688        1903.389          46.000  
G29  21370308.293   112301727.112        2216.306          46.000  
G 6  24320790.864   127806609.336       -1378.777          37.000  
G15  20951338.965   110100028.032        3567.987          43.000  
G30  24346492.208   127941672.714        1533.686          41.000  
C 6  36160993.699   188299786.089        1751.897          44.000  
C 8  36349427.502   189281010.351        1666.414          46.000  
C13  36288334.743   188962884.873        1821.014          47.000  
C14  25576809.793   133185151.255       -1346.935          41.000  
C16  36567882.834   190418565.351        1937.130          44.000  
C27  22406943.294   116678837.494        2727.196          50.000  
C28  22016745.117   114646969.980        -368.087          47.000  
C 4  38690858.630   201473449.074        1153.461          38.000  
C 1  37729776.929   196468852.367        1176.277          41.000  
C 3  36290419.241   188973739.677        1143.569          42.000  
C 2  37210264.786   193763611.846        1182.339          38.000  
C25  26467192.111   137821608.279        3168.867          38.000  
G18  24648374.553   129528076.968        4172.802          39.000  
G12  25595558.377   134505605.531        -939.313          30.000  
G25  25614122.023   134603083.973        -815.885          31.000  
C 5  39241799.696   204342350.897        1178.498          36.000  
C 9  37626200.114   195929505.567        2248.103          38.000  
> 2020  5 30 12 33 28.0000000  0 24                     
G 2  21637495.871   113705807.799         123.459          45.000  
G 5  21300495.451   111934858.786        -218.359          48.000  
G13  20236485.421   106343453.146        1903.213          46.000  
G29  21369886.311   112299510.775        2215.923          46.000  
G 6  24321053.210   127807987.790       -1378.777          37.000  
G15  20950660.047   110096460.139        3567.364          43.000  
G30  24346200.265   127940138.942        1533.489          41.000  
C 6  36160657.293   188298033.942        1752.093          44.000  
C 8  36349107.186   189279343.607        1666.444          46.000  
C13  36287985.180   188961063.551        1821.259          47.000  
C14  25577068.510   133186497.909       -1346.663          41.000  
C16  36567511.005   190416627.909        1937.210          44.000  
C27  22406419.508   116676110.029        2727.215          50.000  
C28  22016815.895   114647337.893        -368.199          47.000  
C 4  38690637.186   201472295.677        1153.253          38.000  
C 1  37729550.844   196467675.915        1176.087          41.000  
C 3  36290199.683   188972595.828        1143.579          42.000  
C 2  37210037.585   193762429.076        1182.438          38.000  
C25  26466583.412   137818438.861        3169.489          38.000  
G18  24647580.428   129523903.775        4173.051          39.000  
G12  25595738.777   134506543.419        -938.536          30.000  
G25  25614279.249   134603899.510        -815.146          31.000  
C 5  39241573.332   204341172.128        1178.665          36.000  
C 9  37625768.082   195927257.323        2247.880          38.000  
> 2020  5 30 12 33 29.0000000  0 24                     
G 2  21637472.348   113705684.386         123.469          45.000  
G 5  21300536.947   111935077.092        -218.110          48.000  
G13  20236123.154   106341550.178        1902.812          46.000  
G29  21369464.610   112297294.991        2215.719          46.000  
G 6  24321315.697   127809366.383       -1378.623          37.000  
G15  20949981.024   110092892.620        3567.535          43.000  
G30  24345908.463   127938605.527        1533.286          41.000  
C 6  36160320.714   188296281.832        1752.307          44.000  
C 8  36348787.149   189277676.794        1667.036          46.000  
C13  36287635.548   188959242.129        1821.570          47.000  
C14  25577327.052   133187844.368       -1346.224          41.000  
C16  36567138.931   190414690.511        1937.689          44.000  
C27  22405895.897   116673382.920        2727.094          50.000  
C28  22016886.813   114647706.187        -368.405          47.000  
C 4  38690415.499   201471142.154        1153.668          38.000  
C 1  37729325.073   196466499.338        1176.852          41.000  
C 3  36289979.985   188971451.847        1144.143          42.000  
C 2  37209810.348   193761246.183        1183.016          38.000  
C25  26465974.819   137815269.304        3169.895          38.000  
G18  24646786.304   129519730.361        4173.873          39.000  
G12  25595917.048   134507480.971        -937.919          30.000  
G25  25614430.822   134604714.930        -815.665          31.000  
C 5  39241346.933   204339993.269        1179.326          36.000  
C 9  37625336.468   195925009.079        2248.646          38.000  
> 2020  5 30 12 33 30.0000000  0 24                     
G 2  21637448.860   113705561.160         123.127          45.000  
G 5  21300578.409   111935295.316        -218.284          48.000  
G13  20235761.027   106339647.647        1902.493          46.000  
G29  21369043.047   112295079.652        2215.052          46.000  
G 6  24321578.218   127810745.019       -1378.455          37.000  
G15  20949302.350   110089325.417        3567.120          43.000  
G30  24345616.556   127937072.371        1532.711          41.000  
C 6  36159984.134   188294529.671        1752.210          44.000  
C 8  36348467.077   189276009.840        1666.967          46.000  
C13  36287285.706   188957420.487        1821.727          47.000  
C14  25577585.630   133189190.548       -1345.847          41.000  
C16  36566766.753   190412753.081        1937.395          44.000  
C27  22405372.146   116670656.055        2726.633          50.000  
C28  22016957.696   114648074.754        -368.730          47.000  
C 4  38690193.986   201469988.438        1154.175          38.000  
C 1  37729099.232   196465322.582        1176.755          41.000  
C 3  36289760.217   188970307.688        1144.166          42.000  
C 2  37209583.076   193760063.091        1183.065          38.000  
C25  26465366.120   137812099.459        3170.100          38.000  
G18  24645991.865   129515556.707        4173.677          39.000  
G12  25596098.007   134508418.039        -936.726          30.000  
G25  25614587.699   134605529.950        -814.805          32.000  
C 5  39241120.603   204338814.251        1178.867          36.000  
C 9  37624904.924   195922760.752        2248.497          38.000  
> 2020  5 30 12 33 31.0000000  0 24                     
G 2  21637425.372   113705438.398         122.763          45.000  
G 5  21300619.941   111935513.715        -218.192          48.000  
G13  20235399.040   106337745.860        1901.760          46.000  
G29  21368621.624   112292865.023        2214.631          46.000  
G 6  24321840.459   127812123.973       -1378.884          38.000  
G15  20948623.676   110085758.791        3566.614          43.000  
G30  24345324.823   127935539.734        1532.633          41.000  
C 6  36159647.659   188292777.730        1752.108          44.000  
C 8  36348146.830   189274342.968        1667.113          46.000  
C13  36286935.899   188955598.916        1821.774          47.000  
C14  25577844.242   133190536.740       -1346.084          41.000  
C16  36566394.610   190410815.861        1937.409          44.000  
C27  22404848.570   116667929.698        2726.339          50.000  
C28  22017028.579   114648443.871        -369.067          47.000  
C 4  38689972.473   201468834.811        1153.772          38.000  
C 1  37728873.042   196464145.875        1177.135          41.000  
C 3  36289540.623   188969163.587        1144.340          42.000  
C 2  37209355.944   193758880.064        1183.739          38.000  
C25  26464757.142   137808929.631        3169.406          38.000  
G18  24645197.776   129511383.018        4173.641          39.000  
G12  25596276.174   134509354.981        -937.209          31.000  
G25  25614744.123   134606344.969        -814.897          32.000  
C 5  39240894.030   204337635.244        1179.636          36.000  
C 9  37624473.311   195920512.611        2248.259          39.000  
> 2020  5 30 12 33 32.0000000  0 24                     
G 2  21637402.093   113705315.901         122.117          45.000  
G 5  21300661.298   111935732.106        -218.652          48.000  
G13  20235037.262   106335844.621        1900.565          46.000  
G29  21368200.167   112290650.918        2213.569          46.000  
G 6  24322102.876   127813503.032       -1379.279          38.000  
G15  20947944.828   110082192.538        3565.631          43.000  
G30  24345033.160   127934007.418        1531.779          41.000  
C 6  36159311.219   188291025.828        1751.387          44.000  
C 8  36347826.723   189272676.020        1666.532          46.000  
C13  36286585.917   188953777.218        1821.404          47.000  
C14  25578102.575   133191882.704       -1346.176          41.000  
C16  36566022.571   190408878.675        1936.890          44.000  
C27  22404325.028   116665203.661        2725.540          50.000  
C28  22017099.636   114648813.346        -369.921          47.000  
C 4  38689750.890   201467681.018        1153.302          38.000  
C 1  37728647.097   196462969.067        1176.398          41.000  
C 3  36289320.925   188968019.381        1143.964          42.000  
C 2  37209128.777   193757696.946        1183.192          38.000  
C25  26464148.653   137805759.560        3169.593          38.000  
G18  24644403.477   129507209.121        4173.383          39.000  
G12  25596457.202   134510291.501        -937.553          31.000  
G25  25614897.860   134607159.832        -815.740          32.000  
C 5  39240667.700   204336456.161        1178.717          36.000  
C 9  37624041.871   195918264.449        2247.959          38.000  
> 2020  5 30 12 33 33.0000000  0 24                     
G 2  21637378.989   113705194.071         121.283          45.000  
G 5  21300703.039   111935950.877        -219.188          48.000  
G13  20234675.868   106333944.305        1899.590          46.000  
G29  21367778.953   112288437.731        2212.648          46.000  
G 6  24322365.537   127814882.618       -1380.205          38.000  
G15  20947266.224   110078627.052        3564.960          43.000  
G30  24344741.776   127932475.845        1530.875          41.000  
C 6  36158974.709   188289274.315        1751.127          44.000  
C 8  36347506.617   189271009.332        1666.259          46.000  
C13  36286236.145   188951955.766        1821.261          47.000  
C14  25578361.292   133193228.848       -1346.326          41.000  
C16  36565650.742   190406941.907        1936.410          44.000  
C27  22403801.696   116662478.324        2724.779          50.000  
C28  22017170.763   114649183.560        -370.714          47.000  
C 4  38689529.377   201466527.507        1153.119          38.000  
C 1  37728421.047   196461792.498        1176.326          41.000  
C 3  36289101.261   188966875.423        1143.787          42.000  
C 2  37208901.820   193756514.085        1182.415          38.000  
C25  26463540.199   137802589.684        3169.992          38.000  
G18  24643609.422   129503035.385        4173.668          39.000  
G12  25596634.252   134511227.972        -936.377          31.000  
G25  25615052.085   134607974.765        -815.367          32.000  
C 5  39240441.476   204335277.310        1178.630          36.000  
C 9  37623610.328   195916016.678        2247.335          39.000  
> 2020  5 30 12 33 34.0000000  0 24                     
G 2  21637355.920   113705073.070         120.598          45.000  
G 5  21300744.884   111936170.211        -219.645          48.000  
G13  20234314.544   106332045.093        1898.598          46.000  
G29  21367358.124   112286225.647        2211.484          46.000  
G 6  24322628.372   127816262.869       -1380.748          38.000  
G15  20946588.004   110075062.522        3564.069          43.000  
G30  24344450.672   127930945.172        1530.039          41.000  
C 6  36158638.513   188287523.405        1750.507          44.000  
C 8  36347186.510   189269343.146        1665.863          46.000  
C13  36285886.512   188950134.733        1820.925          47.000  
C14  25578619.904   133194575.392       -1347.220          41.000  
C16  36565278.982   190405005.733        1935.782          44.000  
C27  22403278.573   116659753.882        2723.937          50.000  
C28  22017242.065   114649554.688        -371.662          47.000  
C 4  38689307.864   201465374.448        1152.527          38.000  
C 1  37728195.346   196460616.388        1175.643          41.000  
C 3  36288881.668   188965731.914        1143.436          42.000  
C 2  37208674.792   193755331.692        1181.872          38.000  
C25  26462931.466   137799420.203        3169.441          38.000  
G18  24642815.123   129498862.053        4172.916          39.000  
G12  25596813.257   134512164.707        -936.901          31.000  
G25  25615207.252   134608790.148        -816.536          32.000  
C 5  39240215.530   204334098.922        1178.129          36.000  
C 9  37623178.819   195913769.435        2247.098          39.000  
> 2020  5 30 12 33 35.0000000  0 24                     
G 2  21637332.990   113704952.714         120.084          45.000  
G 5  21300786.451   111936389.891        -219.628          48.000  
G13  20233953.289   106330146.783        1898.127          46.000  
G29  21366937.539   112284014.446        2210.985          46.000  
G 6  24322891.207   127817643.594       -1380.631          38.000  
G15  20945909.958   110071498.739        3563.562          43.000  
G30  24344159.393   127929415.180        1529.882          41.000  
C 6  36158302.596   188285772.898        1750.754          44.000  
C 8  36346866.822   189267677.226        1666.016          46.000  
C13  36285536.845   188948313.943        1820.790          47.000  
C14  25578878.446   133195922.056       -1346.668          41.000  
C16  36564907.083   190403069.951        1935.784          44.000  
C27  22402755.556   116657030.120        2723.562          50.000  
C28  22017313.366   114649926.529        -371.938          47.000  
C 4  38689086.769   201464221.607        1152.814          38.000  
C 1  37727969.645   196459440.489        1175.988          41.000  
C 3  36288662.388   188964588.674        1143.345          42.000  
C 2  37208447.730   193754149.503        1182.272          38.000  
C25  26462322.977   137796250.876        3169.680          38.000  
G18  24642021.068   129494688.830        4173.428          39.000  
G12  25596990.237   134513101.394        -936.937          31.000  
G25  25615361.407   134609605.550        -814.764          31.000  
C 5  39239989.306   204332920.788        1177.866          36.000  
C 9  37622747.519   195911522.556        2246.959          39.000  
> 2020  5 30 12 33 36.0000000  0 24                     
G 2  21637310.165   113704832.651         120.322          45.000  
G 5  21300828.331   111936609.606        -219.381          48.000  
G13  20233592.070   106328249.061        1897.634          46.000  
G29  21366516.919   112281803.810        2210.721          46.000  
G 6  24323153.902   127819024.493       -1380.535          38.000  
G15  20945231.773   110067935.377        3563.293          43.000  
G30  24343868.114   127927885.567        1529.806          41.000  
C 6  36157966.540   188284022.429        1750.828          44.000  
C 8  36346547.029   189266011.280        1666.329          46.000  
C13  36285187.108   188946493.022        1821.362          47.000  
C14  25579136.849   133197268.571       -1346.092          41.000  
C16  36564535.603   190401134.242        1936.018          44.000  
C27  22402232.642   116654306.724        2723.531          50.000  
C28  22017384.877   114650298.783        -372.133          47.000  
C 4  38688865.326   201463068.692        1153.412          38.000  
C 1  37727743.629   196458264.530        1176.385          41.000  
C 3  36288442.830   188963445.334        1143.752          42.000  
C 2  37208220.493   193752967.256        1182.932          38.000  
C25  26461714.453   137793081.416        3169.765          39.000  
G18  24641227.048   129490515.478        4173.217          39.000  
G12  25597167.426   134514037.731        -935.565          31.000  
G25  25615512.805   134610420.926        -815.632          31.000  
C 5  39239762.872   204331742.529        1178.767          36.000  
C 9  37622315.870   195909275.712        2247.462          39.000  
> 2020  5 30 12 33 37.0000000  0 24                     
G 2  21637287.550   113704713.105         119.057          45.000  
G 5  21300870.107   111936829.543        -219.947          48.000  
G13  20233231.304   106326352.091        1896.509          46.000  
G29  21366096.403   112279593.936        2209.536          46.000  
G 6  24323416.877   127820405.734       -1381.322          38.000  
G15  20944553.797   110064372.620        3562.445          43.000  
G30  24343577.114   127926356.523        1528.708          41.000  
C 6  36157630.518   188282272.218        1750.250          44.000  
C 8  36346226.992   189264345.498        1665.900          46.000  
C13  36284837.405   188944672.214        1820.830          47.000  
C14  25579395.461   133198615.115       -1346.587          41.000  
C16  36564164.088   190399198.797        1935.349          44.000  
C27  22401709.939   116651583.878        2722.549          50.000  
C28  22017456.249   114650671.609        -373.066          47.000  
C 4  38688643.673   201461915.897        1152.887          38.000  
C 1  37727517.998   196457088.678        1175.701          41.000  
C 3  36288223.166   188962302.102        1143.097          42.000  
C 2  37207993.641   193751785.145        1182.069          38.000  
C25  26461105.929   137789911.955        3169.364          39.000  
G18  24640432.819   129486342.121        4173.230          39.000  
G12  25597346.151   134514973.902        -935.728          32.000  
G25  25615668.880   134611236.214        -815.791          31.000  
C 5  39239536.752   204330564.414        1177.878          36.000  
C 9  37621884.361   195907029.125        2246.465          39.000  
> 2020  5 30 12 33 38.0000000  0 24                     
G 2  21637264.655   113704593.540         119.684          45.000  
G 5  21300911.778   111937049.217        -219.492          48.000  
G13  20232870.399   106324455.412        1896.538          46.000  
G29  21365675.783   112277384.312        2209.668          46.000  
G 6  24323679.573   127821786.834       -1381.067          38.000  
G15  20943875.856   110060809.973        3562.701          43.000  
G30  24343286.288   127924827.556        1529.017          41.000  
C 6  36157294.427   188280521.780        1750.617          44.000  
C 8  36345906.851   189262679.358        1666.390          46.000  
C13  36284487.563   188942851.013        1821.521          47.000  
C14  25579653.969   133199961.203       -1345.867          41.000  
C16  36563792.154   190397263.117        1935.862          44.000  
C27  22401187.130   116648861.089        2722.840          50.000  
C28  22017527.969   114651044.525        -372.899          47.000  
C 4  38688422.265   201460762.708        1153.650          38.000  
C 1  37727291.948   196455912.431        1176.422          41.000  
C 3  36288003.329   188961158.468        1144.342          42.000  
C 2  37207766.404   193750602.620        1182.598          38.000  
C25  26460497.405   137786742.070        3169.846          39.000  
G18  24639638.695   129482168.293        4174.018          39.000  
G12  25597526.028   134515909.454        -935.178          32.000  
G25  25615820.732   134612051.030        -814.139          31.000  
C 5  39239310.423   204329385.870        1179.401          36.000  
C 9  37621452.852   195904782.231        2247.222          39.000  
> 2020  5 30 12 33 39.0000000  0 24                     
G 2  21637242.075   113704474.286         118.741          45.000  
G 5  21300953.449   111937268.895        -219.998          48.000  
G13  20232509.738   106322559.283        1895.573          46.000  
G29  21365255.442   112275175.252        2208.583          46.000  
G 6  24323942.199   127823168.051       -1381.456          38.000  
G15  20943197.845   110057247.737        3561.786          43.000  
G30  24342995.393   127923298.939        1528.094          41.000  
C 6  36156958.161   188278771.387        1750.078          44.000  
C 8  36345586.709   189261013.139        1665.978          45.000  
C13  36284137.861   188941029.707        1821.124          47.000  
C14  25579912.581   133201307.103       -1346.182          41.000  
C16  36563420.359   190395327.493        1935.442          44.000  
C27  22400664.112   116646138.643        2722.094          50.000  
C28  22017599.689   114651417.829        -373.716          47.000  
C 4  38688200.822   201459609.424        1153.119          38.000  
C 1  37727066.003   196454736.077        1176.179          41.000  
C 3  36287783.700   188960014.766        1143.483          42.000  
C 2  37207539.411   193749420.012        1182.001          38.000  
C25  26459888.602   137783571.968        3170.074          39.000  
G18  24638844.361   129477994.282        4173.861          39.000  
G12  25597703.532   134516844.609        -934.985          31.000  
G25  25615982.809   134612865.708        -814.434          31.000  
C 5  39239083.814   204328207.305        1178.535          36.000  
C 9  37621021.204   195902535.367        2246.567          39.000  
> 2020  5 30 12 33 40.0000000  0 24                     
G 2  21637219.669   113704355.526         118.238          45.000  
G 5  21300995.574   111937488.803        -220.355          48.000  
G13  20232149.007   106320663.941        1894.705          46.000  
G29  21364835.276   112272966.954        2207.594          46.000  
G 6  24324205.069   127824549.651       -1382.173          38.000  
G15  20942520.253   110053686.113        3561.078          43.000  
G30  24342704.638   127921770.889        1527.516          41.000  
C 6  36156621.826   188277021.249        1749.680          44.000  
C 8  36345266.846   189259347.060        1665.779          46.000  
C13  36283788.194   188939208.504        1820.983          47.000  
C14  25580171.263   133202653.027       -1346.163          41.000  
C16  36563048.670   190393392.133        1934.934          44.000  
C27  22400141.269   116643416.763        2721.262          50.000  
C28  22017671.480   114651791.716        -374.448          47.000  
C 4  38687979.344   201458456.251        1152.802          38.000  
C 1  37726840.057   196453559.855        1175.973          41.000  
C 3  36287564.142   188958871.169        1143.259          42.000  
C 2  37207312.210   193748237.480        1182.322          38.000  
C25  26459279.763   137780401.927        3169.744          39.000  
G18  24638050.306   129473820.306        4173.450          39.000  
G12  25597881.908   134517779.704        -935.802          31.000  
G25  25616135.115   134613680.331        -814.019          31.000  
C 5  39238857.240   204327028.809        1178.333          36.000  
C 9  37620589.904   195900288.733        2246.342          39.000  
> 2020  5 30 12 33 41.0000000  0 24                     
G 2  21637197.228   113704237.429         117.983          45.000  
G 5  21301037.210   111937709.089        -220.343          48.000  
G13  20231788.346   106318769.517        1894.230          46.000  
G29  21364415.110   112270759.564        2207.040          46.000  
G 6  24324468.288   127825931.747       -1382.385          38.000  
G15  20941842.557   110050125.263        3560.608          43.000  
G30  24342413.882   127920243.565        1527.305          41.000  
C 6  36156285.770   188275271.517        1749.898          44.000  
C 8  36344947.123   189257681.272        1665.812          46.000  
C13  36283438.387   188937387.560        1820.984          47.000  
C14  25580429.561   133203999.144       -1345.974          41.000  
C16  36562677.120   190391457.183        1935.028          44.000  
C27  22399618.704   116640695.575        2721.072          50.000  
C28  22017743.340   114652166.341        -374.788          47.000  
C 4  38687758.040   201457303.342        1152.820          38.000  
C 1  37726614.356   196452383.884        1175.954          41.000  
C 3  36287344.653   188957727.833        1143.333          42.000  
C 2  37207085.287   193747055.220        1182.706          38.000  
C25  26458671.100   137777232.070        3170.088          39.000  
G18  24637255.798   129469646.481        4174.172          39.000  
G12  25598058.050   134518714.711        -935.417          31.000  
G25  25616291.783   134614495.170        -814.985          31.000  
C 5  39238631.190   204325850.579        1178.392          36.000  
C 9  37620158.360   195898042.447        2246.272          39.000  
> 2020  5 30 12 33 42.0000000  0 24                     
G 2  21637174.682   113704119.769         117.398          45.000  
G 5  21301079.230   111937929.529        -220.477          48.000  
G13  20231428.033   106316875.808        1893.443          46.000  
G29  21363994.874   112268552.874        2206.353          46.000  
G 6  24324731.263   127827314.120       -1382.473          38.000  
G15  20941165.069   110046564.959        3560.077          43.000  
G30  24342123.336   127918716.747        1526.694          41.000  
C 6  36155950.027   188273521.984        1749.577          44.000  
C 8  36344627.156   189256015.568        1665.651          45.000  
C13  36283088.754   188935566.643        1820.997          47.000  
C14  25580688.069   133205345.231       -1345.994          41.000  
C16  36562305.640   190389522.435        1934.757          44.000  
C27  22399096.210   116637974.886        2720.464          50.000  
C28  22017815.409   114652541.491        -375.450          47.000  
C 4  38687536.632   201456150.449        1152.911          38.000  
C 1  37726388.620   196451207.958        1175.902          41.000  
C 3  36287124.989   188956584.543        1143.243          42.000  
C 2  37206858.294   193745873.059        1181.939          38.000  
C25  26458062.506   137774062.206        3169.693          39.000  
G18  24636461.638   129465472.648        4173.737          39.000  
G12  25598236.113   134519649.516        -934.644          32.000  
G25  25616447.648   134615309.923        -814.746          31.000  
C 5  39238404.896   204324672.413        1178.147          36.000  
C 9  37619726.991   195895796.323        2246.210          39.000  
> 2020  5 30 12 33 43.0000000  0 24                     
G 2  21637152.381   113704002.553         116.483          45.000  
G 5  21301121.076   111938150.133        -221.053          48.000  
G13  20231067.721   106314982.804        1892.295          46.000  
G29  21363575.161   112266346.869        2205.221          46.000  
G 6  24324994.237   127828696.787       -1383.551          38.000  
G15  20940487.617   110043005.206        3559.186          43.000  
G30  24341833.034   127917190.439        1525.723          41.000  
C 6  36155614.041   188271772.658        1748.878          44.000  
C 8  36344307.189   189254349.950        1665.269          46.000  
C13  36282739.087   188933745.748        1820.521          47.000  
C14  25580946.541   133206691.277       -1346.389          41.000  
C16  36561934.369   190387587.890        1934.253          44.000  
C27  22398573.785   116635254.692        2719.568          50.000  
C28  22017887.513   114652917.170        -376.308          47.000  
C 4  38687315.293   201454997.653        1151.898          38.000  
C 1  37726162.710   196450032.080        1175.535          41.000  
C 3  36286905.501   188955441.316        1142.566          42.000  
C 2  37206631.093   193744690.895        1181.870          38.000  
C25  26457453.982   137770892.305        3169.504          39.000  
G18  24635667.374   129461298.740        4174.069          39.000  
G12  25598418.328   134520584.124        -934.771          32.000  
G25  25616602.781   134616124.679        -814.876          31.000  
C 5  39238178.532   204323494.273        1178.040          36.000  
C 9  37619295.831   195893550.391        2245.584          39.000  
> 2020  5 30 12 33 44.0000000  0 24                     
G 2  21637130.289   113703885.670         116.604          45.000  
G 5  21301163.166   111938370.813        -220.825          48.000  
G13  20230707.514   106313090.416        1892.101          46.000  
G29  21363155.448   112264141.487        2204.823          46.000  
G 6  24325257.666   127830079.632       -1382.825          38.000  
G15  20939810.479   110039445.913        3558.954          43.000  
G30  24341542.732   127915664.532        1525.610          41.000  
C 6  36155278.229   188270023.424        1749.075          44.000  
C 8  36343987.361   189252684.317        1665.513          46.000  
C13  36282389.524   188931924.834        1820.844          47.000  
C14  25581205.189   133208037.211       -1345.996          41.000  
C16  36561562.714   190385653.463        1934.370          44.000  
C27  22398051.780   116632534.889        2719.542          50.000  
C28  22017959.722   114653293.285        -376.550          47.000  
C 4  38687093.815   201453844.755        1153.101          38.000  
C 1  37725936.869   196448856.172        1175.648          41.000  
C 3  36286685.802   188954298.038        1142.898          42.000  
C 2  37206404.100   193743508.715        1182.063          38.000  
C25  26456845.284   137767722.276        3169.939          39.000  
G18  24634873.075   129457124.753        4173.853          39.000  
G12  25598596.669   134521518.437        -934.304          32.000  
G25  25616760.496   134616939.262        -814.317          31.000  
C 5  39237952.412   204322316.125        1177.923          36.000  
C 9  37618864.531   195891304.479        2245.895          39.000  
> 2020  5 30 12 33 45.0000000  0 24                     
G 2  21637108.057   113703769.186         116.332          45.000  
G 5  21301205.256   111938591.600        -220.990          48.000  
G13  20230347.830   106311198.706        1891.242          46.000  
G29  21362735.840   112261936.742        2204.326          46.000  
G 6  24325521.094   127831462.743       -1383.331          38.000  
G15  20939133.131   110035887.130        3558.478          43.000  
G30  24341252.640   127914139.102        1525.090          41.000  
C 6  36154942.242   188268274.339        1748.841          44.000  
C 8  36343667.604   189251018.717        1665.476          46.000  
C13  36282039.786   188930103.891        1820.850          47.000  
C14  25581463.661   133209383.061       -1345.860          41.000  
C16  36561191.373   190383719.194        1934.016          44.000  
C27  22397529.564   116629815.547        2718.947          50.000  
C28  22018031.931   114653669.871        -376.992          47.000  
C 4  38686872.372   201452691.900        1153.027          38.000  
C 1  37725711.168   196447680.238        1175.932          41.000  
C 3  36286466.453   188953154.754        1143.151          42.000  
C 2  37206176.968   193742326.552        1182.037          38.000  
C25  26456236.201   137764552.195        3169.770          39.000  
G18  24634078.636   129452950.659        4174.129          39.000  
G12  25598773.230   134522452.519        -934.147          32.000  
G25  25616916.675   134617753.810        -814.608          31.000  
C 5  39237726.187   204321137.952        1178.111          36.000  
C 9  37618433.302   195889058.734        2245.264          39.000  
> 2020  5 30 12 33 46.0000000  0 24                     
G 2  21637086.244   113703653.155         116.074          45.000  
G 5  21301247.346   111938812.562        -220.907          48.000  
G13  20229988.076   106309307.703        1890.826          46.000  
G29  21362316.302   112259732.711        2203.793          46.000  
G 6  24325784.313   127832846.148       -1383.447          38.000  
G15  20938455.853   110032328.912        3558.112          43.000  
G30  24340962.408   127912614.182        1524.813          41.000  
C 6  36154606.186   188266525.460        1749.000          44.000  
C 8  36343347.776   189249353.220        1665.681          45.000  
C13  36281690.014   188928283.004        1820.934          47.000  
C14  25581722.204   133210728.904       -1345.903          41.000  
C16  36560819.963   190381785.121        1934.100          44.000  
C27  22397007.454   116627096.700        2718.754          50.000  
C28  22018104.315   114654046.990        -377.187          47.000  
C 4  38686650.893   201451539.113        1152.771          38.000  
C 1  37725485.292   196446504.377        1176.023          41.000  
C 3  36286246.859   188952011.538        1143.286          42.000  
C 2  37205949.906   193741144.431        1181.901          38.000  
C25  26455627.293   137761382.076        3170.157          39.000  
G18  24633284.268   129448776.555        4174.593          39.000  
G12  25598950.594   134523386.370        -933.625          32.000  
G25  25617068.667   134618568.232        -813.452          31.000  
C 5  39237499.997   204319959.854        1178.181          36.000  
C 9  37618002.246   195886813.122        2245.573          39.000  
> 2020  5 30 12 33 47.0000000  0 24                     
G 2  21637064.187   113703537.520         115.328          45.000  
G 5  21301289.680   111939033.632        -221.211          48.000  
G13  20229628.253   106307417.367        1889.929          46.000  
G29  21361897.043   112257529.325        2203.003          46.000  
G 6  24326047.358   127834229.802       -1384.124          38.000  
G15  20937779.204   110028771.198        3557.538          43.000  
G30  24340672.420   127911089.705        1524.186          41.000  
C 6  36154270.618   188264776.727        1748.724          44.000  
C 8  36343027.948   189247687.775        1665.413          45.000  
C13  36281340.486   188926462.065        1820.785          47.000  
C14  25581980.502   133212074.637       -1345.761          41.000  
C16  36560448.378   190379851.208        1933.776          44.000  
C27  22396485.448   116624378.301        2718.208          50.000  
C28  22018176.873   114654424.600        -377.929          47.000  
C 4  38686429.520   201450386.297        1152.930          38.000  
C 1  37725259.626   196445328.505        1175.990          41.000  
C 3  36286027.301   188950868.326        1143.138          42.000  
C 2  37205722.983   193739962.329        1181.755          38.000  
C25  26455018.525   137758211.896        3170.241          39.000  
G18  24632490.073   129444602.336        4174.566          39.000  
G12  25599128.377   134524319.976        -934.360          32.000  
G25  25617223.625   134619382.661        -815.128          31.000  
C 5  39237273.354   204318781.719        1178.411          36.000  
C 9  37617570.947   195884567.643        2245.067          39.000  
> 2020  5 30 12 33 48.0000000  0 24                     
G 2  21637042.270   113703422.641         114.420          45.000  
G 5  21301331.665   111939255.178        -221.865          48.000  
G13  20229268.778   106305528.058        1888.743          46.000  
G29  21361477.924   112255326.956        2201.737          46.000  
G 6  24326310.786   127835614.035       -1384.574          38.000  
G15  20937102.414   110025214.353        3556.378          43.000  
G30  24340382.293   127909566.044        1523.485          41.000  
C 6  36153935.016   188263028.515        1747.735          44.000  
C 8  36342708.156   189246022.718        1664.790          46.000  
C13  36280990.679   188924641.493        1820.317          47.000  
C14  25582239.114   133213420.671       -1346.136          41.000  
C16  36560077.072   190377917.800        1933.174          44.000  
C27  22395963.652   116621660.703        2717.202          50.000  
C28  22018249.501   114654803.037        -378.933          47.000  
C 4  38686208.007   201449233.847        1152.466          38.000  
C 1  37725033.925   196444153.013        1175.308          41.000  
C 3  36285807.882   188949725.471        1142.407          42.000  
C 2  37205496.096   193738780.557        1181.858          38.000  
C25  26454409.826   137755042.002        3170.104          39.000  
G18  24631695.879   129440428.436        4173.664          38.000  
G12  25599306.299   134525253.674        -934.250          32.000  
G25  25617377.152   134620197.251        -815.626          31.000  
C 5  39237047.199   204317604.018        1176.882          36.000  
C 9  37617139.682   195882322.635        2244.747          39.000  
> 2020  5 30 12 33 49.0000000  0 24                     
G 2  21637020.631   113703308.235         113.834          45.000  
G 5  21301373.755   111939476.925        -222.081          48.000  
G13  20228909.129   106303639.496        1887.950          46.000  
G29  21361059.154   112253125.319        2201.068          46.000  
G 6  24326574.180   127836998.625       -1385.104          38.000  
G15  20936425.346   110021658.098        3555.872          43.000  
G30  24340092.515   127908042.946        1522.905          41.000  
C 6  36153599.343   188261280.512        1747.732          44.000  
C 8  36342388.468   189244357.790        1664.705          46.000  
C13  36280641.082   188922821.022        1820.201          47.000  
C14  25582497.761   133214766.707       -1346.066          41.000  
C16  36559705.871   190375984.649        1932.856          44.000  
C27  22395441.820   116618943.648        2716.540          50.000  
C28  22018322.233   114655182.044        -379.601          47.000  
C 4  38685986.808   201448081.507        1152.130          38.000  
C 1  37724807.979   196442977.609        1174.885          41.000  
C 3  36285588.567   188948582.718        1142.439          42.000  
C 2  37205269.278   193737598.910        1181.450          38.000  
C25  26453801.023   137751872.139        3169.379          39.000  
G18  24630901.580   129436254.521        4173.772          39.000  
G12  25599483.629   134526187.113        -932.745          33.000  
G25  25617533.017   134621011.880        -815.840          32.000  
C 5  39236821.254   204316426.350        1177.680          36.000  
C 9  37616708.627   195880077.820        2244.487          39.000  
> 2020  5 30 12 33 50.0000000  0 24                     
G 2  21636998.784   113703194.163         113.686          45.000  
G 5  21301416.020   111939698.735        -222.130          48.000  
G13  20228549.864   106301751.550        1887.359          46.000  
G29  21360640.279   112250924.296        2200.485          46.000  
G 6  24326837.783   127838383.386       -1385.198          38.000  
G15  20935748.906   110018102.301        3555.285          43.000  
G30  24339802.771   127906520.275        1522.163          41.000  
C 6  36153263.462   188259532.622        1747.728          44.000  
C 8  36342068.745   189242692.837        1664.617          45.000  
C13  36280291.519   188921000.464        1820.415          47.000  
C14  25582756.408   133216112.609       -1345.932          41.000  
C16  36559334.566   190374051.597        1932.774          44.000  
C27  22394920.024   116616226.978        2716.188          50.000  
C28  22018395.105   114655561.467        -379.873          47.000  
C 4  38685765.365   201446929.105        1152.332          38.000  
C 1  37724582.104   196441802.130        1175.317          41.000  
C 3  36285369.114   188947439.895        1142.637          42.000  
C 2  37205042.460   193736417.214        1181.109          38.000  
C25  26453192.325   137748702.121        3169.919          39.000  
G18  24630107.176   129432080.483        4173.780          38.000  
G12  25599661.097   134527120.388        -933.806          32.000  
G25  25617686.439   134621826.316        -814.282          31.000  
C 5  39236595.064   204315248.639        1178.167          36.000  
C 9  37616277.641   195877833.082        2244.201          38.000  
> 2020  5 30 12 33 51.0000000  0 24                     
G 2  21636977.145   113703080.699         113.596          45.000  
G 5  21301458.493   111939920.880        -222.006          48.000  
G13  20228190.669   106299864.491        1886.773          46.000  
G29  21360221.613   112248724.133        2200.149          46.000  
G 6  24327101.595   127839768.613       -1385.236          38.000  
G15  20935072.465   110014547.236        3554.919          43.000  
G30  24339513.447   127904998.254        1521.907          41.000  
C 6  36152927.894   188257785.111        1747.652          44.000  
C 8  36341749.092   189241028.129        1664.800          45.000  
C13  36279941.886   188919180.144        1820.367          47.000  
C14  25583014.846   133217458.664       -1345.941          41.000  
C16  36558963.539   190372118.921        1932.716          44.000  
C27  22394398.576   116613510.977        2715.851          50.000  
C28  22018467.942   114655941.607        -380.322          47.000  
C 4  38685544.096   201445776.911        1152.325          38.000  
C 1  37724356.472   196440626.875        1175.463          41.000  
C 3  36285149.625   188946297.307        1142.980          42.000  
C 2  37204815.746   193735235.717        1181.501          38.000  
C25  26452583.626   137745532.282        3169.730          39.000  
G18  24629312.912   129427906.564        4174.058          38.000  
G12  25599838.566   134528053.510        -933.024          32.000  
G25  25617842.619   134622640.969        -815.364          31.000  
C 5  39236369.049   204314071.191        1177.729          36.000  
C 9  37615846.656   195875588.656        2244.703          38.000  
> 2020  5 30 12 33 52.0000000  0 24                     
G 2  21636955.717   113702968.132         112.283          45.000  
G 5  21301500.932   111940143.610        -222.749          48.000  
G13  20227831.927   106297978.566        1885.486          46.000  
G29  21359802.947   112246525.111        2198.647          46.000  
G 6  24327365.059   127841154.565       -1386.072          38.000  
G15  20934396.514   110010993.159        3553.748          44.000  
G30  24339223.843   127903477.188        1520.726          41.000  
C 6  36152592.222   188256038.214        1746.751          44.000  
C 8  36341429.578   189239363.941        1664.036          45.000  
C13  36279592.393   188917360.273        1819.824          47.000  
C14  25583273.528   133218805.109       -1346.347          41.000  
C16  36558592.478   190370186.872        1931.912          44.000  
C27  22393877.164   116610795.894        2714.815          50.000  
C28  22018541.303   114656322.683        -381.392          47.000  
C 4  38685323.037   201444625.204        1151.788          38.000  
C 1  37724130.876   196439452.111        1174.683          41.000  
C 3  36284930.345   188945155.206        1142.085          42.000  
C 2  37204589.068   193734054.723        1180.757          38.000  
C25  26451975.032   137742362.832        3169.333          39.000  
G18  24628518.892   129423733.021        4173.970          38.000  
G12  25600016.209   134528986.876        -932.968          32.000  
G25  25617998.379   134623455.935        -814.555          31.000  
C 5  39236142.894   204312894.185        1177.360          36.000  
C 9  37615415.845   195873344.856        2243.702          38.000  
> 2020  5 30 12 33 53.0000000  0 24                     
G 2  21636934.427   113702856.221         111.767          45.000  
G 5  21301543.651   111940366.755        -223.196          48.000  
G13  20227473.081   106296093.604        1884.573          46.000  
G29  21359384.631   112244327.015        2197.681          46.000  
G 6  24327629.011   127842541.055       -1386.689          38.000  
G15  20933720.248   110007439.869        3553.046          44.000  
G30  24338934.379   127901956.864        1519.977          41.000  
C 6  36152256.759   188254291.740        1746.473          44.000  
C 8  36341110.030   189237700.070        1663.939          46.000  
C13  36279243.215   188915540.684        1819.624          47.000  
C14  25583532.036   133220151.763       -1346.570          41.000  
C16  36558221.311   190368255.262        1931.709          44.000  
C27  22393355.891   116608081.546        2714.117          50.000  
C28  22018614.594   114656704.528        -382.056          47.000  
C 4  38685101.838   201443473.784        1151.196          38.000  
C 1  37723905.280   196438277.605        1174.589          41.000  
C 3  36284710.961   188944013.394        1141.707          42.000  
C 2  37204362.146   193732874.019        1180.367          38.000  
C25  26451366.439   137739193.600        3169.212          39.000  
G18  24627724.628   129419559.740        4173.502          38.000  
G12  25600193.573   134529920.293        -933.828          32.000  
G25  25618155.187   134624271.105        -814.366          31.000  
C 5  39235916.983   204311717.478        1176.887          36.000  
C 9  37614984.894   195871101.432        2243.292          38.000  
> 2020  5 30 12 33 54.0000000  0 24                     
G 2  21636913.417   113702744.979         111.260          45.000  
G 5  21301586.089   111940590.262        -223.333          48.000  
G13  20227114.689   106294209.544        1884.089          46.000  
G29  21358966.524   112242129.825        2197.075          46.000  
G 6  24327892.858   127843928.019       -1387.004          38.000  
G15  20933044.227   110003887.341        3552.612          44.000  
G30  24338645.124   127900437.239        1519.700          41.000  
C 6  36151921.575   188252545.692        1746.113          44.000  
C 8  36340790.482   189236036.494        1663.858          46.000  
C13  36278893.826   188913721.326        1819.700          47.000  
C14  25583790.857   133221498.593       -1346.688          41.000  
C16  36557850.459   190366324.066        1931.439          44.000  
C27  22392834.932   116605367.894        2713.675          50.000  
C28  22018688.094   114657087.106        -382.545          47.000  
C 4  38684880.988   201442322.615        1151.471          38.000  
C 1  37723679.823   196437103.375        1174.622          41.000  
C 3  36284491.542   188942871.828        1141.952          42.000  
C 2  37204135.223   193731693.546        1180.553          38.000  
C25  26450757.984   137736024.553        3169.163          39.000  
G18  24626930.748   129415386.609        4173.594          38.000  
G12  25600371.112   134530853.650        -932.534          32.000  
G25  25618308.016   134625086.421        -813.622          32.000  
C 5  39235691.038   204310541.033        1177.016          36.000  
C 9  37614554.118   195868858.379        2243.101          39.000  
> 2020  5 30 12 33 55.0000000  0 24                     
G 2  21636892.268   113702634.002         111.142          45.000  
G 5  21301628.877   111940813.761        -223.124          48.000  
G13  20226756.087   106292326.022        1883.643          46.000  
G29  21358548.661   112239933.164        2196.929          46.000  
G 6  24328156.775   127845315.105       -1386.792          38.000  
G15  20932368.100   110000335.196        3552.350          44.000  
G30  24338356.009   127898917.976        1519.255          41.000  
C 6  36151586.286   188250799.656        1746.297          44.000  
C 8  36340471.003   189234372.816        1664.004          45.000  
C13  36278544.264   188911901.839        1820.018          47.000  
C14  25584049.365   133222845.222       -1346.194          41.000  
C16  36557479.677   190364392.900        1931.475          44.000  
C27  22392313.764   116602654.559        2713.628          50.000  
C28  22018761.595   114657470.036        -382.675          47.000  
C 4  38684659.859   201441171.307        1152.106          38.000  
C 1  37723454.261   196435929.026        1174.752          41.000  
C 3  36284272.263   188941730.136        1142.317          42.000  
C 2  37203908.719   193730512.959        1181.059          38.000  
C25  26450149.286   137732855.300        3169.532          39.000  
G18  24626136.484   129411213.257        4174.111          38.000  
G12  25600548.546   134531786.702        -932.932          32.000  
G25  25618459.868   134625901.554        -813.892          32.000  
C 5  39235465.372   204309364.462        1176.836          36.000  
C 9  37614123.272   195866615.313        2243.660          39.000  
> 2020  5 30 12 33 56.0000000  0 24                     
G 2  21636871.327   113702523.193         110.466          45.000  
G 5  21301671.281   111941037.138        -223.346          48.000  
G13  20226397.764   106290442.952        1882.669          46.000  
G29  21358130.728   112237736.918        2196.121          46.000  
G 6  24328420.727   127846702.202       -1387.209          38.000  
G15  20931692.253   109996783.326        3551.617          44.000  
G30  24338066.928   127897398.913        1518.793          41.000  
C 6  36151250.893   188249053.549        1745.953          44.000  
C 8  36340151.489   189232708.956        1663.827          45.000  
C13  36278194.980   188910082.124        1819.728          47.000  
C14  25584308.151   133224191.545       -1346.309          41.000  
C16  36557108.686   190362461.654        1931.256          44.000  
C27  22391792.631   116599941.464        2712.931          50.000  
C28  22018835.304   114657853.215        -383.425          47.000  
C 4  38684438.729   201440019.830        1151.062          38.000  
C 1  37723228.874   196434754.453        1174.565          41.000  
C 3  36284052.879   188940588.248        1141.547          42.000  
C 2  37203681.901   193729332.166        1180.569          38.000  
C25  26449540.622   137729685.752        3169.700          39.000  
G18  24625341.975   129407039.611        4173.755          38.000  
G12  25600726.084   134532719.189        -932.438          32.000  
G25  25618613.081   134626716.400        -814.914          32.000  
C 5  39235239.217   204308187.667        1176.569          36.000  
C 9  37613692.531   195864372.147        2243.163          38.000  
> 2020  5 30 12 33 57.0000000  0 24                     
G 2  21636850.003   113702412.006         111.551          45.000  
G 5  21301713.651   111941259.884        -222.247          48.000  
G13  20226039.476   106288559.772        1883.283          46.000  
G29  21357712.900   112235540.590        2196.544          46.000  
G 6  24328684.540   127848088.802       -1386.433          38.000  
G15  20931016.267   109993231.204        3552.448          43.000  
G30  24337777.988   127895879.572        1519.550          41.000  
C 6  36150915.465   188247306.833        1747.184          44.000  
C 8  36339831.732   189231044.374        1665.092          46.000  
C13  36277845.382   188908261.628        1821.136          47.000  
C14  25584566.415   133225537.051       -1345.332          41.000  
C16  36556737.764   190360529.812        1932.337          44.000  
C27  22391271.742   116597228.051        2713.666          50.000  
C28  22018908.875   114658236.124        -382.576          47.000  
C 4  38684217.635   201438867.539        1153.210          38.000  
C 1  37723003.313   196433579.126        1175.667          41.000  
C 3  36283833.250   188939445.580        1143.104          42.000  
C 2  37203454.629   193728150.611        1181.699          38.000  
C25  26448931.994   137726515.394        3170.677          39.000  
G18  24624547.502   129402865.119        4175.007          38.000  
G12  25600903.378   134533650.702        -931.053          32.000  
G25  25618771.389   134627530.316        -813.309          31.000  
C 5  39235013.202   204307010.152        1177.444          36.000  
C 9  37613261.685   195862128.338        2244.308          39.000  
> 2020  5 30 12 33 58.0000000  0 24                     
G 2  21636828.854   113702300.818         111.170          45.000  
G 5  21301755.845   111941482.339        -222.217          48.000  
G13  20225681.188   106286676.860        1882.854          46.000  
G29  21357295.002   112233344.489        2196.078          46.000  
G 6  24328948.143   127849475.227       -1386.357          38.000  
G15  20930340.455   109989679.190        3551.764          43.000  
G30  24337488.768   127894360.278        1519.348          41.000  
C 6  36150580.072   188245559.875        1747.061          44.000  
C 8  36339512.079   189229379.446        1665.114          46.000  
C13  36277495.680   188906440.730        1821.079          47.000  
C14  25584824.887   133226882.067       -1345.234          41.000  
C16  36556366.702   190358597.726        1932.250          44.000  
C27  22390750.678   116594514.680        2713.342          50.000  
C28  22018982.584   114658619.110        -382.968          47.000  
C 4  38683996.262   201437714.874        1153.009          38.000  
C 1  37722777.646   196432403.396        1175.607          41.000  
C 3  36283613.831   188938302.534        1143.141          42.000  
C 2  37203227.812   193726968.664        1182.267          38.000  
C25  26448323.086   137723344.568        3171.132          39.000  
G18  24623753.168   129398690.143        4174.753          38.000  
G12  25601080.707   134534581.519        -929.805          32.000  
G25  25618927.324   134628343.778        -813.544          31.000  
C 5  39234786.977   204305832.216        1177.937          36.000  
C 9  37612830.595   195859884.257        2244.155          38.000  
> 2020  5 30 12 33 59.0000000  0 24                     
G 2  21636807.564   113702189.645         110.621          45.000  
G 5  21301798.110   111941704.538        -222.582          48.000  
G13  20225322.970   106284794.240        1881.871          46.000  
G29  21356877.209   112231148.668        2195.183          46.000  
G 6  24329212.199   127850861.508       -1386.617          38.000  
G15  20929664.433   109986127.299        3551.257          43.000  
G30  24337199.827   127892841.081        1518.494          41.000  
C 6  36150244.714   188243812.677        1746.832          44.000  
C 8  36339192.321   189227714.182        1664.906          46.000  
C13  36277145.873   188904619.453        1820.905          47.000  
C14  25585082.906   133228226.596       -1344.689          41.000  
C16  36555995.501   190356665.428        1931.787          44.000  
C27  22390229.440   116591801.382        2712.791          50.000  
C28  22019056.259   114659002.192        -383.588          47.000  
C 4  38683774.749   201436561.841        1152.875          38.000  
C 1  37722551.701   196431227.260        1175.825          41.000  
C 3  36283394.272   188937159.110        1142.977          42.000  
C 2  37203000.749   193725786.351        1181.998          38.000  
C25  26447714.038   137720173.270        3171.160          39.000  
G18  24622958.555   129394514.688        4174.967          38.000  
G12  25601257.792   134535511.738        -930.648          32.000  
G25  25619080.433   134629156.724        -813.653          31.000  
C 5  39234560.718   204304653.928        1177.395          36.000  
C 9  37612399.365   195857639.911        2243.748          38.000  
> 2020  5 30 12 34  0.0000000  0 24                     
G 2  21636786.205   113702078.893         110.506          45.000  
G 5  21301840.583   111941926.886        -222.352          48.000  
G13  20224964.752   106282912.311        1881.610          46.000  
G29  21356459.416   112228953.543        2194.788          46.000  
G 6  24329475.767   127852248.081       -1386.833          38.000  
G15  20928988.517   109982575.948        3551.160          43.000  
G30  24336910.747   127891322.367        1518.467          41.000  
C 6  36149909.285   188242065.667        1746.992          44.000  
C 8  36338872.633   189226048.985        1665.121          46.000  
C13  36276795.961   188902798.196        1821.297          47.000  
C14  25585341.030   133229571.127       -1344.663          41.000  
C16  36555624.510   190354733.317        1932.039          44.000  
C27  22389708.691   116589088.575        2712.639          50.000  
C28  22019129.864   114659385.798        -383.835          47.000  
C 4  38683553.096   201435408.839        1153.137          38.000  
C 1  37722325.686   196430051.182        1176.196          41.000  
C 3  36283174.609   188936015.727        1143.158          42.000  
C 2  37202773.862   193724604.089        1182.252          38.000  
C25  26447104.991   137717001.978        3171.245          39.000  
G18  24622163.907   129390339.208        4175.173          38.000  
G12  25601434.912   134536441.647        -928.741          32.000  
G25  25619236.786   134629969.616        -811.958          30.000  
C 5  39234334.458   204303475.619        1178.264          36.000  
C 9  37611968.380   195855395.720        2244.075          39.000  
