     3.02           OBSERVATION DATA    M: Mixed            RINEX VERSION / TYPE
RTKCONV 2.4.3 b33                       20200629 092307 UTC PGM / RUN BY / DATE 
log: D:\Documents\²âÊÔÊý¾Ý\¾²Ö¹\rov_202006290902.log        COMMENT             
format: u-blox                                              COMMENT             
                                                            MARKER NAME         
                                                            MARKER NUMBER       
                                                            MARKER TYPE         
                                                            OBSERVER / AGENCY   
                                                            REC # / TYPE / VERS 
                                                            ANT # / TYPE        
 -2191131.6350  5198852.2886  2965376.7724                  APPROX POSITION XYZ 
        0.0000        0.0000        0.0000                  ANTENNA: DELTA H/E/N
G    4 C1C L1C D1C S1C                                      SYS / # / OBS TYPES 
C    4 C1I L1I D1I S1I                                      SYS / # / OBS TYPES 
  2020     6    29     9     2   22.5000000     GPS         TIME OF FIRST OBS   
  2020     6    29     9     4    0.0000000     GPS         TIME OF LAST OBS    
G                                                           SYS / PHASE SHIFT   
C                                                           SYS / PHASE SHIFT   
  0                                                         GLONASS SLOT / FRQ #
 C1C    0.000 C1P    0.000 C2C    0.000 C2P    0.000        GLONASS COD/PHS/BIS 
                                                            END OF HEADER       
> 2020  6 29  9  2 22.5000000  0 27                     
G25  24021422.737      603768.278        -974.785          36.500  
G17  24793882.164     7130274.831       -4173.428          34.750  
C11  24506022.081    -5191009.0352       3654.180          42.750  
G12  23358033.763   -13769470.052       -2409.824          40.250  
G13  22606736.046   -13671067.016        4358.809          40.500  
C16  37973223.346   -13191943.9032       2105.898          41.250  
C 8  37027753.644     -697486.5502        715.342          43.500  
C 7  39918067.402    16224160.2192      -1582.646          33.500  
C10  39031596.293    10062870.0082      -1870.088          36.250  
C 3  36426752.414    -4375538.9022        216.650          43.250  
C13  37065317.244    -4909473.6632        679.883          43.750  
C 2  37399274.215    -4951217.5862        268.975          39.000  
C 1  37855328.196    -4004767.8362        234.941          41.250  
C 6  37392770.685    -8439048.3102       1896.865          39.750  
C 4  38803986.742    -3959383.6362        210.098          37.250  
C12  21603242.227   -24704325.2132        848.213          46.500  
G 5  20552964.319   -30593417.451          56.309          47.000  
G15  24495673.404    -7966510.511        5076.357          36.000  
G29  23842472.181   -10380512.166        4407.500          43.500  
C21  21871070.748   -26305687.5712        -57.168          49.750  
G19  23418243.689    -7341905.676       -4079.746          38.750  
C 5  39459376.440    -4703236.1942        258.652          36.000  
G 6  22649234.912   -15495158.984       -1467.529          41.750  
C22  24221548.592   -16172837.0782      -3006.855          44.750  
G 2  21587439.869   -25582723.849         780.391          46.500  
G 9  24774026.006    -8606173.129       -3479.395          36.750  
G30  25735826.076    -1252718.587        2303.428          30.250  
> 2020  6 29  9  2 23.0000000  0 27                     
G25  24021496.835      604158.327        -975.098          36.500  
G17  24794199.749     7131944.309       -4173.750          34.750  
C11  24505741.372    -5192470.6062       3653.906          42.750  
G12  23358217.257   -13768505.949       -2410.293          40.250  
G13  22606404.308   -13672810.395        4358.477          40.500  
C16  37973061.443   -13192786.1602       2105.615          41.250  
C 8  37027698.641     -697772.6662        715.303          43.500  
C 7  39918189.047    16224793.3122      -1582.705          33.500  
C10  39031740.008    10063618.0822      -1870.127          36.500  
C 3  36426735.592    -4375625.4812        216.436          43.250  
C13  37065265.156    -4909745.5462        679.717          43.750  
C 2  37399253.642    -4951325.1032        268.789          39.000  
C 1  37855310.161    -4004861.7522        234.756          41.250  
C 6  37392625.128    -8439806.9612       1896.641          39.750  
C 4  38803970.653    -3959467.5902        209.873          37.250  
C12  21603176.942   -24704664.3172        847.764          46.500  
G 5  20552959.996   -30593439.781          55.801          47.000  
G15  24495287.051    -7968540.923        5075.967          36.000  
G29  23842136.757   -10382275.042        4407.168          43.500  
C21  21871075.529   -26305664.5062        -57.676          49.750  
G19  23418554.211    -7340273.645       -4080.068          38.500  
C 5  39459356.586    -4703339.5682        258.438          36.000  
G 6  22649346.655   -15494571.855       -1467.832          41.750  
C22  24221779.576   -16171634.2032      -3007.197          44.750  
G 2  21587380.420   -25583035.896         780.107          46.250  
G 9  24774291.005    -8604781.221       -3479.814          36.750  
G30  25735650.928    -1253639.898        2303.477          30.250  
> 2020  6 29  9  2 23.5000000  0 27                     
G25  24021571.051      604548.403        -975.205          36.500  
G17  24794517.483     7133613.693       -4173.438          35.000  
C11  24505460.642    -5193932.2582       3654.131          42.750  
G12  23358400.881   -13767541.890       -2410.166          40.500  
G13  22606072.457   -13674553.836        4358.564          40.750  
C16  37972899.706   -13193628.5052       2105.869          41.250  
C 8  37027643.616     -698058.8642        715.469          43.500  
C 7  39918310.793    16225426.3132      -1582.500          33.750  
C10  39031883.711    10064366.0542      -1869.961          36.500  
C 3  36426718.948    -4375712.1622        216.680          43.250  
C13  37065212.949    -4910017.5602        680.039          43.750  
C 2  37399232.810    -4951432.7212        269.053          39.000  
C 1  37855292.201    -4004955.7412        234.951          41.250  
C 6  37392479.410    -8440565.7192       1896.904          39.750  
C 4  38803954.481    -3959551.6582        210.117          37.250  
C12  21603111.861   -24705003.4312        847.773          46.500  
G 5  20552955.978   -30593462.127          55.850          47.000  
G15  24494900.503    -7970571.467        5076.436          36.000  
G29  23841801.237   -10384037.958        4407.305          43.500  
C21  21871080.114   -26305641.4472        -57.656          49.750  
G19  23418864.843    -7338641.642       -4080.039          38.500  
C 5  39459336.728    -4703443.0022        258.584          36.000  
G 6  22649458.467   -15493984.787       -1467.695          41.750  
C22  24222010.639   -16170431.4112      -3006.992          44.750  
G 2  21587321.116   -25583348.007         780.273          46.250  
G 9  24774555.786    -8603389.363       -3479.590          36.750  
G30  25735475.383    -1254561.443        2303.730          30.500  
> 2020  6 29  9  2 24.0000000  0 27                     
G25  24021645.350      604938.677        -975.732          36.250  
G17  24794835.181     7135283.190       -4173.740          35.000  
C11  24505180.007    -5195393.8262       3653.916          42.750  
G12  23358584.640   -13766577.665       -2410.508          40.500  
G13  22605740.755   -13676297.183        4358.320          40.500  
C16  37972737.898   -13194470.7782       2105.674          41.250  
C 8  37027588.800     -698345.0592        715.479          43.500  
C 7  39918432.255    16226059.3342      -1582.549          33.750  
C10  39032027.527    10065114.0812      -1870.098          36.250  
C 3  36426702.196    -4375798.7712        216.523          43.250  
C13  37065160.799    -4910289.5572        679.951          43.750  
C 2  37399212.250    -4951540.2742        268.828          39.000  
C 1  37855274.388    -4005049.6902        234.893          41.250  
C 6  37392333.784    -8441324.3352       1896.523          39.750  
C 4  38803938.348    -3959635.6492        210.010          37.250  
C12  21603046.907   -24705342.3802        847.363          46.500  
G 5  20552951.846   -30593484.326          55.488          47.000  
G15  24494514.146    -7972601.933        5076.221          36.000  
G29  23841465.901   -10385800.785        4407.021          43.500  
C21  21871085.074   -26305618.2092        -58.115          49.750  
G19  23419175.378    -7337009.513       -4080.312          38.500  
C 5  39459316.913    -4703546.4062        258.496          36.000  
G 6  22649570.214   -15493397.616       -1467.949          41.750  
C22  24222241.544   -16169228.5302      -3007.207          44.750  
G 2  21587261.833   -25583660.027         780.039          46.250  
G 9  24774820.763    -8601997.335       -3480.059          36.750  
G30  25735298.124    -1255482.851        2303.594          30.000  
> 2020  6 29  9  2 24.5000000  0 27                     
G25  24021719.631      605328.972        -975.674          36.500  
G17  24795153.006     7136952.692       -4173.779          35.000  
C11  24504899.251    -5196855.4262       3654.023          42.750  
G12  23358768.068   -13765613.436       -2410.586          40.250  
G13  22605408.908   -13678040.490        4358.320          40.750  
C16  37972576.109   -13195313.0442       2105.654          41.250  
C 8  37027534.011     -698631.2932        715.605          43.500  
C 7  39918553.809    16226692.3052      -1582.422          33.750  
C10  39032171.256    10065862.0572      -1869.922          36.250  
C 3  36426685.527    -4375885.4552        216.709          43.250  
C13  37065108.658    -4910561.6062        680.127          43.750  
C 2  37399191.418    -4951647.8702        268.994          39.000  
C 1  37855256.449    -4005143.6682        234.932          41.250  
C 6  37392188.031    -8442082.9982       1896.660          39.500  
C 4  38803922.403    -3959719.6922        210.098          37.250  
C12  21602981.800   -24705681.2582        847.188          46.500  
G 5  20552947.711   -30593506.469          55.371          47.000  
G15  24494127.720    -7974632.438        5076.172          35.750  
G29  23841130.503   -10387563.580        4406.992          43.500  
C21  21871089.603   -26305594.9122        -58.232          49.750  
G19  23419485.927    -7335377.388       -4080.322          38.500  
C 5  39459297.051    -4703649.8462        258.594          36.000  
G 6  22649681.856   -15492810.429       -1467.949          41.750  
C22  24222472.611   -16168025.6572      -3007.178          44.750  
G 2  21587202.371   -25583972.057         780.078          46.250  
G 9  24775085.623    -8600605.274       -3480.205          36.750  
G30  25735122.854    -1256404.375        2303.828          30.000  
> 2020  6 29  9  2 25.0000000  0 27                     
G25  24021794.130      605719.456        -976.221          36.500  
G17  24795470.805     7138622.225       -4173.867          35.000  
C11  24504618.486    -5198316.9592       3653.799          42.750  
G12  23358951.649   -13764649.101       -2410.869          40.250  
G13  22605077.215   -13679783.724        4358.037          40.750  
C16  37972414.345   -13196155.2722       2105.566          41.250  
C 8  37027479.012     -698917.5242        715.557          43.250  
C 7  39918675.315    16227325.2692      -1582.393          34.000  
C10  39032314.971    10066610.0882      -1870.059          36.250  
C 3  36426668.958    -4375972.0782        216.553          43.250  
C13  37065056.564    -4910833.6502        680.098          43.750  
C 2  37399170.849    -4951755.4352        268.916          39.000  
C 1  37855238.458    -4005237.6242        234.922          41.250  
C 6  37392042.313    -8442841.6182       1896.533          39.500  
C 4  38803906.249    -3959803.6952        209.961          37.500  
C12  21602916.886   -24706020.0072        846.855          46.500  
G 5  20552943.549   -30593528.483          55.029          47.000  
G15  24493741.211    -7976662.901        5076.152          35.750  
G29  23840795.437   -10389326.315        4406.807          43.500  
C21  21871093.839   -26305571.4822        -58.574          49.750  
G19  23419796.636    -7333745.156       -4080.615          38.500  
C 5  39459277.293    -4703753.2842        258.594          36.000  
G 6  22649793.655   -15492223.178       -1468.135          41.750  
C22  24222703.670   -16166822.7112      -3007.363          44.750  
G 2  21587142.979   -25584284.021         779.912          46.250  
G 9  24775350.534    -8599213.121       -3480.361          36.500  
G30  25734943.954    -1257325.786        2303.584          29.750  
> 2020  6 29  9  2 25.5000000  0 27                     
G25  24021868.272      606110.010        -976.396          36.500  
G17  24795788.461     7140291.774       -4173.867          35.000  
C11  24504337.803    -5199778.4952       3653.857          42.750  
G12  23359135.086   -13763684.725       -2410.928          40.250  
G13  22604745.386   -13681526.905        4357.979          40.750  
C16  37972252.630   -13196997.5042       2105.576          41.250  
C 8  37027424.149     -699203.7992        715.674          43.250  
C 7  39918797.013    16227958.1792      -1582.305          34.000  
C10  39032458.530    10067358.0252      -1869.824          36.250  
C 3  36426652.350    -4376058.7432        216.660          43.250  
C13  37065004.231    -4911105.7332        680.215          43.750  
C 2  37399150.232    -4951863.0392        269.023          39.000  
C 1  37855220.467    -4005331.6212        234.990          41.000  
C 6  37391896.665    -8443600.2152       1896.465          39.750  
C 4  38803890.164    -3959887.7182        210.107          37.500  
C12  21602851.853   -24706358.6782        846.680          46.500  
G 5  20552939.260   -30593550.441          54.893          47.000  
G15  24493354.741    -7978693.402        5076.211          35.500  
G29  23840459.900   -10391089.037        4406.816          43.500  
C21  21871098.232   -26305547.9732        -58.779          49.750  
G19  23420107.076    -7332112.903       -4080.615          38.500  
C 5  39459257.430    -4703856.7442        258.643          36.000  
G 6  22649905.480   -15491635.912       -1468.164          41.750  
C22  24222934.671   -16165619.7622      -3007.383          44.750  
G 2  21587083.609   -25584595.974         779.873          46.250  
G 9  24775615.472    -8597820.879       -3480.625          36.750  
G30  25734769.168    -1258247.271        2303.633          29.750  
> 2020  6 29  9  2 26.0000000  0 27                     
G25  24021942.675      606500.634        -976.611          36.500  
G17  24796106.002     7141961.366       -4173.975          35.000  
C11  24504057.095    -5201240.0572       3653.896          42.750  
G12  23359318.797   -13762720.300       -2411.094          40.250  
G13  22604413.827   -13683270.105        4357.979          41.000  
C16  37972090.923   -13197839.7522       2105.596          41.250  
C 8  37027368.984     -699490.1362        715.859          43.250  
C 7  39918918.667    16228591.0252      -1582.129          34.000  
C10  39032602.032    10068105.9382      -1869.814          36.250  
C 3  36426635.803    -4376145.4352        216.719          43.250  
C13  37064952.112    -4911377.8812        680.371          43.750  
C 2  37399129.579    -4951970.6752        269.062          39.000  
C 1  37855202.293    -4005425.6412        235.029          41.000  
C 6  37391750.872    -8444358.8452       1896.572          39.750  
C 4  38803873.896    -3959971.8072        210.186          37.250  
C12  21602786.855   -24706697.2882        846.514          46.500  
G 5  20552934.976   -30593572.332          54.717          47.000  
G15  24492968.201    -7980723.915        5076.299          35.500  
G29  23840124.346   -10392851.725        4406.719          43.500  
C21  21871102.319   -26305524.4032        -58.926          49.750  
G19  23420417.755    -7330480.611       -4080.752          38.500  
C 5  39459237.611    -4703960.2192        258.691          36.000  
G 6  22650017.127   -15491048.623       -1468.242          41.750  
C22  24223165.690   -16164416.8232      -3007.354          44.750  
G 2  21587024.074   -25584907.933         779.893          46.250  
G 9  24775880.401    -8596428.627       -3480.654          36.750  
G30  25734594.736    -1259168.786        2303.760          30.000  
> 2020  6 29  9  2 26.5000000  0 27                     
G25  24022016.804      606891.405        -976.924          36.500  
G17  24796423.688     7143630.974       -4174.062          35.000  
C11  24503776.299    -5202701.5742       3653.779          42.750  
G12  23359502.121   -13761755.786       -2411.289          40.250  
G13  22604082.264   -13685013.192        4357.725          41.000  
C16  37971929.199   -13198681.9442       2105.488          41.250  
C 8  37027313.990     -699776.4542        715.762          43.250  
C 7  39919040.308    16229223.9102      -1582.197          34.000  
C10  39032745.699    10068853.8762      -1869.883          36.250  
C 3  36426618.946    -4376232.1072        216.670          43.250  
C13  37064899.752    -4911650.0242        680.342          43.750  
C 2  37399109.088    -4952078.2662        268.945          39.000  
C 1  37855184.249    -4005519.6222        234.922          41.250  
C 6  37391605.215    -8445117.4322       1896.494          39.750  
C 4  38803857.907    -3960055.8492        210.127          37.500  
C12  21602721.801   -24707035.7552        846.143          46.500  
G 5  20552930.631   -30593594.102          54.414          47.000  
G15  24492581.801    -7982754.381        5076.162          35.500  
G29  23839788.822   -10394614.362        4406.562          43.500  
C21  21871106.577   -26305500.6922        -59.297          49.750  
G19  23420728.474    -7328848.226       -4080.947          38.500  
C 5  39459217.770    -4704063.6632        258.564          35.750  
G 6  22650128.804   -15490461.269       -1468.379          41.750  
C22  24223396.596   -16163213.8102      -3007.559          44.750  
G 2  21586964.708   -25585219.841         779.746          46.250  
G 9  24776145.514    -8595036.260       -3480.918          36.750  
G30  25734418.423    -1260090.216        2303.506          30.000  
> 2020  6 29  9  2 27.0000000  0 27                     
G25  24022091.002      607282.330        -977.334          36.500  
G17  24796741.404     7145300.679       -4174.238          35.000  
C11  24503495.786    -5204162.9962       3653.564          42.750  
G12  23359685.714   -13760791.136       -2411.631          40.000  
G13  22603750.562   -13686756.187        4357.461          41.000  
C16  37971767.452   -13199524.0512       2105.254          41.250  
C 8  37027258.965     -700062.7512        715.723          43.250  
C 7  39919162.032    16229856.7692      -1582.197          34.000  
C10  39032889.236    10069601.8772      -1869.980          36.500  
C 3  36426602.547    -4376318.7372        216.562          43.250  
C13  37064847.506    -4911922.1312        680.254          43.750  
C 2  37399088.371    -4952185.8432        268.955          39.000  
C 1  37855166.158    -4005613.5822        234.873          41.250  
C 6  37391459.646    -8445875.9252       1896.182          39.750  
C 4  38803841.761    -3960139.8722        210.088          37.250  
C12  21602656.890   -24707374.0792        845.820          46.500  
G 5  20552926.339   -30593615.735          54.072          47.000  
G15  24492195.431    -7984784.858        5076.162          35.500  
G29  23839453.459   -10396376.895        4406.338          43.250  
C21  21871111.367   -26305476.8272        -59.668          49.750  
G19  23421039.197    -7327215.744       -4081.211          38.500  
C 5  39459197.916    -4704167.0822        258.574          35.750  
G 6  22650240.333   -15489873.820       -1468.623          42.000  
C22  24223627.746   -16162010.7312      -3007.686          44.750  
G 2  21586905.233   -25585531.654         779.531          46.250  
G 9  24776410.382    -8593643.756       -3481.260          36.500  
G30  25734244.475    -1261011.690        2303.740          29.750  
> 2020  6 29  9  2 27.5000000  0 27                     
G25  24022165.384      607673.508        -977.930          36.500  
G17  24797059.041     7146970.543       -4174.678          35.000  
C11  24503215.152    -5205624.2792       3653.193          42.750  
G12  23359869.382   -13759826.290       -2412.109          40.000  
G13  22603419.239   -13688498.991        4357.012          41.000  
C16  37971605.850   -13200366.0372       2104.980          41.500  
C 8  37027203.936     -700348.9222        715.449          43.500  
C 7  39919283.713    16230489.7712      -1582.490          34.250  
C10  39033032.891    10070350.0122      -1870.342          36.250  
C 3  36426585.655    -4376405.2242        216.221          43.250  
C13  37064795.226    -4912194.1382        679.990          43.750  
C 2  37399067.853    -4952293.2672        268.574          39.250  
C 1  37855148.232    -4005707.4162        234.629          41.000  
C 6  37391314.155    -8446634.2692       1895.830          39.750  
C 4  38803825.690    -3960223.7162        209.551          37.250  
C12  21602591.928   -24707712.1532        845.186          46.500  
G 5  20552922.430   -30593637.141          53.516          47.000  
G15  24491809.210    -7986815.164        5075.762          35.500  
G29  23839118.083   -10398139.242        4405.889          43.250  
C21  21871116.284   -26305452.7292        -60.234          49.750  
G19  23421349.858    -7325583.072       -4081.699          38.500  
C 5  39459178.119    -4704270.3612        258.135          35.750  
G 6  22650352.175   -15489286.192       -1469.072          42.000  
C22  24223858.560   -16160807.4722      -3008.164          44.750  
G 2  21586845.916   -25585843.313         779.141          46.250  
G 9  24776675.564    -8592251.048       -3481.768          36.500  
G30  25734068.455    -1261933.004        2303.291          30.250  
> 2020  6 29  9  2 28.0000000  0 27                     
G25  24022239.831      608064.694        -977.969          36.500  
G17  24797376.705     7148640.347       -4174.482          35.250  
C11  24502934.513    -5207085.6052       3653.320          42.750  
G12  23360053.011   -13758861.463       -2412.051          40.250  
G13  22603087.654   -13690241.812        4357.051          41.000  
C16  37971444.336   -13201208.0532       2105.039          41.500  
C 8  37027148.976     -700635.2002        715.693          43.500  
C 7  39919405.288    16231122.6632      -1582.207          34.000  
C10  39033176.589    10071098.0432      -1870.068          36.250  
C 3  36426569.086    -4376491.8012        216.455          43.250  
C13  37064742.679    -4912466.2462        680.283          43.750  
C 2  37399047.101    -4952400.7712        268.730          39.250  
C 1  37855130.271    -4005801.3082        234.727          41.250  
C 6  37391168.515    -8447392.6662       1896.016          39.750  
C 4  38803809.465    -3960307.6722        209.902          37.250  
C12  21602527.227   -24708050.2212        845.186          46.500  
G 5  20552918.551   -30593658.537          53.496          47.000  
G15  24491422.714    -7988845.524        5075.918          35.500  
G29  23838782.681   -10399901.608        4405.938          43.250  
C21  21871121.214   -26305428.6062        -60.303          49.750  
G19  23421660.542    -7323950.412       -4081.631          38.500  
C 5  39459158.273    -4704373.6992        258.398          35.750  
G 6  22650464.079   -15488698.616       -1468.945          42.000  
C22  24224089.631   -16159604.2642      -3008.008          44.750  
G 2  21586786.720   -25586155.008         779.248          46.250  
G 9  24776940.664    -8590858.359       -3481.719          36.500  
G30  25733893.918    -1262854.376        2303.457          30.250  
> 2020  6 29  9  2 28.5000000  0 27                     
G25  24022314.269      608456.018        -978.301          36.750  
G17  24797694.469     7150310.197       -4174.629          35.250  
C11  24502654.045    -5208546.9002       3653.242          42.750  
G12  23360236.753   -13757896.537       -2412.314          40.250  
G13  22602756.118   -13691984.576        4356.943          41.000  
C16  37971282.541   -13202050.0552       2105.000          41.500  
C 8  37027093.965     -700921.4802        715.703          43.250  
C 7  39919526.942    16231755.5572      -1582.236          34.250  
C10  39033320.239    10071846.0562      -1870.039          36.250  
C 3  36426552.382    -4376578.3672        216.426          43.250  
C13  37064690.385    -4912738.3632        680.293          43.750  
C 2  37399026.597    -4952508.2612        268.711          39.000  
C 1  37855112.250    -4005895.1882        234.688          41.250  
C 6  37391023.037    -8448151.0322       1895.947          39.750  
C 4  38803793.298    -3960391.6232        209.873          37.500  
C12  21602462.251   -24708388.1652        844.863          46.500  
G 5  20552914.438   -30593679.818          53.213          47.000  
G15  24491036.475    -7990875.889        5075.869          35.500  
G29  23838447.214   -10401663.942        4405.811          43.500  
C21  21871126.017   -26305404.3632        -60.615          49.750  
G19  23421971.156    -7322317.669       -4081.865          38.500  
C 5  39459138.489    -4704477.1012        258.477          36.000  
G 6  22650575.870   -15488110.965       -1469.150          42.000  
C22  24224320.725   -16158401.0142      -3008.135          44.750  
G 2  21586727.446   -25586466.660         779.121          46.250  
G 9  24777205.562    -8589465.589       -3481.943          36.500  
G30  25733716.327    -1263775.732        2303.359          30.250  
> 2020  6 29  9  2 29.0000000  0 27                     
G25  24022388.576      608847.420        -978.496          36.500  
G17  24798012.251     7151980.091       -4174.756          35.250  
C11  24502373.284    -5210008.2182       3653.262          42.750  
G12  23360420.469   -13756931.574       -2412.441          40.250  
G13  22602424.594   -13693727.330        4356.855          41.000  
C16  37971120.909   -13202892.0592       2105.010          41.250  
C 8  37027039.071     -701207.8212        715.830          43.500  
C 7  39919648.466    16232388.3982      -1582.119          34.000  
C10  39033463.937    10072594.1002      -1870.098          36.250  
C 3  36426535.726    -4376664.9622        216.455          43.250  
C13  37064638.078    -4913010.5342        680.410          43.750  
C 2  37399005.731    -4952615.8122        268.906          39.250  
C 1  37855094.149    -4005989.1312        234.844          41.250  
C 6  37390877.376    -8448909.4122       1895.957          39.750  
C 4  38803777.130    -3960475.5762        209.883          37.500  
C12  21602397.266   -24708726.0342        844.658          46.500  
G 5  20552910.415   -30593701.057          53.086          47.000  
G15  24490650.149    -7992906.267        5075.957          35.500  
G29  23838111.777   -10403426.225        4405.703          43.500  
C21  21871130.619   -26305380.0442        -60.801          49.750  
G19  23422281.883    -7320684.916       -4081.885          38.500  
C 5  39459118.709    -4704580.4682        258.438          36.000  
G 6  22650687.542   -15487523.293       -1469.170          42.000  
C22  24224551.918   -16157197.7622      -3008.125          44.750  
G 2  21586667.937   -25586778.316         779.150          46.250  
G 9  24777470.596    -8588072.743       -3482.109          36.500  
G30  25733543.347    -1264697.188        2303.643          30.250  
> 2020  6 29  9  2 29.5000000  0 27                     
G25  24022463.132      609239.039        -979.062          36.500  
G17  24798330.159     7153650.082       -4175.000          35.250  
C11  24502092.654    -5211469.4062       3652.969          42.750  
G12  23360604.285   -13755966.461       -2412.793          40.500  
G13  22602093.001   -13695469.918        4356.445          41.000  
C16  37970959.337   -13203733.9542       2104.697          41.250  
C 8  37026984.050     -701494.0942        715.684          43.250  
C 7  39919770.159    16233021.2722      -1582.275          34.250  
C10  39033607.736    10073342.1602      -1870.186          36.250  
C 3  36426519.296    -4376751.4642        216.250          43.250  
C13  37064585.871    -4913282.6292        680.225          43.750  
C 2  37398985.248    -4952723.2592        268.613          39.250  
C 1  37855076.180    -4006082.9662        234.561          41.250  
C 6  37390731.714    -8449667.6952       1895.635          39.750  
C 4  38803760.928    -3960559.4822        209.756          37.500  
C12  21602332.334   -24709063.7072        844.160          46.500  
G 5  20552906.354   -30593722.108          52.598          47.000  
G15  24490263.731    -7994936.543        5075.654          35.500  
G29  23837776.432   -10405188.395        4405.400          43.500  
C21  21871135.248   -26305355.5352        -61.289          49.750  
G19  23422592.445    -7319051.994       -4082.354          38.250  
C 5  39459098.746    -4704683.7652        258.193          36.000  
G 6  22650799.490   -15486935.507       -1469.502          42.000  
C22  24224782.977   -16155994.3832      -3008.477          44.750  
G 2  21586608.732   -25587089.843         778.789          46.250  
G 9  24777735.761    -8586679.748       -3482.520          36.750  
G30  25733366.140    -1265618.449        2302.988          30.000  
> 2020  6 29  9  2 30.0000000  0 27                     
G25  24022537.584      609630.649        -979.014          36.500  
G17  24798648.220     7155319.949       -4174.717          35.000  
C11  24501811.832    -5212930.6972       3653.223          42.750  
G12  23360788.114   -13755001.391       -2412.686          40.500  
G13  22601761.372   -13697212.573        4356.650          41.000  
C16  37970797.670   -13204575.9512       2105.010          41.500  
C 8  37026928.833     -701780.4862        715.977          43.250  
C 7  39919891.787    16233654.0192      -1581.826          34.250  
C10  39033751.338    10074090.1202      -1869.883          36.250  
C 3  36426502.526    -4376838.1032        216.592          43.250  
C13  37064533.625    -4913554.8842        680.635          43.750  
C 2  37398964.548    -4952830.8412        268.887          39.000  
C 1  37855058.084    -4006176.9182        234.873          41.000  
C 6  37390586.275    -8450426.0472       1895.908          39.750  
C 4  38803744.886    -3960643.5062        210.049          37.500  
C12  21602267.502   -24709401.3942        844.219          46.500  
G 5  20552902.257   -30593743.183          52.695          47.000  
G15  24489877.392    -7996966.957        5076.074          35.250  
G29  23837441.061   -10406950.648        4405.635          43.500  
C21  21871139.667   -26305331.0482        -61.221          49.750  
G19  23422903.264    -7317419.149       -4082.100          38.250  
C 5  39459078.940    -4704787.1732        258.574          36.000  
G 6  22650911.376   -15486347.798       -1469.238          42.000  
C22  24225014.231   -16154791.1032      -3008.203          44.750  
G 2  21586549.498   -25587401.459         779.053          46.250  
G 9  24778000.900    -8585286.810       -3482.344          36.500  
G30  25733189.906    -1266539.850        2303.652          30.250  
> 2020  6 29  9  2 30.5000000  0 27                     
G25  24022612.039      610022.348        -979.199          36.250  
G17  24798966.154     7156989.912       -4174.834          35.250  
C11  24501531.145    -5214391.9752       3653.203          42.750  
G12  23360971.992   -13754036.237       -2412.832          40.500  
G13  22601429.727   -13698955.166        4356.455          41.000  
C16  37970636.024   -13205417.9142       2104.922          41.500  
C 8  37026873.974     -702066.9042        716.064          43.250  
C 7  39920013.376    16234286.7572      -1581.816          34.250  
C10  39033895.027    10074838.0852      -1869.922          36.250  
C 3  36426486.093    -4376924.7362        216.592          43.250  
C13  37064481.396    -4913827.1692        680.732          43.750  
C 2  37398943.865    -4952938.4122        268.984          39.000  
C 1  37855040.219    -4006270.8872        234.951          41.000  
C 6  37390440.697    -8451184.3702       1895.820          39.750  
C 4  38803728.810    -3960727.5192        210.049          37.500  
C12  21602202.792   -24709738.9752        843.955          46.500  
G 5  20552898.161   -30593764.158          52.451          47.000  
G15  24489491.092    -7998997.349        5075.967          35.500  
G29  23837105.833   -10408712.823        4405.469          43.500  
C21  21871143.982   -26305306.4422        -61.494          49.750  
G19  23423213.995    -7315786.207       -4082.363          38.250  
C 5  39459059.051    -4704890.5982        258.525          36.000  
G 6  22651023.206   -15485760.015       -1469.463          42.000  
C22  24225245.355   -16153587.7782      -3008.291          44.750  
G 2  21586490.141   -25587713.042         778.955          46.250  
G 9  24778265.868    -8583893.753       -3482.666          36.500  
G30  25733018.183    -1267461.289        2303.604          30.000  
> 2020  6 29  9  2 31.0000000  0 27                     
G25  24022686.578      610414.140        -979.502          36.250  
G17  24799284.106     7158659.851       -4174.844          35.500  
C11  24501250.585    -5215853.2562       3653.184          42.750  
G12  23361155.694   -13753071.042       -2413.018          40.750  
G13  22601098.133   -13700697.757        4356.484          41.000  
C16  37970474.343   -13206259.9032       2104.941          41.500  
C 8  37026818.810     -702353.3782        716.143          43.250  
C 7  39920134.882    16234919.4252      -1581.680          34.250  
C10  39034038.691    10075586.0152      -1869.824          36.250  
C 3  36426469.227    -4377011.3922        216.621          43.250  
C13  37064429.220    -4914099.4962        680.801          43.750  
C 2  37398923.126    -4953046.0082        269.004          39.000  
C 1  37855021.980    -4006364.8802        234.990          41.000  
C 6  37390295.175    -8451942.7382       1895.928          39.750  
C 4  38803712.617    -3960811.5462        210.059          37.500  
C12  21602138.017   -24710076.4842        843.760          46.500  
G 5  20552894.187   -30593785.078          52.275          47.000  
G15  24489104.684    -8001027.794        5076.113          35.500  
G29  23836770.510   -10410475.007        4405.449          43.500  
C21  21871148.916   -26305281.7782        -61.680          49.750  
G19  23423524.745    -7314153.280       -4082.344          38.250  
C 5  39459039.341    -4704994.0482        258.672          36.000  
G 6  22651135.084   -15485172.239       -1469.482          41.750  
C22  24225476.357   -16152384.4592      -3008.320          44.750  
G 2  21586430.744   -25588024.622         778.955          46.250  
G 9  24778530.871    -8582500.662       -3482.715          36.500  
G30  25732840.575    -1268382.804        2303.770          30.000  
> 2020  6 29  9  2 31.5000000  0 27                     
G25  24022760.955      610806.095        -979.893          36.250  
G17  24799602.070     7160329.864       -4174.990          35.500  
C11  24500970.064    -5217314.4742       3653.047          42.750  
G12  23361339.349   -13752105.737       -2413.281          40.750  
G13  22600766.614   -13702440.237        4356.221          41.000  
C16  37970312.859   -13207101.8102       2104.785          41.500  
C 8  37026763.837     -702639.8492        716.221          43.250  
C 7  39920256.606    16235552.1552      -1581.777          34.250  
C10  39034182.467    10076333.9992      -1869.961          36.250  
C 3  36426452.597    -4377098.0072        216.543          43.250  
C13  37064376.870    -4914371.7962        680.762          43.750  
C 2  37398902.417    -4953153.5602        268.906          39.000  
C 1  37855003.927    -4006458.8352        234.863          41.250  
C 6  37390149.610    -8452701.0032       1895.645          39.750  
C 4  38803696.462    -3960895.5302        209.980          37.500  
C12  21602073.259   -24710413.8492        843.418          46.500  
G 5  20552890.055   -30593805.862          51.963          47.000  
G15  24488718.262    -8003058.153        5075.850          35.500  
G29  23836435.343   -10412237.097        4405.234          43.500  
C21  21871153.872   -26305256.9512        -62.070          49.750  
G19  23423835.415    -7312520.228       -4082.607          38.250  
C 5  39459019.448    -4705097.4662        258.506          35.750  
G 6  22651246.935   -15484584.366       -1469.639          41.750  
C22  24225707.568   -16151181.0532      -3008.516          44.750  
G 2  21586371.374   -25588336.128         778.760          46.250  
G 9  24778796.045    -8581107.489       -3482.949          36.500  
G30  25732666.112    -1269304.194        2303.486          29.750  
> 2020  6 29  9  2 32.0000000  0 27                     
G25  24022835.428      611198.168        -980.166          36.250  
G17  24799920.031     7161999.948       -4175.215          35.500  
C11  24500689.456    -5218775.6372       3652.900          42.750  
G12  23361523.061   -13751140.358       -2413.467          40.500  
G13  22600434.942   -13704182.655        4356.045          41.000  
C16  37970151.200   -13207943.6912       2104.688          41.500  
C 8  37026708.834     -702926.3142        716.123          43.250  
C 7  39920378.208    16236184.8612      -1581.836          34.250  
C10  39034326.152    10077081.9492      -1869.883          36.250  
C 3  36426435.976    -4377184.6142        216.484          43.250  
C13  37064324.510    -4914644.1212        680.791          43.750  
C 2  37398881.987    -4953261.1172        268.848          39.000  
C 1  37854985.661    -4006552.7662        234.814          41.000  
C 6  37390004.023    -8453459.2552       1895.615          40.000  
C 4  38803680.329    -3960979.5272        209.932          37.250  
C12  21602008.318   -24710751.0972        843.086          46.500  
G 5  20552886.146   -30593826.541          51.680          47.000  
G15  24488331.717    -8005088.517        5075.957          35.750  
G29  23836099.990   -10413999.125        4405.029          43.250  
C21  21871159.015   -26305232.0132        -62.363          49.750  
G19  23424146.273    -7310887.083       -4082.881          38.500  
C 5  39458999.686    -4705200.8582        258.496          36.000  
G 6  22651358.835   -15483996.449       -1469.824          41.750  
C22  24225938.674   -16149977.6162      -3008.613          44.750  
G 2  21586312.249   -25588647.581         778.613          46.250  
G 9  24779061.362    -8579714.165       -3483.359          36.750  
G30  25732492.473    -1270225.592        2303.428          29.750  
> 2020  6 29  9  2 32.5000000  0 27                     
G25  24022910.050      611590.365        -980.576          36.250  
G17  24800237.913     7163670.058       -4175.400          35.500  
C11  24500409.052    -5220236.7552       3652.764          42.750  
G12  23361706.894   -13750174.856       -2413.740          40.500  
G13  22600103.327   -13705924.961        4355.713          41.000  
C16  37969989.415   -13208785.5332       2104.561          41.250  
C 8  37026653.678     -703212.7612        716.104          43.250  
C 7  39920499.770    16236817.5812      -1581.895          34.250  
C10  39034469.615    10077829.9502      -1870.029          36.250  
C 3  36426419.634    -4377271.1902        216.426          43.250  
C13  37064272.033    -4914916.4222        680.723          43.750  
C 2  37398861.260    -4953368.6182        268.701          39.000  
C 1  37854967.605    -4006646.6742        234.707          41.000  
C 6  37389858.327    -8454217.4132       1895.371          40.000  
C 4  38803664.214    -3961063.5072        209.941          37.250  
C12  21601943.635   -24711088.1982        842.744          46.500  
G 5  20552882.556   -30593847.086          51.348          47.000  
G15  24487945.383    -8007118.849        5075.811          35.750  
G29  23835764.518   -10415761.069        4404.844          43.250  
C21  21871163.975   -26305206.9352        -62.705          49.750  
G19  23424457.075    -7309253.875       -4083.037          38.500  
C 5  39458979.932    -4705304.1992        258.330          35.750  
G 6  22651470.761   -15483408.444       -1470.068          41.750  
C22  24226169.689   -16148774.0972      -3008.799          44.750  
G 2  21586252.992   -25588958.964         778.447          46.250  
G 9  24779326.361    -8578320.776       -3483.428          36.750  
G30  25732316.946    -1271146.960        2303.359          29.750  
> 2020  6 29  9  2 33.0000000  0 27                     
G25  24022984.588      611982.665        -980.693          36.500  
G17  24800555.864     7165340.224       -4175.361          35.500  
C11  24500128.488    -5221697.8872       3652.852          42.750  
G12  23361890.772   -13749209.309       -2413.857          40.500  
G13  22599771.877   -13707667.251        4355.742          41.000  
C16  37969827.817   -13209627.3342       2104.531          41.250  
C 8  37026598.697     -703499.2512        716.260          43.250  
C 7  39920621.355    16237450.1832      -1581.377          34.250  
C10  39034613.265    10078577.9362      -1869.902          36.250  
C 3  36426403.056    -4377357.7792        216.504          43.250  
C13  37064219.839    -4915188.7682        680.898          43.750  
C 2  37398840.564    -4953476.1562        268.896          39.000  
C 1  37854949.675    -4006740.6132        234.902          41.000  
C 6  37389712.539    -8454975.6112       1895.518          39.750  
C 4  38803648.260    -3961147.4672        209.932          37.250  
C12  21601878.968   -24711425.2392        842.617          46.500  
G 5  20552878.935   -30593867.566          51.230          47.000  
G15  24487559.118    -8009149.155        5075.752          35.500  
G29  23835429.194   -10417522.993        4404.824          43.250  
C21  21871168.661   -26305181.7742        -62.891          49.750  
G19  23424767.942    -7307620.622       -4083.125          38.250  
C 5  39458959.877    -4705407.5842        258.525          36.000  
G 6  22651582.608   -15482820.409       -1470.039          41.750  
C22  24226400.900   -16147570.5732      -3008.799          44.750  
G 2  21586193.832   -25589270.351         778.477          46.250  
G 9  24779591.483    -8576927.321       -3483.652          36.500  
G30  25732136.720    -1272068.387        2303.613          29.500  
> 2020  6 29  9  2 33.5000000  0 27                     
G25  24023059.288      612375.115        -981.172          36.500  
G17  24800873.716     7167010.379       -4175.361          35.750  
C11  24499847.875    -5223158.9762       3652.676          42.750  
G12  23362074.418   -13748243.701       -2414.072          40.500  
G13  22599440.406   -13709409.487        4355.605          41.000  
C16  37969666.145   -13210469.1392       2104.531          41.500  
C 8  37026543.532     -703785.7412        716.191          43.250  
C 7  39920742.708    16238082.8162      -1581.670          34.000  
C10  39034756.872    10079325.8802      -1869.961          36.250  
C 3  36426386.491    -4377444.3812        216.494          43.250  
C13  37064167.637    -4915461.1282        680.859          43.750  
C 2  37398819.895    -4953583.6912        268.789          39.250  
C 1  37854931.788    -4006834.5402        234.805          41.000  
C 6  37389566.904    -8455733.7542       1895.342          39.750  
C 4  38803632.136    -3961231.4692        209.980          37.250  
C12  21601814.211   -24711762.1512        842.275          46.500  
G 5  20552875.070   -30593887.948          50.928          47.000  
G15  24487172.870    -8011179.493        5075.879          35.750  
G29  23835093.950   -10419284.859        4404.658          43.250  
C21  21871173.464   -26305156.5042        -63.193          49.750  
G19  23425078.795    -7305987.289       -4083.311          38.250  
C 5  39458940.032    -4705510.9562        258.359          36.000  
G 6  22651694.612   -15482232.330       -1470.205          41.750  
C22  24226632.106   -16146367.0112      -3008.926          44.750  
G 2  21586134.488   -25589581.691         778.330          46.250  
G 9  24779856.700    -8575533.771       -3483.877          36.500  
G30  25731958.488    -1272989.749        2303.506          29.250  
> 2020  6 29  9  2 34.0000000  0 27                     
G25  24023134.084      612767.534        -981.045          36.500  
G17  24801191.681     7168680.464       -4175.254          35.750  
C11  24499567.372    -5224620.1542       3652.959          42.750  
G12  23362258.391   -13747278.097       -2413.984          40.500  
G13  22599108.725   -13711151.759        4355.645          41.000  
C16  37969504.316   -13211311.0232       2104.668          41.250  
C 8  37026488.673     -704072.3622        716.543          43.250  
C 7  39920864.196    16238715.3782      -1581.367          34.250  
C10  39034900.343    10080073.7522      -1869.668          36.250  
C 3  36426369.874    -4377531.0902        216.758          43.250  
C13  37064115.260    -4915733.6092        681.211          43.750  
C 2  37398799.247    -4953691.3492        269.092          39.000  
C 1  37854913.858    -4006928.5892        235.078          41.250  
C 6  37389421.199    -8456491.9852       1895.586          39.750  
C 4  38803615.960    -3961315.5422        210.205          37.500  
C12  21601749.505   -24712099.0752        842.295          46.500  
G 5  20552871.192   -30593908.344          50.957          47.000  
G15  24486786.409    -8013209.911        5076.055          35.750  
G29  23834758.674   -10421046.806        4404.834          43.250  
C21  21871177.992   -26305131.2432        -63.174          49.750  
G19  23425389.671    -7304354.010       -4083.242          38.500  
C 5  39458920.047    -4705614.4482        258.760          36.000  
G 6  22651806.546   -15481644.320       -1470.049          41.750  
C22  24226863.256   -16145163.5162      -3008.750          44.750  
G 2  21586075.144   -25589893.106         778.525          46.250  
G 9  24780122.039    -8574140.241       -3483.848          36.750  
G30  25731784.404    -1273911.225        2303.623          29.250  
> 2020  6 29  9  2 34.5000000  0 27                     
G25  24023208.946      613160.082        -981.367          36.500  
G17  24801509.497     7170350.638       -4175.449          35.500  
C11  24499286.768    -5226081.2772       3652.812          42.750  
G12  23362442.364   -13746312.436       -2414.131          40.500  
G13  22598777.010   -13712893.984        4355.576          40.750  
C16  37969342.771   -13212152.8692       2104.619          41.250  
C 8  37026433.496     -704358.9752        716.562          43.250  
C 7  39920985.759    16239347.9002      -1581.289          34.500  
C10  39035044.033    10080821.6332      -1869.688          36.250  
C 3  36426353.052    -4377617.7762        216.729          43.250  
C13  37064063.006    -4916006.1102        681.279          43.750  
C 2  37398778.538    -4953798.9562        269.072          39.000  
C 1  37854895.788    -4007022.6122        235.088          41.250  
C 6  37389275.611    -8457250.1782       1895.488          39.750  
C 4  38803599.753    -3961399.5922        210.098          37.250  
C12  21601684.957   -24712435.8732        842.012          46.500  
G 5  20552867.243   -30593928.618          50.742          47.000  
G15  24486400.105    -8015240.310        5075.967          36.000  
G29  23834423.394   -10422808.662        4404.688          43.250  
C21  21871182.734   -26305105.8442        -63.477          49.750  
G19  23425700.494    -7302720.653       -4083.340          38.500  
C 5  39458900.193    -4705717.9482        258.691          36.000  
G 6  22651918.328   -15481056.239       -1470.186          41.750  
C22  24227094.437   -16143959.9732      -3008.838          44.750  
G 2  21586015.957   -25590204.470         778.428          46.250  
G 9  24780387.243    -8572746.650       -3483.906          36.750  
G30  25731608.157    -1274832.729        2303.730          29.000  
> 2020  6 29  9  2 35.0000000  0 27                     
G25  24023283.720      613552.786        -981.748          36.500  
G17  24801827.357     7172020.863       -4175.557          35.500  
C11  24499006.164    -5227542.3622       3652.734          43.000  
G12  23362626.194   -13745346.665       -2414.453          40.500  
G13  22598445.456   -13714636.115        4355.342          40.750  
C16  37969181.012   -13212994.6672       2104.482          41.250  
C 8  37026378.558     -704645.6012        716.562          43.250  
C 7  39921107.173    16239980.4142      -1581.328          34.250  
C10  39035187.526    10081569.5092      -1869.658          36.500  
C 3  36426336.505    -4377704.4272        216.621          43.000  
C13  37064010.747    -4916278.6042        681.221          43.750  
C 2  37398757.597    -4953906.5522        269.004          39.000  
C 1  37854877.692    -4007116.6032        234.980          41.250  
C 6  37389129.867    -8458008.3172       1895.352          39.750  
C 4  38803583.568    -3961483.6522        210.176          37.250  
C12  21601620.282   -24712772.5462        841.680          46.500  
G 5  20552863.304   -30593948.783          50.391          47.000  
G15  24486013.709    -8017270.666        5075.889          36.000  
G29  23834088.049   -10424570.465        4404.492          43.250  
C21  21871187.843   -26305080.3202        -63.799          49.750  
G19  23426011.370    -7301087.212       -4083.633          38.250  
C 5  39458880.370    -4705821.4022        258.652          36.000  
G 6  22652030.267   -15480468.084       -1470.391          41.750  
C22  24227325.547   -16142756.3802      -3008.965          45.000  
G 2  21585956.866   -25590515.772         778.242          46.250  
G 9  24780652.403    -8571352.926       -3484.355          36.750  
G30  25731436.731    -1275754.141        2303.545          29.000  
> 2020  6 29  9  2 35.5000000  0 27                     
G25  24023358.407      613945.606        -982.100          36.500  
G17  24802145.374     7173691.102       -4175.566          35.500  
C11  24498725.743    -5229003.4402       3652.656          43.000  
G12  23362810.027   -13744380.829       -2414.609          40.500  
G13  22598113.954   -13716378.203        4355.166          40.750  
C16  37969019.362   -13213836.4482       2104.453          41.250  
C 8  37026323.681     -704932.2692        716.611          43.500  
C 7  39921228.688    16240612.8652      -1581.162          34.250  
C10  39035331.150    10082317.3902      -1869.736          36.250  
C 3  36426319.683    -4377791.1022        216.670          43.250  
C13  37063958.374    -4916551.1472        681.328          43.750  
C 2  37398737.037    -4954014.1872        269.072          39.000  
C 1  37854859.492    -4007210.6212        235.039          41.250  
C 6  37388984.302    -8458766.4632       1895.312          39.750  
C 4  38803567.483    -3961567.7172        210.088          37.250  
C12  21601555.664   -24713109.1192        841.406          46.500  
G 5  20552859.386   -30593968.872          50.195          47.000  
G15  24485627.440    -8019301.053        5075.918          35.750  
G29  23833752.804   -10426332.233        4404.395          43.250  
C21  21871192.999   -26305054.7132        -64.053          49.750  
G19  23426322.067    -7299453.703       -4083.799          38.250  
C 5  39458860.634    -4705924.8362        258.535          35.750  
G 6  22652142.166   -15479879.917       -1470.439          41.750  
C22  24227556.645   -16141552.7572      -3009.082          45.000  
G 2  21585897.627   -25590827.058         778.193          46.250  
G 9  24780917.616    -8569959.171       -3484.404          36.750  
G30  25731258.451    -1276675.620        2303.682          29.000  
> 2020  6 29  9  2 36.0000000  0 27                     
G25  24023433.343      614338.486        -982.207          36.750  
G17  24802463.195     7175361.389       -4175.752          35.250  
C11  24498445.166    -5230464.4722       3652.578          43.000  
G12  23362993.896   -13743414.895       -2414.844          40.500  
G13  22597782.635   -13718120.200        4355.000          40.750  
C16  37968857.659   -13214678.1992       2104.375          41.250  
C 8  37026268.565     -705218.8972        716.582          43.250  
C 7  39921350.233    16241245.3692      -1581.240          34.250  
C10  39035474.761    10083065.2952      -1869.775          36.500  
C 3  36426303.145    -4377877.7492        216.621          43.250  
C13  37063906.006    -4916823.6702        681.309          43.750  
C 2  37398716.376    -4954121.7672        268.955          39.000  
C 1  37854841.636    -4007304.6072        234.951          41.250  
C 6  37388838.784    -8459524.5552       1895.234          39.750  
C 4  38803551.302    -3961651.7562        210.098          37.250  
C12  21601491.037   -24713445.5582        841.084          46.500  
G 5  20552855.539   -30593988.831          49.902          47.000  
G15  24485241.114    -8021331.405        5075.879          35.500  
G29  23833417.494   -10428093.913        4404.189          43.000  
C21  21871198.300   -26305028.9672        -64.375          49.750  
G19  23426632.951    -7297820.133       -4083.955          38.250  
C 5  39458840.509    -4706028.3132        258.701          36.000  
G 6  22652254.118   -15479291.644       -1470.713          41.750  
C22  24227787.725   -16140349.0782      -3009.219          45.000  
G 2  21585838.515   -25591138.279         778.047          46.250  
G 9  24781182.720    -8568565.291       -3484.697          36.750  
G30  25731083.098    -1277597.073        2303.643          28.750  
> 2020  6 29  9  2 36.5000000  0 27                     
G25  24023508.235      614731.571        -982.715          36.750  
G17  24802781.186     7177031.757       -4175.967          35.250  
C11  24498164.492    -5231925.4112       3652.324          43.000  
G12  23363177.904   -13742448.848       -2415.137          40.500  
G13  22597451.391   -13719862.085        4354.717          41.000  
C16  37968695.878   -13215519.8592       2104.131          41.250  
C 8  37026213.518     -705505.5002        716.494          43.250  
C 7  39921472.005    16241877.8872      -1581.318          34.250  
C10  39035618.415    10083813.2492      -1869.922          36.250  
C 3  36426286.296    -4377964.3462        216.484          43.250  
C13  37063853.703    -4917096.1702        681.240          43.750  
C 2  37398695.989    -4954229.3152        268.867          39.000  
C 1  37854823.841    -4007398.5412        234.824          41.250  
C 6  37388693.189    -8460282.5602       1895.010          39.750  
C 4  38803535.061    -3961735.7322        210.029          37.250  
C12  21601426.410   -24713781.8442        840.703          46.500  
G 5  20552851.499   -30594008.648          49.521          47.000  
G15  24484854.779    -8023361.673        5075.635          35.750  
G29  23833082.171   -10429855.500        4403.945          43.250  
C21  21871203.361   -26305003.0612        -64.756          49.750  
G19  23426943.753    -7296186.418       -4084.277          38.250  
C 5  39458820.542    -4706131.6812        258.408          36.000  
G 6  22652366.232   -15478703.289       -1470.869          41.750  
C22  24228018.932   -16139145.3082      -3009.424          45.000  
G 2  21585779.310   -25591449.425         777.861          46.250  
G 9  24781447.946    -8567171.275       -3485.049          36.500  
G30  25730908.766    -1278518.428        2303.447          29.000  
> 2020  6 29  9  2 37.0000000  0 27                     
G25  24023582.843      615124.813        -983.115          36.750  
G17  24803099.046     7178702.185       -4176.035          35.250  
C11  24497883.936    -5233386.3472       3652.363          43.000  
G12  23363361.816   -13741482.726       -2415.273          40.500  
G13  22597119.994   -13721603.949        4354.648          41.000  
C16  37968534.355   -13216361.5042       2104.121          41.250  
C 8  37026158.541     -705792.1302        716.582          43.250  
C 7  39921593.598    16242510.3782      -1581.211          34.250  
C10  39035761.952    10084561.1602      -1869.746          36.500  
C 3  36426269.693    -4378050.9552        216.514          43.250  
C13  37063801.239    -4917368.6732        681.279          43.750  
C 2  37398675.193    -4954336.8482        268.828          39.250  
C 1  37854805.780    -4007492.4822        234.883          41.250  
C 6  37388547.684    -8461040.5652       1894.990          40.000  
C 4  38803518.958    -3961819.7232        209.932          37.250  
C12  21601361.871   -24714118.0322        840.459          46.500  
G 5  20552848.005   -30594028.379          49.326          47.000  
G15  24484468.588    -8025391.989        5075.859          36.000  
G29  23832746.987   -10431617.059        4403.896          43.000  
C21  21871208.186   -26304977.0612        -64.990          49.750  
G19  23427254.685    -7294552.688       -4084.287          38.250  
C 5  39458800.679    -4706235.0822        258.535          36.000  
G 6  22652478.275   -15478114.906       -1470.967          42.000  
C22  24228250.147   -16137941.5182      -3009.453          45.000  
G 2  21585720.115   -25591760.533         777.773          46.250  
G 9  24781713.193    -8565777.201       -3485.176          36.750  
G30  25730734.495    -1279439.842        2303.525          29.000  
> 2020  6 29  9  2 37.5000000  0 27                     
G25  24023657.796      615518.091        -983.154          36.750  
G17  24803416.919     7180372.578       -4175.957          35.250  
C11  24497603.337    -5234847.2622       3652.285          43.000  
G12  23363545.694   -13740516.545       -2415.449          40.500  
G13  22596788.588   -13723345.770        4354.541          41.000  
C16  37968372.801   -13217203.1672       2104.170          41.250  
C 8  37026103.434     -706078.8102        716.689          43.250  
C 7  39921715.104    16243142.8272      -1581.074          34.500  
C10  39035905.659    10085309.1012      -1869.844          36.500  
C 3  36426252.932    -4378137.5942        216.582          43.250  
C13  37063748.832    -4917641.2432        681.406          43.750  
C 2  37398654.619    -4954444.4372        268.955          39.250  
C 1  37854787.588    -4007586.4742        234.951          41.000  
C 6  37388402.219    -8461798.5452       1894.951          39.750  
C 4  38803502.739    -3961903.7622        210.137          37.250  
C12  21601297.161   -24714454.1332        840.283          46.500  
G 5  20552844.436   -30594048.042          49.160          47.000  
G15  24484082.262    -8027422.315        5075.801          35.750  
G29  23832411.725   -10433378.589        4403.857          43.000  
C21  21871212.936   -26304950.9872        -65.186          49.750  
G19  23427565.373    -7292918.902       -4084.473          38.250  
C 5  39458780.847    -4706338.4882        258.516          36.000  
G 6  22652590.288   -15477526.491       -1470.996          41.750  
C22  24228481.267   -16136737.7172      -3009.512          45.000  
G 2  21585660.819   -25592071.638         777.764          46.250  
G 9  24781978.541    -8564383.042       -3485.342          36.750  
G30  25730559.364    -1280361.267        2303.506          29.000  
> 2020  6 29  9  2 38.0000000  0 27                     
G25  24023732.745      615911.511        -983.525          36.750  
G17  24803734.766     7182043.036       -4176.152          35.250  
C11  24497322.746    -5236308.1712       3652.275          43.000  
G12  23363729.436   -13739550.307       -2415.645          40.500  
G13  22596457.209   -13725087.531        4354.424          41.250  
C16  37968211.294   -13218044.8032       2104.072          41.250  
C 8  37026048.588     -706365.4932        716.719          43.250  
C 7  39921836.601    16243775.2622      -1581.113          34.500  
C10  39036049.357    10086056.9902      -1869.727          36.250  
C 3  36426236.367    -4378224.2152        216.553          43.250  
C13  37063696.617    -4917913.8502        681.533          43.750  
C 2  37398633.888    -4954551.9832        268.857          39.250  
C 1  37854769.540    -4007680.4432        234.922          41.250  
C 6  37388256.554    -8462556.5252       1894.932          39.750  
C 4  38803486.593    -3961987.7532        209.922          37.250  
C12  21601232.556   -24714790.1472        840.020          46.500  
G 5  20552840.750   -30594067.604          48.896          47.000  
G15  24483695.927    -8029452.592        5075.664          35.750  
G29  23832076.358   -10435140.063        4403.662          43.000  
C21  21871217.587   -26304924.7932        -65.498          49.750  
G19  23427876.153    -7291285.051       -4084.668          38.250  
C 5  39458760.879    -4706441.9342        258.633          35.750  
G 6  22652702.353   -15476938.025       -1471.182          42.000  
C22  24228712.652   -16135533.8832      -3009.590          45.000  
G 2  21585601.462   -25592382.699         777.656          46.250  
G 9  24782243.859    -8562988.838       -3485.615          36.500  
G30  25730382.506    -1281282.645        2303.438          29.250  
> 2020  6 29  9  2 38.5000000  0 27                     
G25  24023807.514      616305.089        -983.945          36.750  
G17  24804052.687     7183713.613       -4176.436          35.250  
C11  24497042.155    -5237768.9852       3652.012          43.000  
G12  23363913.274   -13738583.913       -2415.957          40.500  
G13  22596125.711   -13726829.148        4354.014          41.250  
C16  37968049.841   -13218886.3232       2103.809          41.250  
C 8  37025993.454     -706652.1282        716.572          43.250  
C 7  39921958.054    16244407.7212      -1581.221          34.250  
C10  39036192.881    10086804.9442      -1869.873          36.500  
C 3  36426219.881    -4378310.7622        216.367          43.250  
C13  37063644.139    -4918186.4092        681.377          43.750  
C 2  37398613.371    -4954659.4852        268.740          39.250  
C 1  37854751.584    -4007774.3292        234.707          41.250  
C 6  37388111.115    -8463314.3922       1894.658          39.750  
C 4  38803470.438    -3962071.7262        209.951          37.250  
C12  21601167.999   -24715125.9682        839.561          46.500  
G 5  20552836.932   -30594087.004          48.496          47.000  
G15  24483309.632    -8031482.806        5075.518          36.000  
G29  23831741.248   -10436901.416        4403.369          43.000  
C21  21871222.543   -26304898.4282        -65.918          49.750  
G19  23428186.993    -7289651.055       -4084.990          38.250  
C 5  39458740.986    -4706545.2822        258.301          36.000  
G 6  22652814.397   -15476349.437       -1471.494          42.000  
C22  24228943.968   -16134329.9332      -3009.883          45.000  
G 2  21585542.493   -25592693.641         777.354          46.250  
G 9  24782509.281    -8561594.462       -3485.859          36.500  
G30  25730207.629    -1282204.043        2303.467          29.000  
> 2020  6 29  9  2 39.0000000  0 27                     
G25  24023882.516      616698.864        -984.502          36.750  
G17  24804370.656     7185384.285       -4176.709          35.000  
C11  24496761.673    -5239229.7012       3651.768          43.000  
G12  23364096.933   -13737617.379       -2416.357          40.500  
G13  22595794.427   -13728570.625        4353.711          41.250  
C16  37967888.230   -13219727.7592       2103.564          41.250  
C 8  37025938.433     -706938.7112        716.455          43.250  
C 7  39922079.486    16245040.2552      -1581.191          34.250  
C10  39036336.640    10087553.0252      -1870.215          36.500  
C 3  36426203.111    -4378397.2442        216.191          43.250  
C13  37063591.723    -4918458.8982        681.211          43.750  
C 2  37398592.684    -4954766.8982        268.535          39.250  
C 1  37854733.554    -4007868.1452        234.512          41.250  
C 6  37387965.458    -8464072.1482       1894.395          39.750  
C 4  38803454.332    -3962155.5972        209.668          37.250  
C12  21601103.703   -24715461.6132        839.092          46.500  
G 5  20552833.342   -30594106.224          48.037          47.000  
G15  24482923.363    -8033512.954        5075.332          36.000  
G29  23831406.016   -10438662.651        4403.096          43.000  
C21  21871227.944   -26304871.8732        -66.387          49.750  
G19  23428498.187    -7288016.921       -4085.322          38.250  
C 5  39458721.071    -4706648.5472        258.193          35.750  
G 6  22652926.384   -15475760.733       -1471.758          42.000  
C22  24229175.314   -16133125.8812      -3010.146          45.000  
G 2  21585483.254   -25593004.484         777.090          46.250  
G 9  24782774.721    -8560199.949       -3486.318          36.500  
G30  25730031.831    -1283125.254        2303.086          29.000  
> 2020  6 29  9  2 39.5000000  0 27                     
G25  24023957.381      617092.734        -984.658          36.750  
G17  24804688.717     7187054.958       -4176.699          35.000  
C11  24496481.266    -5240690.4132       3651.768          43.000  
G12  23364280.850   -13736650.788       -2416.484          40.500  
G13  22595462.995   -13730312.096        4353.594          41.250  
C16  37967726.732   -13220569.2052       2103.623          41.500  
C 8  37025883.356     -707225.3372        716.533          43.250  
C 7  39922200.966    16245672.7332      -1581.348          34.250  
C10  39036480.473    10088301.0302      -1870.029          36.500  
C 3  36426186.651    -4378483.7572        216.270          43.250  
C13  37063539.565    -4918731.4332        681.318          43.750  
C 2  37398572.058    -4954874.3412        268.604          39.250  
C 1  37854715.366    -4007962.0012        234.619          41.250  
C 6  37387820.006    -8464829.9292       1894.453          40.000  
C 4  38803438.269    -3962239.4802        209.658          37.250  
C12  21601039.168   -24715797.1752        838.896          46.500  
G 5  20552829.756   -30594125.380          47.881          47.000  
G15  24482537.093    -8035543.096        5075.361          36.000  
G29  23831070.911   -10440423.860        4403.018          43.000  
C21  21871233.118   -26304845.2442        -66.582          49.750  
G19  23428809.050    -7286382.771       -4085.381          38.250  
C 5  39458701.256    -4706751.8622        258.301          35.750  
G 6  22653038.449   -15475172.001       -1471.855          42.000  
C22  24229406.359   -16131921.8142      -3010.186          45.000  
G 2  21585423.832   -25593315.306         777.041          46.250  
G 9  24783040.200    -8558805.383       -3486.416          36.750  
G30  25729856.548    -1284046.552        2303.105          29.000  
> 2020  6 29  9  2 40.0000000  0 27                     
G25  24024032.234      617486.627        -984.766          36.750  
G17  24805006.734     7188725.637       -4176.699          34.750  
C11  24496200.714    -5242151.1602       3651.904          43.000  
G12  23364464.744   -13735684.203       -2416.484          40.500  
G13  22595131.869   -13732053.572        4353.730          41.250  
C16  37967564.925   -13221410.6742       2103.682          41.500  
C 8  37025828.213     -707512.0442        716.797          43.250  
C 7  39922322.363    16246305.1612      -1580.938          34.250  
C10  39036624.198    10089048.9662      -1869.863          36.500  
C 3  36426169.786    -4378570.3182        216.387          43.250  
C13  37063487.201    -4919004.0592        681.582          43.750  
C 2  37398551.493    -4954981.8402        268.750          39.250  
C 1  37854697.353    -4008055.9212        234.873          41.250  
C 6  37387674.445    -8465587.7382       1894.531          39.750  
C 4  38803422.105    -3962323.4262        209.951          37.250  
C12  21600974.860   -24716132.6972        838.809          46.500  
G 5  20552825.795   -30594144.514          47.852          47.000  
G15  24482150.868    -8037573.333        5075.635          36.000  
G29  23830735.862   -10442185.077        4403.057          43.000  
C21  21871238.614   -26304818.5712        -66.670          49.750  
G19  23429120.035    -7284748.622       -4085.391          38.250  
C 5  39458681.525    -4706855.1842        258.271          35.750  
G 6  22653150.427   -15474583.306       -1471.738          42.000  
C22  24229637.588   -16130717.7912      -3010.029          45.000  
G 2  21585364.715   -25593626.180         777.197          46.250  
G 9  24783305.482    -8557410.783       -3486.455          36.750  
G30  25729680.999    -1284967.905        2303.438          29.000  
> 2020  6 29  9  2 40.5000000  0 27                     
G25  24024107.348      617880.685        -985.146          36.750  
G17  24805324.629     7190396.317       -4176.670          35.000  
C11  24495920.128    -5243611.8862       3651.787          43.000  
G12  23364648.561   -13734717.524       -2416.650          40.250  
G13  22594800.537   -13733794.969        4353.506          41.250  
C16  37967403.258   -13222252.1272       2103.623          41.500  
C 8  37025773.249     -707798.7662        716.787          43.250  
C 7  39922443.611    16246937.5362      -1581.025          34.000  
C10  39036767.831    10089796.8972      -1869.824          36.500  
C 3  36426153.448    -4378656.8742        216.406          43.250  
C13  37063434.820    -4919276.6942        681.582          43.750  
C 2  37398530.836    -4955089.3502        268.760          39.250  
C 1  37854679.166    -4008149.8332        234.727          41.250  
C 6  37387528.818    -8466345.5002       1894.424          39.750  
C 4  38803405.973    -3962407.3842        209.785          37.250  
C12  21600910.556   -24716468.1062        838.496          46.500  
G 5  20552822.174   -30594163.533          47.529          47.000  
G15  24481764.655    -8039603.513        5075.449          36.000  
G29  23830400.727   -10443946.251        4402.920          43.000  
C21  21871243.705   -26304791.7862        -66.973          49.750  
G19  23429431.041    -7283114.382       -4085.566          38.250  
C 5  39458661.566    -4706958.5432        258.408          35.750  
G 6  22653262.553   -15473994.551       -1471.904          42.000  
C22  24229868.690   -16129513.7122      -3010.195          45.000  
G 2  21585305.546   -25593937.000         777.031          46.250  
G 9  24783570.935    -8556016.111       -3486.748          36.500  
G30  25729506.584    -1285889.202        2303.311          29.000  
> 2020  6 29  9  2 41.0000000  0 27                     
G25  24024182.476      618274.803        -985.273          36.750  
G17  24805642.660     7192067.014       -4176.807          34.750  
C11  24495639.528    -5245072.6132       3651.807          43.000  
G12  23364832.477   -13733750.817       -2416.787          40.250  
G13  22594469.236   -13735536.353        4353.457          41.250  
C16  37967241.673   -13223093.5742       2103.604          41.500  
C 8  37025717.967     -708085.5382        716.924          43.500  
C 7  39922565.143    16247569.8542      -1580.811          34.000  
C10  39036911.472    10090544.8222      -1869.805          36.500  
C 3  36426136.709    -4378743.4682        216.484          43.000  
C13  37063382.443    -4919549.3662        681.680          43.750  
C 2  37398510.306    -4955196.8662        268.799          39.000  
C 1  37854661.310    -4008243.7502        234.805          41.250  
C 6  37387383.153    -8467103.2752       1894.424          39.750  
C 4  38803389.796    -3962491.3382        209.912          37.250  
C12  21600846.103   -24716803.4402        838.340          46.500  
G 5  20552818.605   -30594182.491          47.393          47.000  
G15  24481378.342    -8041633.772        5075.625          36.000  
G29  23830065.486   -10445707.411        4402.900          43.000  
C21  21871248.744   -26304764.9222        -67.178          49.750  
G19  23429742.052    -7281480.117       -4085.703          38.250  
C 5  39458641.804    -4707061.9412        258.467          35.750  
G 6  22653374.649   -15473405.769       -1471.914          42.000  
C22  24230099.870   -16128309.6252      -3010.234          45.000  
G 2  21585246.551   -25594247.812         777.031          46.250  
G 9  24783836.392    -8554621.379       -3486.807          36.500  
G30  25729334.978    -1286810.553        2303.438          29.250  
> 2020  6 29  9  2 41.5000000  0 27                     
G25  24024257.473      618669.085        -985.713          36.750  
G17  24805960.397     7193737.775       -4176.875          34.500  
C11  24495359.003    -5246533.2512       3651.611          43.000  
G12  23365016.411   -13732783.958       -2417.158          40.000  
G13  22594137.922   -13737277.605        4353.135          41.500  
C16  37967080.097   -13223934.9452       2103.428          41.500  
C 8  37025663.086     -708372.2672        716.816          43.500  
C 7  39922686.374    16248202.2102      -1580.928          34.250  
C10  39037055.310    10091292.7702      -1869.902          36.500  
C 3  36426119.996    -4378830.0062        216.318          43.000  
C13  37063329.979    -4919822.0132        681.611          43.750  
C 2  37398489.449    -4955304.3622        268.770          39.000  
C 1  37854643.240    -4008337.6472        234.717          41.250  
C 6  37387237.670    -8467860.9892       1894.287          39.750  
C 4  38803373.808    -3962575.3012        209.912          37.500  
C12  21600781.616   -24717138.6252        837.949          46.500  
G 5  20552814.928   -30594201.302          47.031          47.000  
G15  24480992.012    -8043663.933        5075.391          36.000  
G29  23829730.464   -10447468.454        4402.607          43.000  
C21  21871253.482   -26304737.8932        -67.578          50.000  
G19  23430052.980    -7279845.744       -4085.918          38.250  
C 5  39458622.059    -4707165.2632        258.330          35.750  
G 6  22653486.771   -15472816.886       -1472.236          42.000  
C22  24230331.195   -16127105.4612      -3010.420          45.000  
G 2  21585187.399   -25594558.535         776.807          46.250  
G 9  24784102.010    -8553226.527       -3487.197          36.500  
G30  25729161.161    -1287731.872        2303.115          29.500  
> 2020  6 29  9  2 42.0000000  0 27                     
G25  24024332.482      619063.436        -985.908          36.750  
G17  24806278.384     7195408.603       -4177.080          34.500  
C11  24495078.386    -5247993.9072       3651.641          43.000  
G12  23365200.302   -13731817.085       -2417.236          40.000  
G13  22593806.568   -13739018.847        4353.076          41.500  
C16  37966918.639   -13224776.3572       2103.496          41.500  
C 8  37025607.834     -708659.0372        716.934          43.250  
C 7  39922807.972    16248834.5262      -1580.762          34.250  
C10  39037199.095    10092040.7452      -1869.941          36.500  
C 3  36426103.318    -4378916.5772        216.406          43.250  
C13  37063277.698    -4920094.7342        681.787          43.750  
C 2  37398468.993    -4955411.8542        268.721          39.250  
C 1  37854625.253    -4008431.5732        234.824          41.250  
C 6  37387092.109    -8468618.6862       1894.209          39.750  
C 4  38803357.505    -3962659.2592        209.873          37.250  
C12  21600717.325   -24717473.7192        837.734          46.500  
G 5  20552811.346   -30594220.064          46.875          47.000  
G15  24480605.511    -8045694.100        5075.400          36.000  
G29  23829395.337   -10449229.507        4402.607          43.000  
C21  21871258.612   -26304710.8052        -67.734          50.000  
G19  23430363.939    -7278211.347       -4086.016          38.500  
C 5  39458602.200    -4707268.6332        258.359          35.750  
G 6  22653598.714   -15472227.995       -1472.227          42.000  
C22  24230562.493   -16125901.2962      -3010.439          45.000  
G 2  21585128.177   -25594869.261         776.797          46.250  
G 9  24784367.537    -8551831.613       -3487.246          36.500  
G30  25728981.655    -1288653.215        2303.447          29.500  
> 2020  6 29  9  2 42.5000000  0 27                     
G25  24024407.597      619457.815        -985.938          37.000  
G17  24806596.410     7197079.292       -4176.719          34.500  
C11  24494797.913    -5249454.6212       3651.777          43.000  
G12  23365384.148   -13730850.222       -2417.090          40.000  
G13  22593475.289   -13740760.144        4353.242          41.500  
C16  37966756.971   -13225617.7962       2103.643          41.500  
C 8  37025552.788     -708945.9302        717.236          43.250  
C 7  39922929.303    16249466.7142      -1580.439          34.000  
C10  39037342.806    10092788.5672      -1869.551          36.500  
C 3  36426086.701    -4379003.2442        216.719          43.000  
C13  37063225.334    -4920367.5442        682.031          43.750  
C 2  37398448.262    -4955519.4622        268.975          39.250  
C 1  37854607.153    -4008525.5672        234.980          41.250  
C 6  37386946.675    -8469376.4702       1894.482          39.750  
C 4  38803341.385    -3962743.3072        210.137          37.500  
C12  21600652.912   -24717808.8032        837.715          46.500  
G 5  20552807.926   -30594238.817          46.895          47.000  
G15  24480219.041    -8047724.383        5075.703          36.000  
G29  23829060.340   -10450990.574        4402.705          43.000  
C21  21871263.974   -26304683.6942        -67.764          50.000  
G19  23430674.928    -7276576.976       -4085.938          38.500  
C 5  39458582.534    -4707372.0872        258.691          35.750  
G 6  22653710.736   -15471639.159       -1472.100          42.000  
C22  24230793.691   -16124697.1842      -3010.264          45.000  
G 2  21585068.969   -25595180.049         776.973          46.250  
G 9  24784632.855    -8550436.740       -3487.090          36.500  
G30  25728805.343    -1289574.655        2303.594          29.750  
> 2020  6 29  9  2 43.0000000  0 27                     
G25  24024482.668      619852.390        -986.445          36.750  
G17  24806914.401     7198750.150       -4177.148          34.500  
C11  24494517.296    -5250915.2602       3651.592          43.000  
G12  23365567.960   -13729883.216       -2417.568          40.000  
G13  22593143.971   -13742501.294        4352.910          41.500  
C16  37966595.478   -13226459.1802       2103.428          41.500  
C 8  37025497.763     -709232.7882        717.109          43.250  
C 7  39923050.791    16250098.9252      -1580.518          34.000  
C10  39037486.278    10093536.4532      -1869.697          36.500  
C 3  36426070.298    -4379089.8512        216.494          43.250  
C13  37063172.966    -4920640.3442        681.982          43.750  
C 2  37398427.727    -4955627.0022        268.848          39.000  
C 1  37854589.062    -4008619.5222        234.893          41.250  
C 6  37386801.118    -8470134.1502       1894.199          39.750  
C 4  38803325.117    -3962827.3072        209.990          37.500  
C12  21600588.739   -24718143.7272        837.305          46.500  
G 5  20552804.619   -30594257.415          46.484          47.000  
G15  24479832.872    -8049754.589        5075.508          36.250  
G29  23828725.096   -10452751.544        4402.402          42.750  
C21  21871269.418   -26304656.4212        -68.193          49.750  
G19  23430986.008    -7274942.477       -4086.211          38.250  
C 5  39458562.811    -4707475.4472        258.330          35.750  
G 6  22653822.762   -15471050.199       -1472.412          42.000  
C22  24231025.072   -16123492.9802      -3010.518          45.000  
G 2  21585009.839   -25595490.739         776.709          46.250  
G 9  24784898.207    -8549041.710       -3487.646          36.500  
G30  25728629.388    -1290496.030        2303.330          29.500  
> 2020  6 29  9  2 43.5000000  0 27                     
G25  24024557.791      620246.979        -986.465          36.500  
G17  24807232.038     7200420.952       -4177.041          34.250  
C11  24494236.819    -5252375.9272       3651.680          43.000  
G12  23365751.715   -13728916.197       -2417.549          39.750  
G13  22592812.635   -13744242.470        4352.910          41.500  
C16  37966433.985   -13227300.6002       2103.555          41.500  
C 8  37025442.664     -709519.7072        717.305          43.250  
C 7  39923172.328    16250731.1172      -1580.518          33.750  
C10  39037629.797    10094284.2712      -1869.561          36.500  
C 3  36426053.454    -4379176.5082        216.631          43.250  
C13  37063120.563    -4920913.2002        682.148          43.750  
C 2  37398406.922    -4955734.6152        269.053          39.000  
C 1  37854570.839    -4008713.5552        235.049          41.250  
C 6  37386655.640    -8470891.8822       1894.307          40.000  
C 4  38803308.936    -3962911.3422        210.098          37.500  
C12  21600524.596   -24718478.5972        837.168          46.500  
G 5  20552801.142   -30594275.982          46.426          47.000  
G15  24479446.621    -8051784.869        5075.684          36.250  
G29  23828389.881   -10454512.522        4402.432          42.750  
C21  21871275.146   -26304629.1062        -68.291          49.750  
G19  23431297.072    -7273307.971       -4086.309          38.250  
C 5  39458542.874    -4707578.9292        258.740          35.750  
G 6  22653934.910   -15470461.258       -1472.324          42.000  
C22  24231256.327   -16122288.8102      -3010.439          45.250  
G 2  21584950.626   -25595801.451         776.777          46.250  
G 9  24785163.712    -8547646.663       -3487.686          36.500  
G30  25728452.006    -1291417.522        2303.848          29.250  
> 2020  6 29  9  2 44.0000000  0 27                     
G25  24024633.014      620641.664        -986.699          36.750  
G17  24807549.973     7202091.759       -4176.992          34.250  
C11  24493956.263    -5253836.6112       3651.689          43.000  
G12  23365935.518   -13727949.145       -2417.607          39.500  
G13  22592481.534   -13745983.586        4352.783          41.500  
C16  37966272.401   -13228142.0002       2103.486          41.500  
C 8  37025387.517     -709806.6712        717.432          43.250  
C 7  39923293.616    16251363.2242      -1580.332          34.000  
C10  39037773.321    10095032.0792      -1869.512          36.250  
C 3  36426036.811    -4379263.1822        216.699          43.000  
C13  37063068.068    -4921186.1062        682.256          43.750  
C 2  37398386.121    -4955842.2332        269.033          39.000  
C 1  37854552.700    -4008807.5802        235.078          41.250  
C 6  37386510.009    -8471649.6202       1894.336          39.750  
C 4  38803292.791    -3962995.4272        210.166          37.250  
C12  21600460.266   -24718813.4022        837.002          46.500  
G 5  20552797.534   -30594294.471          46.211          47.000  
G15  24479060.155    -8053815.155        5075.781          36.250  
G29  23828054.863   -10456273.487        4402.422          42.750  
C21  21871280.517   -26304601.7012        -68.516          49.750  
G19  23431608.165    -7271673.426       -4086.338          38.250  
C 5  39458522.981    -4707682.4132        258.682          36.000  
G 6  22654047.006   -15469872.309       -1472.393          42.000  
C22  24231487.525   -16121084.6112      -3010.488          45.000  
G 2  21584891.679   -25596112.157         776.768          46.250  
G 9  24785429.274    -8546251.572       -3487.705          36.500  
G30  25728280.012    -1292338.932        2303.506          29.000  
> 2020  6 29  9  2 44.5000000  0 27                     
G25  24024708.155      621036.491        -987.061          36.750  
G17  24807867.732     7203762.586       -4177.041          34.000  
C11  24493675.820    -5255297.2582       3651.621          43.000  
G12  23366119.195   -13726982.003       -2417.891          39.500  
G13  22592150.194   -13747724.673        4352.705          41.500  
C16  37966110.755   -13228983.3812       2103.457          41.500  
C 8  37025332.439     -710093.6652        717.441          43.250  
C 7  39923414.929    16251995.3042      -1580.146          33.750  
C10  39037916.858    10095779.8542      -1869.463          36.250  
C 3  36426019.910    -4379349.8822        216.729          43.250  
C13  37063015.648    -4921459.0522        682.373          43.750  
C 2  37398365.513    -4955949.8542        269.043          39.000  
C 1  37854534.573    -4008901.6252        235.107          41.250  
C 6  37386364.470    -8472407.3202       1894.258          39.750  
C 4  38803276.680    -3963079.5192        210.254          37.250  
C12  21600395.979   -24719148.0952        836.738          46.500  
G 5  20552793.900   -30594312.872          46.006          47.000  
G15  24478673.694    -8055845.417        5075.615          36.250  
G29  23827719.793   -10458034.401        4402.266          42.750  
C21  21871285.521   -26304574.1992        -68.760          49.750  
G19  23431919.473    -7270038.858       -4086.396          38.250  
C 5  39458503.105    -4707785.8992        258.721          36.000  
G 6  22654158.967   -15469283.294       -1472.559          42.000  
C22  24231718.657   -16119880.3882      -3010.576          45.000  
G 2  21584832.623   -25596422.827         776.660          46.250  
G 9  24785694.831    -8544856.400       -3487.920          36.250  
G30  25728103.757    -1293260.385        2303.604          29.000  
> 2020  6 29  9  2 45.0000000  0 27                     
G25  24024783.392      621431.463        -987.451          36.750  
G17  24808185.623     7205433.495       -4177.334          34.000  
C11  24493395.352    -5256757.8502       3651.455          42.750  
G12  23366302.911   -13726014.754       -2418.096          39.250  
G13  22591818.670   -13749465.656        4352.461          41.500  
C16  37965948.974   -13229824.7292       2103.389          41.500  
C 8  37025277.445     -710380.6392        717.451          43.250  
C 7  39923536.195    16252627.4282      -1580.322          33.500  
C10  39038060.569    10096527.7132      -1869.658          36.250  
C 3  36426003.538    -4379436.5252        216.621          43.000  
C13  37062963.289    -4921731.9752        682.295          43.750  
C 2  37398345.096    -4956057.4542        268.984          39.000  
C 1  37854516.613    -4008995.6352        235.010          41.000  
C 6  37386219.162    -8473164.9832       1894.141          39.750  
C 4  38803260.525    -3963163.5712        210.166          37.250  
C12  21600331.671   -24719482.6432        836.357          46.250  
G 5  20552790.310   -30594331.146          45.674          47.000  
G15  24478287.232    -8057875.656        5075.625          36.250  
G29  23827384.810   -10459795.229        4402.070          42.750  
C21  21871290.363   -26304546.5512        -69.131          49.500  
G19  23432230.540    -7268404.145       -4086.836          38.250  
C 5  39458483.168    -4707889.3152        258.535          35.750  
G 6  22654271.019   -15468694.206       -1472.705          41.750  
C22  24231949.816   -16118676.1042      -3010.713          45.000  
G 2  21584773.436   -25596733.427         776.494          46.250  
G 9  24785960.323    -8543461.090       -3488.320          36.250  
G30  25727927.531    -1294181.827        2303.555          29.000  
> 2020  6 29  9  2 45.5000000  0 27                     
G25  24024858.576      621826.494        -987.598          36.750  
G17  24808503.509     7207104.484       -4177.451          34.250  
C11  24493114.931    -5258218.4142       3651.406          42.750  
G12  23366486.483   -13725047.440       -2418.311          39.000  
G13  22591487.299   -13751206.578        4352.275          41.500  
C16  37965787.621   -13230666.0182       2103.193          41.500  
C 8  37025222.211     -710667.6212        717.432          43.250  
C 7  39923657.636    16253259.5132      -1580.234          33.500  
C10  39038204.219    10097275.5502      -1869.570          36.250  
C 3  36425986.650    -4379523.1842        216.631          43.250  
C13  37062910.912    -4922004.9182        682.354          43.750  
C 2  37398324.304    -4956165.0422        268.965          39.000  
C 1  37854498.464    -4009089.6352        235.000          41.250  
C 6  37386073.671    -8473922.6032       1894.043          39.750  
C 4  38803244.262    -3963247.6012        210.029          37.250  
C12  21600267.415   -24719817.0832        836.094          46.500  
G 5  20552786.863   -30594349.328          45.449          47.000  
G15  24477900.854    -8059905.862        5075.469          36.250  
G29  23827049.731   -10461556.005        4401.943          42.750  
C21  21871295.389   -26304518.7962        -69.404          49.750  
G19  23432541.508    -7266769.395       -4086.865          38.250  
C 5  39458463.288    -4707992.7682        258.555          36.000  
G 6  22654382.975   -15468105.086       -1472.832          41.750  
C22  24232181.210   -16117471.7752      -3010.811          45.000  
G 2  21584714.315   -25597043.988         776.396          46.250  
G 9  24786225.850    -8542065.723       -3488.418          36.250  
G30  25727750.433    -1295103.227        2303.535          29.250  
> 2020  6 29  9  2 46.0000000  0 27                     
G25  24024933.826      622221.676        -987.959          37.000  
G17  24808821.348     7208775.376       -4177.236          34.000  
C11  24492834.349    -5259678.9822       3651.436          43.000  
G12  23366670.194   -13724080.084       -2418.379          38.750  
G13  22591155.994   -13752947.474        4352.236          41.500  
C16  37965626.066   -13231507.3482       2103.320          41.500  
C 8  37025167.020     -710954.6852        717.666          43.250  
C 7  39923778.967    16253891.5112      -1579.971          33.500  
C10  39038347.922    10098023.3112      -1869.424          36.000  
C 3  36425970.020    -4379609.8612        216.670          43.250  
C13  37062858.487    -4922277.9032        682.461          43.750  
C 2  37398303.665    -4956272.6452        269.043          39.000  
C 1  37854480.495    -4009183.6542        235.049          41.250  
C 6  37385928.175    -8474680.2052       1893.994          39.750  
C 4  38803228.129    -3963331.6722        210.176          37.500  
C12  21600203.115   -24720151.4482        835.908          46.500  
G 5  20552783.509   -30594367.435          45.254          47.000  
G15  24477514.476    -8061936.101        5075.615          36.250  
G29  23826714.625   -10463316.775        4401.914          42.750  
C21  21871300.907   -26304490.9662        -69.570          49.750  
G19  23432852.715    -7265134.611       -4086.992          38.250  
C 5  39458443.482    -4708096.2772        258.818          36.000  
G 6  22654495.058   -15467515.928       -1472.900          41.750  
C22  24232412.382   -16116267.4452      -3010.820          45.250  
G 2  21584655.211   -25597354.548         776.387          46.250  
G 9  24786491.233    -8540670.311       -3488.525          36.250  
G30  25727578.697    -1296024.675        2303.652          29.750  
> 2020  6 29  9  2 46.5000000  0 27                     
G25  24025009.254      622617.031        -988.389          37.000  
G17  24809139.277     7210446.455       -4177.666          34.000  
C11  24492553.981    -5261139.4492       3651.162          43.000  
G12  23366853.998   -13723112.559       -2418.809          38.750  
G13  22590824.483   -13754688.239        4351.963          41.500  
C16  37965464.521   -13232348.5602       2103.027          41.500  
C 8  37025111.855     -711241.6572        717.432          43.250  
C 7  39923900.242    16254523.6322      -1580.303          33.500  
C10  39038491.515    10098771.1502      -1869.600          36.250  
C 3  36425953.386    -4379696.4622        216.514          43.250  
C13  37062806.119    -4922550.8172        682.295          43.750  
C 2  37398283.060    -4956380.1752        268.818          39.000  
C 1  37854462.517    -4009277.6252        234.912          41.250  
C 6  37385782.758    -8475437.7262       1893.789          40.000  
C 4  38803212.184    -3963415.6702        210.029          37.250  
C12  21600138.780   -24720485.6322        835.459          46.500  
G 5  20552779.831   -30594385.374          44.863          47.000  
G15  24477128.316    -8063966.296        5075.420          36.250  
G29  23826379.616   -10465077.403        4401.582          42.750  
C21  21871306.478   -26304462.9552        -70.029          49.750  
G19  23433163.992    -7263499.677       -4087.305          38.500  
C 5  39458423.715    -4708199.6442        258.438          36.000  
G 6  22654607.263   -15466926.653       -1473.154          41.750  
C22  24232643.737   -16115062.9932      -3011.143          45.250  
G 2  21584596.199   -25597664.985         776.113          46.000  
G 9  24786756.856    -8539274.747       -3488.906          36.250  
G30  25727404.749    -1296945.989        2303.291          29.750  
> 2020  6 29  9  2 47.0000000  0 27                     
G25  24025084.552      623012.485        -988.662          37.000  
G17  24809457.312     7212117.575       -4177.861          34.000  
C11  24492273.599    -5262599.8892       3651.104          43.000  
G12  23367037.548   -13722144.982       -2418.965          38.750  
G13  22590493.117   -13756428.951        4351.748          41.250  
C16  37965303.011   -13233189.7432       2102.930          41.500  
C 8  37025056.826     -711528.6402        717.461          43.250  
C 7  39924021.429    16255155.7382      -1580.283          33.750  
C10  39038635.013    10099519.0112      -1869.658          36.000  
C 3  36425936.642    -4379783.0562        216.484          43.250  
C13  37062753.663    -4922823.7762        682.393          43.750  
C 2  37398262.482    -4956487.7552        268.945          39.000  
C 1  37854444.404    -4009371.5652        234.854          41.250  
C 6  37385637.416    -8476195.2212       1893.760          40.000  
C 4  38803196.081    -3963499.6482        209.863          37.250  
C12  21600074.668   -24720819.7092        835.195          46.500  
G 5  20552776.323   -30594403.218          44.600          47.000  
G15  24476742.042    -8065996.447        5075.391          36.500  
G29  23826044.598   -10466837.986        4401.445          42.750  
C21  21871312.228   -26304434.8252        -70.332          49.750  
G19  23433475.134    -7261864.697       -4087.461          38.500  
C 5  39458403.844    -4708303.0212        258.486          36.000  
G 6  22654719.402   -15466337.320       -1473.350          41.750  
C22  24232875.179   -16113858.5112      -3011.221          45.250  
G 2  21584536.955   -25597975.406         776.035          46.250  
G 9  24787022.331    -8537879.112       -3489.092          36.250  
G30  25727229.077    -1297867.382        2303.428          29.750  
> 2020  6 29  9  2 47.5000000  0 27                     
G25  24025159.815      623408.049        -988.936          37.000  
G17  24809775.168     7213788.694       -4177.803          34.000  
C11  24491993.126    -5264060.3072       3651.006          43.000  
G12  23367221.456   -13721177.320       -2419.180          38.750  
G13  22590161.885   -13758169.587        4351.572          41.250  
C16  37965141.500   -13234030.9162       2102.949          41.500  
C 8  37025001.614     -711815.6582        717.520          43.250  
C 7  39924142.826    16255787.7522      -1580.039          33.750  
C10  39038778.523    10100266.8802      -1869.658          36.000  
C 3  36425920.095    -4379869.6602        216.504          43.250  
C13  37062701.387    -4923096.7382        682.393          43.750  
C 2  37398242.057    -4956595.2972        268.828          39.250  
C 1  37854426.425    -4009465.5232        234.893          41.250  
C 6  37385492.055    -8476952.6942       1893.662          40.000  
C 4  38803180.019    -3963583.6672        210.088          37.250  
C12  21600010.744   -24721153.6702        834.893          46.500  
G 5  20552772.990   -30594420.967          44.355          47.000  
G15  24476355.716    -8068026.556        5075.303          36.250  
G29  23825709.611   -10468598.526        4401.338          42.750  
C21  21871317.659   -26304406.5982        -70.566          49.750  
G19  23433786.175    -7260229.634       -4087.666          38.500  
C 5  39458383.850    -4708406.4172        258.457          36.250  
G 6  22654831.542   -15465747.954       -1473.428          41.750  
C22  24233106.508   -16112653.9992      -3011.289          45.250  
G 2  21584478.052   -25598285.778         775.918          46.250  
G 9  24787287.958    -8536483.349       -3489.414          36.500  
G30  25727055.910    -1298788.759        2303.496          30.000  
> 2020  6 29  9  2 48.0000000  0 27                     
G25  24025235.008      623803.686        -989.062          36.750  
G17  24810093.163     7215459.806       -4177.764          34.000  
C11  24491712.719    -5265520.7632       3651.143          43.000  
G12  23367405.342   -13720209.639       -2419.189          38.750  
G13  22589830.571   -13759910.241        4351.611          41.000  
C16  37964979.863   -13234872.1082       2102.979          41.250  
C 8  37024946.375     -712102.7412        717.705          43.250  
C 7  39924264.171    16256419.7352      -1579.990          33.500  
C10  39038922.003    10101014.6692      -1869.473          36.000  
C 3  36425903.238    -4379956.3232        216.670          43.250  
C13  37062648.849    -4923369.8032        682.646          43.750  
C 2  37398221.352    -4956702.9112        269.043          39.000  
C 1  37854408.430    -4009559.5492        235.049          41.250  
C 6  37385346.603    -8477710.2062       1893.760          40.000  
C 4  38803163.899    -3963667.7112        210.107          37.250  
C12  21599946.488   -24721487.5972        834.795          46.500  
G 5  20552769.862   -30594438.694          44.316          47.000  
G15  24475969.290    -8070056.762        5075.508          36.000  
G29  23825374.584   -10470359.081        4401.357          42.750  
C21  21871322.785   -26304378.3232        -70.703          49.750  
G19  23434097.269    -7258594.571       -4087.656          38.500  
C 5  39458364.136    -4708509.8712        258.623          36.000  
G 6  22654943.646   -15465158.589       -1473.408          41.750  
C22  24233337.763   -16111449.5142      -3011.211          45.250  
G 2  21584419.092   -25598596.176         775.986          46.250  
G 9  24787553.598    -8535087.588       -3489.355          36.500  
G30  25726880.091    -1299710.190        2303.379          30.250  
> 2020  6 29  9  2 48.5000000  0 27                     
G25  24025310.288      624199.454        -989.414          36.500  
G17  24810411.158     7217130.995       -4177.998          34.000  
C11  24491432.224    -5266981.1422       3650.938          43.000  
G12  23367589.289   -13719241.852       -2419.502          39.000  
G13  22589499.344   -13761650.809        4351.416          41.000  
C16  37964818.278   -13235713.2512       2102.852          41.500  
C 8  37024891.403     -712389.7972        717.637          43.250  
C 7  39924385.576    16257051.7492      -1580.029          33.500  
C10  39039065.627    10101762.4902      -1869.609          36.000  
C 3  36425886.909    -4380042.9312        216.504          43.250  
C13  37062596.393    -4923642.8212        682.539          43.750  
C 2  37398200.599    -4956810.4502        268.828          39.000  
C 1  37854390.321    -4009653.5432        234.971          41.250  
C 6  37385201.090    -8478467.6312       1893.564          40.000  
C 4  38803147.901    -3963751.7352        210.078          37.250  
C12  21599882.319   -24721821.3612        834.404          46.500  
G 5  20552766.713   -30594456.267          43.926          47.000  
G15  24475582.985    -8072086.921        5075.371          36.000  
G29  23825039.518   -10472119.528        4401.123          42.750  
C21  21871327.794   -26304349.8932        -71.084          49.750  
G19  23434408.397    -7256959.403       -4087.939          38.500  
C 5  39458344.295    -4708613.3052        258.545          36.250  
G 6  22655055.786   -15464569.145       -1473.623          41.750  
C22  24233569.052   -16110244.9402      -3011.436          45.250  
G 2  21584359.984   -25598906.493         775.791          46.250  
G 9  24787819.238    -8533691.698       -3489.775          36.500  
G30  25726707.093    -1300631.559        2303.477          30.500  
> 2020  6 29  9  2 49.0000000  0 27                     
G25  24025385.525      624595.242        -989.424          36.500  
G17  24810729.119     7218802.133       -4177.832          34.000  
C11  24491151.721    -5268441.5922       3651.152          43.000  
G12  23367773.223   -13718274.102       -2419.355          39.000  
G13  22589168.301   -13763391.382        4351.436          41.000  
C16  37964656.938   -13236554.4492       2103.008          41.500  
C 8  37024836.321     -712676.9572        717.920          43.250  
C 7  39924506.829    16257683.6282      -1579.727          33.500  
C10  39039209.112    10102510.2162      -1869.297          36.000  
C 3  36425870.253    -4380129.6222        216.729          43.250  
C13  37062543.864    -4923915.9682        682.891          43.750  
C 2  37398179.947    -4956918.0982        269.150          39.000  
C 1  37854372.256    -4009747.5802        235.127          41.250  
C 6  37385055.486    -8479225.1162       1893.730          40.000  
C 4  38803131.647    -3963835.8272        210.205          37.250  
C12  21599818.277   -24722155.1242        834.434          46.500  
G 5  20552763.445   -30594473.840          43.945          47.000  
G15  24475196.598    -8074117.151        5075.615          36.000  
G29  23824704.740   -10473880.030        4401.270          42.750  
C21  21871333.077   -26304321.4602        -71.064          49.750  
G19  23434719.500    -7255324.283       -4087.764          38.500  
C 5  39458324.240    -4708716.7892        258.760          36.250  
G 6  22655167.978   -15463979.743       -1473.506          41.750  
C22  24233800.473   -16109040.4372      -3011.260          45.250  
G 2  21584300.976   -25599216.875         775.967          46.250  
G 9  24788085.005    -8532295.875       -3489.551          36.250  
G30  25726530.358    -1301553.005        2303.672          30.750  
> 2020  6 29  9  2 49.5000000  0 27                     
G25  24025460.940      624991.282        -990.146          36.500  
G17  24811047.097     7220473.394       -4178.135          34.000  
C11  24490871.156    -5269901.8972       3650.742          43.000  
G12  23367957.397   -13717306.153       -2419.893          39.000  
G13  22588836.886   -13765131.816        4351.064          41.250  
C16  37964495.314   -13237395.5272       2102.637          41.500  
C 8  37024781.213     -712964.0332        717.666          43.250  
C 7  39924628.217    16258315.5782      -1579.844          33.500  
C10  39039352.517    10103258.0742      -1869.648          36.000  
C 3  36425853.701    -4380216.2262        216.494          43.250  
C13  37062491.461    -4924189.0312        682.637          43.750  
C 2  37398159.256    -4957025.6202        268.770          39.000  
C 1  37854354.260    -4009841.5452        234.912          41.250  
C 6  37384909.916    -8479982.4932       1893.438          40.000  
C 4  38803115.579    -3963919.8232        209.951          37.250  
C12  21599754.095   -24722488.6602        833.818          46.500  
G 5  20552759.981   -30594491.221          43.428          47.000  
G15  24474810.189    -8076147.254        5075.234          36.000  
G29  23824369.857   -10475640.368        4400.820          42.750  
C21  21871338.704   -26304292.8032        -71.660          49.750  
G19  23435030.799    -7253688.991       -4088.262          38.500  
C 5  39458304.351    -4708820.1852        258.438          36.250  
G 6  22655280.100   -15463390.192       -1473.887          41.750  
C22  24234031.980   -16107835.7732      -3011.689          45.250  
G 2  21584241.903   -25599527.100         775.527          46.250  
G 9  24788350.811    -8530899.822       -3490.166          36.500  
G30  25726355.188    -1302474.344        2303.359          30.750  
> 2020  6 29  9  2 50.0000000  0 27                     
G25  24025536.386      625387.403        -990.332          36.500  
G17  24811365.088     7222144.687       -4178.281          34.250  
C11  24490590.714    -5271362.2182       3650.801          43.000  
G12  23368141.702   -13716338.137       -2420.029          39.250  
G13  22588505.716   -13766872.198        4350.957          41.250  
C16  37964333.599   -13238236.6072       2102.705          41.500  
C 8  37024726.179     -713251.1472        717.773          43.250  
C 7  39924749.522    16258947.5292      -1579.873          33.250  
C10  39039496.107    10104005.8912      -1869.570          36.000  
C 3  36425836.901    -4380302.8462        216.543          43.250  
C13  37062439.119    -4924462.1052        682.676          43.750  
C 2  37398138.638    -4957133.1922        268.936          39.250  
C 1  37854336.243    -4009935.5402        234.951          41.250  
C 6  37384764.599    -8480739.8552       1893.369          40.000  
C 4  38803099.320    -3964003.8422        210.137          37.250  
C12  21599690.031   -24722822.1302        833.672          46.500  
G 5  20552756.535   -30594508.524          43.242          47.000  
G15  24474423.698    -8078177.388        5075.303          35.750  
G29  23824034.708   -10477400.689        4400.811          42.500  
C21  21871344.384   -26304264.0672        -71.855          49.750  
G19  23435341.997    -7252053.623       -4088.477          38.500  
C 5  39458284.471    -4708923.6022        258.535          36.000  
G 6  22655392.222   -15462800.599       -1473.994          41.750  
C22  24234263.353   -16106631.1092      -3011.670          45.250  
G 2  21584182.842   -25599837.326         775.566          46.250  
G 9  24788616.465    -8529503.672       -3490.361          36.500  
G30  25726177.885    -1303395.747        2303.457          30.750  
> 2020  6 29  9  2 50.5000000  0 27                     
G25  24025611.697      625783.596        -990.479          36.250  
G17  24811683.188     7223815.995       -4178.262          34.500  
C11  24490310.179    -5272822.5272       3650.771          43.000  
G12  23368325.998   -13715370.089       -2420.098          39.250  
G13  22588174.694   -13768612.537        4350.869          41.250  
C16  37964172.049   -13239077.6762       2102.705          41.500  
C 8  37024671.067     -713538.3062        717.900          43.250  
C 7  39924870.845    16259579.4152      -1579.746          33.250  
C10  39039639.670    10104753.6892      -1869.473          36.000  
C 3  36425820.528    -4380389.4932        216.621          43.250  
C13  37062386.568    -4924735.2402        682.842          43.750  
C 2  37398117.929    -4957240.7782        268.965          39.000  
C 1  37854318.243    -4010029.5342        235.000          41.250  
C 6  37384619.261    -8481497.2322       1893.457          40.000  
C 4  38803083.070    -3964087.8892        210.059          37.250  
C12  21599626.093   -24723155.4992        833.418          46.500  
G 5  20552753.254   -30594525.748          43.086          47.000  
G15  24474037.258    -8080207.577        5075.459          35.750  
G29  23823699.594   -10479160.983        4400.742          42.750  
C21  21871350.291   -26304235.2412        -72.041          49.750  
G19  23435653.353    -7250418.249       -4088.369          38.500  
C 5  39458264.578    -4709027.0222        258.545          36.000  
G 6  22655504.505   -15462210.999       -1474.004          41.500  
C22  24234494.520   -16105426.4402      -3011.650          45.250  
G 2  21584123.721   -25600147.539         775.557          46.250  
G 9  24788882.031    -8528107.560       -3490.273          36.500  
G30  25726003.182    -1304317.082        2303.408          30.750  
> 2020  6 29  9  2 51.0000000  0 27                     
G25  24025687.091      626179.954        -990.908          36.500  
G17  24812001.349     7225487.366       -4178.477          34.250  
C11  24490029.912    -5274282.7632       3650.576          43.000  
G12  23368510.285   -13714401.915       -2420.488          39.250  
G13  22587843.567   -13770352.782        4350.576          41.250  
C16  37964010.512   -13239918.6792       2102.480          41.500  
C 8  37024615.946     -713825.4272        717.793          43.250  
C 7  39924992.071    16260211.3202      -1579.697          33.250  
C10  39039783.302    10105501.5002      -1869.541          36.000  
C 3  36425803.763    -4380476.0902        216.494          43.250  
C13  37062334.099    -4925008.3542        682.764          43.750  
C 2  37398097.207    -4957348.3182        268.818          39.000  
C 1  37854300.029    -4010123.4782        234.834          41.250  
C 6  37384473.708    -8482254.5042       1893.174          40.000  
C 4  38803067.020    -3964171.8672        209.873          37.250  
C12  21599562.033   -24723488.7142        833.027          46.500  
G 5  20552749.987   -30594542.833          42.686          47.000  
G15  24473650.858    -8082237.657        5075.225          35.750  
G29  23823364.607   -10480921.168        4400.430          42.750  
C21  21871355.958   -26304206.2632        -72.471          49.750  
G19  23435964.560    -7248782.768       -4088.750          38.500  
C 5  39458244.737    -4709130.4192        258.496          36.000  
G 6  22655616.806   -15461621.291       -1474.277          41.750  
C22  24234725.762   -16104221.6782      -3011.934          45.250  
G 2  21584065.079   -25600457.655         775.273          46.250  
G 9  24789147.715    -8526711.267       -3490.713          36.500  
G30  25725827.323    -1305238.447        2303.447          30.750  
> 2020  6 29  9  2 51.5000000  0 27                     
G25  24025762.528      626576.355        -991.006          36.500  
G17  24812319.597     7227158.682       -4178.232          34.250  
C11  24489749.526    -5275743.0712       3650.801          43.000  
G12  23368694.743   -13713433.794       -2420.312          39.500  
G13  22587512.524   -13772093.070        4350.742          41.250  
C16  37963848.910   -13240759.7532       2102.695          41.500  
C 8  37024560.791     -714112.6592        718.076          43.250  
C 7  39925113.372    16260843.1252      -1579.531          33.250  
C10  39039926.865    10106249.2342      -1869.326          36.000  
C 3  36425787.037    -4380562.7652        216.670          43.250  
C13  37062281.591    -4925281.5942        683.105          43.750  
C 2  37398076.367    -4957455.9302        269.043          39.000  
C 1  37854282.055    -4010217.5312        235.146          41.250  
C 6  37384328.222    -8483011.8752       1893.438          40.000  
C 4  38803050.887    -3964255.9612        210.264          37.250  
C12  21599497.895   -24723821.9372        833.066          46.500  
G 5  20552746.758   -30594559.917          42.715          47.000  
G15  24473264.336    -8084267.816        5075.400          35.500  
G29  23823029.497   -10482681.422        4400.664          42.750  
C21  21871361.294   -26304177.2742        -72.471          49.750  
G19  23436275.763    -7247147.296       -4088.652          38.500  
C 5  39458224.874    -4709233.9212        258.740          36.000  
G 6  22655728.971   -15461031.634       -1474.141          41.500  
C22  24234957.226   -16103016.9852      -3011.729          45.250  
G 2  21584005.871   -25600767.844         775.469          46.250  
G 9  24789413.525    -8525314.973       -3490.771          36.500  
G30  25725653.781    -1306159.872        2303.525          30.750  
> 2020  6 29  9  2 52.0000000  0 27                     
G25  24025837.865      626972.826        -991.162          36.750  
G17  24812637.623     7228829.997       -4178.359          34.500  
C11  24489469.175    -5277203.3472       3650.674          43.000  
G12  23368879.095   -13712465.557       -2420.605          39.500  
G13  22587181.401   -13773833.290        4350.527          41.250  
C16  37963687.448   -13241600.7992       2102.607          41.500  
C 8  37024505.439     -714399.9122        718.154          43.250  
C 7  39925234.765    16261474.9192      -1579.502          33.250  
C10  39040070.494    10106996.9662      -1869.346          36.000  
C 3  36425770.494    -4380649.4612        216.738          43.250  
C13  37062229.184    -4925554.8482        683.154          43.750  
C 2  37398055.846    -4957563.5592        269.082          39.250  
C 1  37854263.781    -4010311.5922        235.146          41.250  
C 6  37384182.726    -8483769.2142       1893.369          40.000  
C 4  38803034.811    -3964340.0632        210.215          37.000  
C12  21599434.053   -24724155.0442        832.773          46.500  
G 5  20552743.626   -30594576.910          42.490          47.000  
G15  24472878.158    -8086298.006        5075.439          35.250  
G29  23822694.505   -10484441.610        4400.459          42.750  
C21  21871366.620   -26304148.1902        -72.705          49.750  
G19  23436587.013    -7245511.799       -4088.779          38.500  
C 5  39458204.972    -4709337.3882        258.672          35.750  
G 6  22655841.137   -15460441.936       -1474.238          41.750  
C22  24235188.511   -16101812.2502      -3011.836          45.250  
G 2  21583946.911   -25601077.998         775.381          46.250  
G 9  24789679.366    -8523918.610       -3490.908          36.750  
G30  25725478.018    -1307081.335        2303.643          30.750  
> 2020  6 29  9  2 52.5000000  0 27                     
G25  24025913.128      627369.424        -991.543          36.750  
G17  24812955.636     7230501.428       -4178.545          34.500  
C11  24489188.785    -5278663.6242       3650.674          43.000  
G12  23369063.474   -13711497.266       -2420.674          39.500  
G13  22586850.139   -13775573.465        4350.449          41.250  
C16  37963526.011   -13242441.8362       2102.578          41.500  
C 8  37024450.121     -714687.2162        718.242          43.250  
C 7  39925356.061    16262106.6272      -1579.346          33.250  
C10  39040214.013    10107744.6512      -1869.229          36.000  
C 3  36425753.733    -4380736.1552        216.729          43.250  
C13  37062176.794    -4925828.1602        683.281          43.750  
C 2  37398035.023    -4957671.2052        269.102          39.250  
C 1  37854245.746    -4010405.6562        235.156          41.250  
C 6  37384037.453    -8484526.5382       1893.291          40.000  
C 4  38803018.600    -3964424.1272        210.254          37.250  
C12  21599370.081   -24724488.0572        832.520          46.500  
G 5  20552740.267   -30594593.822          42.266          47.000  
G15  24472491.609    -8088328.177        5075.469          35.500  
G29  23822359.596   -10486201.764        4400.361          42.750  
C21  21871372.043   -26304119.0032        -72.969          49.750  
G19  23436898.303    -7243876.223       -4088.906          38.500  
C 5  39458185.040    -4709440.8902        258.779          36.000  
G 6  22655953.486   -15459852.215       -1474.297          41.750  
C22  24235419.979   -16100607.5072      -3011.846          45.250  
G 2  21583887.903   -25601388.134         775.332          46.250  
G 9  24789945.211    -8522522.218       -3491.016          36.750  
G30  25725303.049    -1308002.766        2303.525          31.250  
> 2020  6 29  9  2 53.0000000  0 27                     
G25  24025988.735      627766.175        -991.836          37.000  
G17  24813273.788     7232172.848       -4178.574          34.750  
C11  24488908.395    -5280123.8482       3650.547          43.000  
G12  23369247.923   -13710528.887       -2420.967          39.500  
G13  22586518.895   -13777313.585        4350.273          41.250  
C16  37963364.435   -13243282.8302       2102.490          41.500  
C 8  37024395.035     -714974.5082        718.223          43.250  
C 7  39925477.253    16262738.3472      -1579.219          33.250  
C10  39040357.502    10108492.3832      -1869.316          36.000  
C 3  36425737.369    -4380822.8262        216.689          43.250  
C13  37062124.566    -4926101.4482        683.203          43.750  
C 2  37398014.227    -4957778.8152        269.043          39.000  
C 1  37854227.471    -4010499.6862        235.049          41.250  
C 6  37383892.053    -8485283.8002       1893.164          40.000  
C 4  38803002.432    -3964508.2442        210.234          37.250  
C12  21599306.169   -24724820.9492        832.227          46.500  
G 5  20552737.148   -30594610.606          41.943          47.000  
G15  24472105.227    -8090358.309        5075.332          35.250  
G29  23822024.622   -10487961.852        4400.215          42.750  
C21  21871377.946   -26304089.6892        -73.301          49.750  
G19  23437209.624    -7242240.548       -4089.199          38.500  
C 5  39458165.256    -4709544.3672        258.652          36.000  
G 6  22656065.678   -15459262.399       -1474.551          41.750  
C22  24235651.330   -16099402.6842      -3012.061          45.250  
G 2  21583828.782   -25601698.201         775.176          46.250  
G 9  24790210.908    -8521125.692       -3491.318          36.750  
G30  25725129.245    -1308924.186        2303.555          31.250  
> 2020  6 29  9  2 53.5000000  0 27                     
G25  24026064.373      628163.062        -992.217          37.000  
G17  24813591.919     7233844.363       -4178.750          34.750  
C11  24488628.035    -5281583.9852       3650.342          43.000  
G12  23369432.420   -13709560.398       -2421.230          39.500  
G13  22586187.751   -13779053.565        4349.961          41.250  
C16  37963202.916   -13244123.7452       2102.275          41.500  
C 8  37024339.840     -715261.7402        718.057          43.250  
C 7  39925598.423    16263370.1132      -1579.443          33.000  
C10  39040501.252    10109240.1862      -1869.482          36.000  
C 3  36425720.526    -4380909.4522        216.553          43.250  
C13  37062072.049    -4926374.6962        683.115          43.750  
C 2  37397993.387    -4957886.3622        268.818          39.250  
C 1  37854209.633    -4010593.6702        234.951          41.250  
C 6  37383746.654    -8486040.9882       1892.920          40.000  
C 4  38802986.312    -3964592.2462        209.980          37.250  
C12  21599242.310   -24725153.6722        831.797          46.500  
G 5  20552734.094   -30594627.238          41.572          47.000  
G15  24471718.700    -8092388.387        5075.215          35.500  
G29  23821689.678   -10489721.826        4399.941          42.500  
C21  21871383.887   -26304060.2012        -73.721          49.750  
G19  23437520.923    -7240604.783       -4089.463          38.500  
C 5  39458145.345    -4709647.7752        258.584          35.750  
G 6  22656177.861   -15458672.493       -1474.775          41.750  
C22  24235882.846   -16098197.7832      -3012.266          45.250  
G 2  21583769.726   -25602008.172         774.912          46.250  
G 9  24790476.745    -8519729.038       -3491.592          36.750  
G30  25724953.469    -1309845.536        2303.389          31.500  
> 2020  6 29  9  2 54.0000000  0 27                     
G25  24026139.989      628559.985        -992.363          37.000  
G17  24813910.110     7235515.844       -4178.730          35.000  
C11  24488347.623    -5283044.2002       3650.527          43.000  
G12  23369617.000   -13708591.887       -2421.318          39.750  
G13  22585856.707   -13780793.578        4349.990          41.250  
C16  37963041.458   -13244964.7162       2102.402          41.500  
C 8  37024284.698     -715549.0992        718.408          43.250  
C 7  39925719.610    16264001.7772      -1579.170          33.000  
C10  39040644.929    10109987.8792      -1869.209          36.000  
C 3  36425704.162    -4380996.1552        216.748          43.250  
C13  37062019.459    -4926648.0562        683.379          43.750  
C 2  37397972.800    -4957994.0192        269.160          39.250  
C 1  37854191.450    -4010687.7542        235.215          41.250  
C 6  37383601.433    -8486798.2452       1893.145          40.000  
C 4  38802970.306    -3964676.3782        210.361          37.250  
C12  21599178.421   -24725486.3732        831.758          46.500  
G 5  20552731.092   -30594643.869          41.582          47.000  
G15  24471332.348    -8094418.571        5075.400          35.500  
G29  23821354.547   -10491481.850        4399.990          42.500  
C21  21871389.764   -26304030.7142        -73.730          49.750  
G19  23437832.287    -7238969.033       -4089.336          38.500  
C 5  39458125.364    -4709751.2872        258.721          35.750  
G 6  22656290.114   -15458082.636       -1474.629          41.750  
C22  24236114.293   -16096992.9352      -3012.129          45.250  
G 2  21583710.762   -25602318.205         775.078          46.250  
G 9  24790742.525    -8518332.406       -3491.553          36.750  
G30  25724778.788    -1310766.992        2303.662          31.750  
> 2020  6 29  9  2 54.5000000  0 27                     
G25  24026215.701      628957.012        -992.549          37.000  
G17  24814228.263     7237187.349       -4178.799          34.500  
C11  24488067.076    -5284504.3652       3650.420          43.000  
G12  23369801.558   -13707623.323       -2421.348          40.000  
G13  22585525.376   -13782533.527        4349.893          41.250  
C16  37962879.948   -13245805.6612       2102.363          41.500  
C 8  37024229.533     -715836.4652        718.428          43.250  
C 7  39925841.081    16264633.4422      -1579.209          33.000  
C10  39040788.518    10110735.5862      -1869.375          36.000  
C 3  36425687.457    -4381082.8492        216.758          43.250  
C13  37061967.025    -4926921.4352        683.428          43.750  
C 2  37397952.313    -4958101.6382        269.014          39.000  
C 1  37854173.659    -4010781.8222        235.166          41.250  
C 6  37383456.095    -8487555.4702       1893.076          40.000  
C 4  38802954.278    -3964760.4662        210.195          37.000  
C12  21599114.570   -24725818.9492        831.445          46.500  
G 5  20552728.235   -30594660.389          41.270          47.000  
G15  24470945.908    -8096448.729        5075.400          35.500  
G29  23821019.686   -10493241.810        4399.951          42.500  
C21  21871395.217   -26304001.0932        -74.043          49.750  
G19  23438143.582    -7237333.202       -4089.609          38.500  
C 5  39458105.576    -4709854.8072        258.809          35.750  
G 6  22656402.375   -15457492.694       -1474.873          41.750  
C22  24236345.561   -16095788.0422      -3012.246          45.250  
G 2  21583651.915   -25602628.186         774.951          46.250  
G 9  24791008.174    -8516935.668       -3491.895          37.000  
G30  25724603.688    -1311688.403        2303.447          31.750  
> 2020  6 29  9  2 55.0000000  0 27                     
G25  24026291.182      629354.207        -992.988          37.000  
G17  24814546.336     7238858.930       -4178.916          34.750  
C11  24487786.743    -5285964.4762       3650.293          43.000  
G12  23369986.251   -13706654.646       -2421.709          40.250  
G13  22585194.258   -13784273.396        4349.668          41.250  
C16  37962718.559   -13246646.5572       2102.256          41.500  
C 8  37024174.417     -716123.8182        718.350          43.250  
C 7  39925962.330    16265265.1452      -1579.189          33.000  
C10  39040932.081    10111483.3542      -1869.395          36.000  
C 3  36425670.810    -4381169.5042        216.602          43.250  
C13  37061914.565    -4927194.8012        683.438          43.750  
C 2  37397931.609    -4958209.2352        269.004          39.000  
C 1  37854155.520    -4010875.8562        235.107          41.250  
C 6  37383310.852    -8488312.6192       1892.842          40.000  
C 4  38802937.958    -3964844.5032        210.137          37.250  
C12  21599050.768   -24726151.4062        831.113          46.500  
G 5  20552725.190   -30594676.791          41.016          47.000  
G15  24470559.395    -8098478.824        5075.195          35.250  
G29  23820684.751   -10495001.682        4399.678          42.500  
C21  21871400.818   -26303971.3522        -74.355          49.750  
G19  23438454.845    -7235697.294       -4089.746          38.500  
C 5  39458085.822    -4709958.2352        258.535          36.000  
G 6  22656514.563   -15456902.699       -1474.971          41.750  
C22  24236576.889   -16094583.0722      -3012.422          45.250  
G 2  21583592.885   -25602938.106         774.795          46.250  
G 9  24791274.281    -8515538.811       -3492.139          37.000  
G30  25724428.235    -1312609.823        2303.604          31.750  
> 2020  6 29  9  2 55.5000000  0 27                     
G25  24026366.750      629751.455        -993.145          36.750  
G17  24814864.659     7240530.516       -4178.975          34.500  
C11  24487506.322    -5287424.6292       3650.361          43.000  
G12  23370171.057   -13705685.967       -2421.709          40.250  
G13  22584863.214   -13786013.273        4349.678          41.250  
C16  37962557.066   -13247487.4772       2102.295          41.500  
C 8  37024119.222     -716411.2282        718.516          43.250  
C 7  39926083.578    16265896.7212      -1578.984          32.750  
C10  39041075.652    10112230.9912      -1869.092          36.000  
C 3  36425654.215    -4381256.2282        216.797          43.250  
C13  37061861.970    -4927468.2292        683.545          43.750  
C 2  37397910.974    -4958316.8982        269.150          39.000  
C 1  37854137.371    -4010969.9412        235.166          41.250  
C 6  37383165.287    -8489069.8142       1892.988          40.000  
C 4  38802921.799    -3964928.6472        210.303          37.250  
C12  21598986.988   -24726483.8052        830.996          46.500  
G 5  20552721.796   -30594693.157          40.889          47.000  
G15  24470172.855    -8100508.982        5075.410          35.250  
G29  23820349.837   -10496761.581        4399.736          42.500  
C21  21871406.198   -26303941.5472        -74.521          49.750  
G19  23438766.362    -7234061.373       -4089.805          38.750  
C 5  39458065.981    -4710061.7612        258.809          36.000  
G 6  22656626.903   -15456312.719       -1474.990          41.750  
C22  24236808.349   -16093378.1462      -3012.334          45.250  
G 2  21583533.864   -25603248.051         774.834          46.250  
G 9  24791540.131    -8514141.951       -3492.207          37.000  
G30  25724252.917    -1313531.288        2303.613          31.750  
> 2020  6 29  9  2 56.0000000  0 27                     
G25  24026442.445      630148.849        -993.467          37.000  
G17  24815182.681     7242202.146       -4179.131          34.750  
C11  24487225.971    -5288884.7102       3650.215          43.000  
G12  23370355.646   -13704717.156       -2421.992          40.500  
G13  22584532.074   -13787753.041        4349.434          41.250  
C16  37962395.447   -13248328.3362       2102.129          41.500  
C 8  37024063.909     -716698.6342        718.525          43.250  
C 7  39926204.936    16266528.3202      -1578.926          32.750  
C10  39041219.150    10112978.6872      -1869.268          36.000  
C 3  36425637.480    -4381342.9292        216.768          43.250  
C13  37061809.310    -4927741.6532        683.574          43.750  
C 2  37397890.221    -4958424.5292        269.092          39.250  
C 1  37854119.367    -4011064.0052        235.156          41.250  
C 6  37383019.826    -8489826.9652       1892.861          40.000  
C 4  38802905.605    -3965012.7372        210.244          37.250  
C12  21598923.102   -24726816.0602        830.645          46.500  
G 5  20552718.812   -30594709.393          40.605          47.000  
G15  24469786.459    -8102539.102        5075.312          35.000  
G29  23820015.107   -10498521.396        4399.561          42.500  
C21  21871411.952   -26303911.6032        -74.863          49.750  
G19  23439077.700    -7232425.364       -4090.039          38.750  
C 5  39458046.110    -4710165.2652        258.750          35.750  
G 6  22656739.038   -15455722.635       -1475.186          41.750  
C22  24237039.573   -16092173.1442      -3012.480          45.250  
G 2  21583474.939   -25603557.919         774.688          46.000  
G 9  24791805.832    -8512744.977       -3492.383          36.750  
G30  25724077.616    -1314452.666        2303.506          32.000  
> 2020  6 29  9  2 56.5000000  0 27                     
G25  24026517.882      630546.304        -993.682          36.750  
G17  24815500.846     7243873.738       -4178.877          34.750  
C11  24486945.799    -5290344.8312       3650.273          43.000  
G12  23370540.169   -13703748.351       -2422.070          40.750  
G13  22584201.052   -13789492.816        4349.404          41.000  
C16  37962233.845   -13249169.2432       2102.256          41.500  
C 8  37024008.565     -716986.1182        718.701          43.250  
C 7  39926326.228    16267159.9022      -1579.033          33.250  
C10  39041362.756    10113726.3182      -1869.023          36.000  
C 3  36425621.003    -4381429.6512        216.787          43.250  
C13  37061757.051    -4928015.1552        683.750          43.750  
C 2  37397869.578    -4958532.1972        269.170          39.250  
C 1  37854101.507    -4011158.1282        235.322          41.250  
C 6  37382874.584    -8490584.1312       1892.939          40.000  
C 4  38802889.616    -3965096.9082        210.342          37.250  
C12  21598859.344   -24727148.2782        830.527          46.500  
G 5  20552715.614   -30594725.597          40.488          47.000  
G15  24469400.020    -8104569.302        5075.498          35.250  
G29  23819680.225   -10500281.203        4399.492          42.500  
C21  21871417.863   -26303881.6222        -74.951          49.750  
G19  23439388.943    -7230789.352       -4090.039          38.500  
C 5  39458026.321    -4710268.7772        258.818          35.750  
G 6  22656851.278   -15455132.570       -1475.156          41.500  
C22  24237271.020   -16090968.1672      -3012.461          45.250  
G 2  21583415.914   -25603867.816         774.736          46.250  
G 9  24792071.839    -8511348.001       -3492.432          36.750  
G30  25723902.398    -1315374.180        2303.730          32.000  
> 2020  6 29  9  2 57.0000000  0 27                     
G25  24026593.498      630943.888        -993.906          36.750  
G17  24815818.894     7245545.406       -4179.238          35.000  
C11  24486665.209    -5291804.8862       3650.137          43.000  
G12  23370724.962   -13702779.420       -2422.324          40.750  
G13  22583870.122   -13791232.472        4349.102          41.000  
C16  37962072.308   -13250010.0892       2102.139          41.250  
C 8  37023953.309     -717273.5692        718.623          43.250  
C 7  39926447.481    16267791.4382      -1578.809          33.000  
C10  39041506.328    10114473.9972      -1869.277          36.000  
C 3  36425604.263    -4381516.3722        216.807          43.250  
C13  37061704.617    -4928288.6272        683.662          43.750  
C 2  37397848.877    -4958639.8412        269.082          39.000  
C 1  37854083.359    -4011252.1962        235.176          41.250  
C 6  37382729.075    -8491341.2092       1892.676          40.000  
C 4  38802873.340    -3965180.9842        210.215          37.500  
C12  21598795.528   -24727480.3382        830.137          46.500  
G 5  20552712.617   -30594741.648          40.137          47.000  
G15  24469013.746    -8106599.370        5075.146          35.500  
G29  23819345.564   -10502040.935        4399.307          42.500  
C21  21871423.918   -26303851.4802        -75.361          49.750  
G19  23439700.267    -7229153.221       -4090.342          38.500  
C 5  39458006.428    -4710372.3162        258.857          35.750  
G 6  22656963.457   -15454542.420       -1475.391          41.500  
C22  24237502.497   -16089763.1042      -3012.676          45.250  
G 2  21583356.854   -25604177.623         774.502          46.250  
G 9  24792337.793    -8509950.868       -3492.832          36.750  
G30  25723727.050    -1316295.633        2303.672          32.000  
> 2020  6 29  9  2 57.5000000  0 27                     
G25  24026668.975      631341.573        -994.209          36.750  
G17  24816137.037     7247217.102       -4179.199          35.000  
C11  24486384.766    -5293264.9512       3650.186          43.000  
G12  23370909.690   -13701810.433       -2422.471          41.000  
G13  22583539.026   -13792972.134        4349.189          41.000  
C16  37961910.789   -13250850.9182       2102.041          41.250  
C 8  37023898.092     -717561.0762        718.770          43.250  
C 7  39926568.537    16268422.9022      -1578.701          33.000  
C10  39041649.782    10115221.6262      -1869.053          36.000  
C 3  36425587.612    -4381603.0922        216.777          43.250  
C13  37061652.101    -4928562.1602        683.848          43.750  
C 2  37397828.474    -4958747.5152        269.160          39.250  
C 1  37854065.372    -4011346.3102        235.273          41.250  
C 6  37382583.562    -8492098.3252       1892.783          40.000  
C 4  38802857.251    -3965265.1372        210.439          37.250  
C12  21598731.743   -24727812.3302        829.990          46.500  
G 5  20552709.603   -30594757.641          39.980          47.000  
G15  24468627.429    -8108629.534        5075.449          35.500  
G29  23819010.983   -10503800.624        4399.238          42.500  
C21  21871429.716   -26303821.2662        -75.537          49.750  
G19  23440011.610    -7227517.061       -4090.391          38.250  
C 5  39457986.491    -4710475.8202        258.760          35.750  
G 6  22657075.888   -15453952.245       -1475.439          41.500  
C22  24237734.048   -16088558.0412      -3012.646          45.250  
G 2  21583297.981   -25604487.437         774.541          46.000  
G 9  24792603.656    -8508553.708       -3492.910          36.750  
G30  25723551.776    -1317217.069        2303.535          31.750  
> 2020  6 29  9  2 58.0000000  0 27                     
G25  24026744.718      631739.432        -994.736          36.750  
G17  24816455.299     7248888.858       -4179.424          35.000  
C11  24486104.393    -5294724.9522       3649.951          43.000  
G12  23371094.444   -13700841.372       -2422.666          41.000  
G13  22583208.017   -13794711.671        4348.818          41.000  
C16  37961749.304   -13251691.7072       2101.963          41.500  
C 8  37023842.858     -717848.5632        718.701          43.250  
C 7  39926689.725    16269054.4542      -1578.877          33.000  
C10  39041793.249    10115969.3102      -1869.238          35.750  
C 3  36425570.720    -4381689.7952        216.768          43.250  
C13  37061599.366    -4928835.6692        683.750          43.750  
C 2  37397807.795    -4958855.1602        269.102          39.000  
C 1  37854047.141    -4011440.3842        235.166          41.250  
C 6  37382438.097    -8492855.3682       1892.598          40.000  
C 4  38802841.205    -3965349.2482        210.215          37.250  
C12  21598668.006   -24728144.1852        829.619          46.500  
G 5  20552706.501   -30594773.520          39.658          47.000  
G15  24468241.024    -8110659.665        5075.303          35.500  
G29  23818676.069   -10505560.262        4399.053          42.500  
C21  21871435.374   -26303790.9162        -75.898          49.750  
G19  23440323.170    -7225880.815       -4090.625          38.500  
C 5  39457966.502    -4710579.3092        258.623          35.750  
G 6  22657188.294   -15453361.997       -1475.654          41.500  
C22  24237965.512   -16087352.9092      -3012.842          45.250  
G 2  21583239.078   -25604797.177         774.326          46.250  
G 9  24792869.541    -8507156.438       -3493.232          36.750  
G30  25723376.405    -1318138.510        2303.584          32.000  
> 2020  6 29  9  2 58.5000000  0 27                     
G25  24026820.369      632137.370        -994.805          37.000  
G17  24816773.425     7250560.615       -4179.414          35.000  
C11  24485824.047    -5296184.9332       3649.971          43.000  
G12  23371279.242   -13699872.219       -2422.900          40.750  
G13  22582876.830   -13796451.162        4348.740          41.000  
C16  37961587.903   -13252532.4762       2101.914          41.500  
C 8  37023787.807     -718136.0542        718.721          43.250  
C 7  39926810.825    16269685.9512      -1578.760          33.000  
C10  39041937.013    10116716.9422      -1869.053          35.750  
C 3  36425554.212    -4381776.4782        216.709          43.250  
C13  37061546.946    -4929109.2112        683.848          43.750  
C 2  37397787.047    -4958962.7812        269.053          39.000  
C 1  37854029.180    -4011534.4422        235.127          41.250  
C 6  37382292.758    -8493612.4042       1892.578          40.000  
C 4  38802825.024    -3965433.3222        210.186          37.250  
C12  21598604.217   -24728475.9262        829.355          46.250  
G 5  20552703.281   -30594789.301          39.453          47.000  
G15  24467854.432    -8112689.742        5075.186          35.250  
G29  23818341.243   -10507319.832        4398.926          42.500  
C21  21871440.923   -26303760.4592        -76.143          49.750  
G19  23440634.578    -7224244.495       -4090.801          38.500  
C 5  39457946.626    -4710682.7812        258.721          35.750  
G 6  22657300.564   -15452771.718       -1475.693          41.750  
C22  24238196.907   -16086147.7522      -3012.900          45.250  
G 2  21583180.096   -25605106.892         774.287          46.250  
G 9  24793135.360    -8505759.082       -3493.350          36.750  
G30  25723201.087    -1319059.896        2303.525          32.000  
> 2020  6 29  9  2 59.0000000  0 27                     
G25  24026896.238      632535.488        -995.283          36.750  
G17  24817091.555     7252232.530       -4179.785          35.000  
C11  24485543.679    -5297644.8362       3649.746          43.000  
G12  23371463.931   -13698902.926       -2423.262          41.000  
G13  22582545.821   -13798190.541        4348.428          41.000  
C16  37961426.637   -13253373.1532       2101.699          41.500  
C 8  37023732.577     -718423.5052        718.623          43.250  
C 7  39926932.099    16270317.4732      -1578.809          33.000  
C10  39042080.663    10117464.7032      -1869.395          35.750  
C 3  36425537.647    -4381863.1292        216.602          43.250  
C13  37061494.473    -4929382.7282        683.799          43.750  
C 2  37397766.106    -4959070.3682        268.975          39.000  
C 1  37854011.032    -4011628.4612        235.059          41.250  
C 6  37382147.394    -8494369.3442       1892.373          40.000  
C 4  38802808.870    -3965517.4052        210.234          37.250  
C12  21598540.620   -24728807.5022        828.945          46.250  
G 5  20552700.284   -30594804.928          39.072          47.000  
G15  24467468.071    -8114719.770        5075.059          35.000  
G29  23818006.374   -10509079.306        4398.682          42.500  
C21  21871446.665   -26303729.8422        -76.543          49.750  
G19  23440945.947    -7222608.061       -4091.094          38.500  
C 5  39457926.864    -4710786.2552        258.711          36.000  
G 6  22657413.031   -15452181.322       -1475.996          41.750  
C22  24238428.279   -16084942.4992      -3013.135          45.250  
G 2  21583121.097   -25605416.499         774.014          46.250  
G 9  24793401.332    -8504361.575       -3493.770          36.750  
G30  25723025.896    -1319981.312        2303.398          32.000  
> 2020  6 29  9  2 59.5000000  0 27                     
G25  24026971.854      632933.667        -995.459          37.000  
G17  24817409.813     7253904.378       -4179.629          35.250  
C11  24485263.306    -5299104.7452       3649.785          43.000  
G12  23371648.576   -13697933.613       -2423.252          41.000  
G13  22582214.528   -13799929.901        4348.438          41.000  
C16  37961265.227   -13254213.8712       2101.807          41.250  
C 8  37023677.400     -718711.0402        718.848          43.250  
C 7  39927053.339    16270948.9292      -1578.613          33.000  
C10  39042224.213    10118212.3562      -1869.150          35.750  
C 3  36425521.065    -4381949.8142        216.738          43.250  
C13  37061441.830    -4929656.3082        683.955          43.750  
C 2  37397745.306    -4959177.9952        269.072          39.000  
C 1  37853992.914    -4011722.5232        235.156          41.250  
C 6  37382002.073    -8495126.2992       1892.393          40.000  
C 4  38802792.676    -3965601.4922        210.156          37.250  
C12  21598476.852   -24729139.0142        828.779          46.250  
G 5  20552697.427   -30594820.509          38.945          47.000  
G15  24467081.776    -8116749.843        5075.195          35.250  
G29  23817671.521   -10510838.771        4398.701          42.500  
C21  21871452.903   -26303699.1552        -76.719          49.750  
G19  23441257.473    -7220971.621       -4091.094          38.250  
C 5  39457906.962    -4710889.7502        258.721          35.750  
G 6  22657525.166   -15451590.920       -1475.986          41.750  
C22  24238659.883   -16083737.2572      -3013.105          45.250  
G 2  21583062.311   -25605726.124         774.082          46.250  
G 9  24793667.256    -8502964.065       -3493.809          36.750  
G30  25722850.552    -1320902.685        2303.613          32.000  
> 2020  6 29  9  3  0.0000000  0 27                     
G25  24027047.658      633331.940        -995.703          37.000  
G17  24817728.004     7255576.288       -4179.756          35.250  
C11  24484982.986    -5300564.6652       3649.785          43.000  
G12  23371833.330   -13696964.275       -2423.369          41.000  
G13  22581883.664   -13801669.244        4348.320          41.000  
C16  37961103.873   -13255054.5692       2101.699          41.250  
C 8  37023622.104     -718998.6082        718.896          43.250  
C 7  39927174.592    16271580.3152      -1578.535          32.750  
C10  39042367.937    10118959.9992      -1869.121          36.000  
C 3  36425504.474    -4382036.5222        216.748          43.250  
C13  37061389.213    -4929929.9252        684.004          43.750  
C 2  37397724.789    -4959285.6412        269.062          39.250  
C 1  37853974.884    -4011816.6152        235.215          41.250  
C 6  37381856.778    -8495883.2762       1892.402          40.000  
C 4  38802776.679    -3965685.6052        210.293          37.250  
C12  21598413.207   -24729470.4582        828.574          46.250  
G 5  20552694.713   -30594836.022          38.760          47.000  
G15  24466695.493    -8118779.943        5075.225          35.250  
G29  23817336.748   -10512598.203        4398.545          42.500  
C21  21871459.072   -26303668.3922        -76.934          49.750  
G19  23441568.859    -7219335.137       -4091.230          38.250  
C 5  39457887.090    -4710993.2632        258.779          36.000  
G 6  22657637.742   -15451000.504       -1476.074          41.750  
C22  24238891.203   -16082532.0082      -3013.135          45.250  
G 2  21583003.421   -25606035.743         774.023          46.250  
G 9  24793933.001    -8501566.487       -3493.955          36.500  
G30  25722675.264    -1321824.113        2303.506          32.000  
> 2020  6 29  9  3  0.5000000  0 27                     
G25  24027123.640      633730.279        -995.840          37.250  
G17  24818046.222     7257248.129       -4179.648          35.000  
C11  24484702.482    -5302024.6102       3649.873          43.000  
G12  23372017.822   -13695994.876       -2423.477          41.000  
G13  22581552.690   -13803408.575        4348.330          41.000  
C16  37960942.328   -13255895.3122       2101.865          41.250  
C 8  37023566.857     -719286.2592        719.131          43.250  
C 7  39927295.762    16272211.6892      -1578.398          32.750  
C10  39042511.461    10119707.5592      -1868.877          36.000  
C 3  36425487.665    -4382123.2942        216.914          43.250  
C13  37061336.597    -4930203.6352        684.297          43.750  
C 2  37397704.180    -4959393.3492        269.307          39.000  
C 1  37853956.884    -4011910.7552        235.371          41.250  
C 6  37381711.391    -8496640.2692       1892.510          40.000  
C 4  38802760.459    -3965769.7722        210.430          37.250  
C12  21598349.570   -24729801.8482        828.477          46.250  
G 5  20552691.891   -30594851.487          38.672          47.000  
G15  24466309.233    -8120810.068        5075.312          35.000  
G29  23817001.922   -10514357.665        4398.672          42.500  
C21  21871465.297   -26303637.5822        -77.012          49.750  
G19  23441880.070    -7217698.638       -4091.230          38.250  
C 5  39457867.162    -4711096.8102        258.848          35.750  
G 6  22657750.086   -15450410.087       -1476.045          41.750  
C22  24239122.536   -16081326.7762      -3013.076          45.250  
G 2  21582944.514   -25606345.384         774.102          46.250  
G 9  24794198.846    -8500168.897       -3493.965          36.500  
G30  25722499.815    -1322745.612        2303.691          32.000  
> 2020  6 29  9  3  1.0000000  0 27                     
G25  24027199.562      634128.597        -995.791          37.250  
G17  24818364.169     7258919.921       -4179.395          34.750  
C11  24484422.118    -5303484.6422       3650.059          43.000  
G12  23372202.424   -13695025.543       -2423.340          41.000  
G13  22581221.567   -13805147.968        4348.477          41.250  
C16  37960780.835   -13256736.1432       2102.080          41.250  
C 8  37023511.592     -719574.0222        719.414          43.250  
C 7  39927416.875    16272842.9092      -1578.057          32.750  
C10  39042654.984    10120455.0312      -1868.691          36.250  
C 3  36425471.118    -4382210.1592        217.178          43.250  
C13  37061284.098    -4930477.4522        684.541          44.000  
C 2  37397683.558    -4959501.1612        269.512          39.250  
C 1  37853938.740    -4012005.0092        235.635          41.250  
C 6  37381565.944    -8497397.3542       1892.695          40.000  
C 4  38802744.234    -3965854.0782        210.771          37.250  
C12  21598286.025   -24730133.2372        828.467          46.500  
G 5  20552689.003   -30594866.974          38.701          47.000  
G15  24465922.898    -8122840.280        5075.566          35.000  
G29  23816666.895   -10516117.166        4398.750          42.500  
C21  21871471.125   -26303606.7802        -77.012          49.750  
G19  23442191.352    -7216062.205       -4091.113          38.250  
C 5  39457847.369    -4711200.4992        259.238          35.750  
G 6  22657862.365   -15449819.744       -1475.840          41.750  
C22  24239353.856   -16080121.6212      -3012.881          45.250  
G 2  21582885.493   -25606655.095         774.287          46.250  
G 9  24794464.853    -8498771.331       -3493.936          36.500  
G30  25722324.563    -1323667.188        2303.965          31.750  
> 2020  6 29  9  3  1.5000000  0 27                     
G25  24027275.645      634527.031        -996.064          37.250  
G17  24818682.239     7260591.713       -4179.521          34.750  
C11  24484141.911    -5304944.6282       3649.971          43.000  
G12  23372387.034   -13694056.131       -2423.535          41.000  
G13  22580890.724   -13806887.282        4348.281          41.250  
C16  37960619.298   -13257576.9322       2101.982          41.250  
C 8  37023456.371     -719861.7982        719.424          43.250  
C 7  39927538.067    16273474.1092      -1577.939          32.750  
C10  39042798.517    10121202.5102      -1868.691          36.250  
C 3  36425454.445    -4382297.0172        217.139          43.250  
C13  37061231.485    -4930751.2982        684.609          43.750  
C 2  37397662.915    -4959608.9472        269.463          39.000  
C 1  37853920.753    -4012099.2652        235.625          41.250  
C 6  37381420.671    -8498154.3962       1892.617          40.000  
C 4  38802728.075    -3965938.3512        210.654          37.250  
C12  21598222.380   -24730464.5132        828.203          46.500  
G 5  20552686.045   -30594882.353          38.467          47.000  
G15  24465536.729    -8124870.490        5075.469          35.000  
G29  23816332.160   -10517876.618        4398.623          42.250  
C21  21871476.605   -26303575.8522        -77.314          49.750  
G19  23442502.668    -7214425.694       -4091.289          38.250  
C 5  39457827.306    -4711304.1552        259.131          36.000  
G 6  22657974.662   -15449229.342       -1476.006          41.750  
C22  24239585.294   -16078916.4242      -3012.998          45.250  
G 2  21582826.633   -25606964.761         774.150          46.250  
G 9  24794730.820    -8497373.688       -3494.131          36.750  
G30  25722149.245    -1324588.829        2304.150          31.750  
> 2020  6 29  9  3  2.0000000  0 27                     
G25  24027351.518      634925.668        -996.641          37.000  
G17  24819000.321     7262263.637       -4179.863          34.500  
C11  24483861.556    -5306404.5082       3649.668          43.000  
G12  23372571.483   -13693086.576       -2423.916          41.000  
G13  22580560.021   -13808626.473        4348.008          41.250  
C16  37960457.910   -13258417.6282       2101.719          41.500  
C 8  37023401.027     -720149.5172        719.316          43.250  
C 7  39927659.115    16274105.3082      -1578.076          32.750  
C10  39042941.992    10121950.0252      -1868.838          36.250  
C 3  36425438.020    -4382383.8192        217.002          43.250  
C13  37061178.847    -4931025.0862        684.443          44.000  
C 2  37397642.184    -4959716.6972        269.375          39.000  
C 1  37853902.618    -4012193.4222        235.381          41.250  
C 6  37381275.193    -8498911.3212       1892.275          40.000  
C 4  38802711.751    -3966022.5322        210.479          37.250  
C12  21598158.853   -24730795.6022        827.725          46.250  
G 5  20552683.139   -30594897.584          38.066          47.000  
G15  24465150.085    -8126900.637        5075.410          34.750  
G29  23815997.395   -10519635.947        4398.320          42.250  
C21  21871482.250   -26303544.7542        -77.764          49.750  
G19  23442813.857    -7212789.044       -4091.602          38.250  
C 5  39457807.487    -4711407.7352        258.955          36.000  
G 6  22658087.041   -15448638.819       -1476.328          41.750  
C22  24239816.719   -16077711.1232      -3013.281          45.250  
G 2  21582767.647   -25607274.318         773.896          46.250  
G 9  24794996.923    -8495975.871       -3494.551          36.750  
G30  25721973.953    -1325510.306        2303.633          32.000  
> 2020  6 29  9  3  2.5000000  0 27                     
G25  24027427.357      635324.421        -996.846          37.250  
G17  24819318.448     7263935.614       -4179.941          34.500  
C11  24483581.205    -5307864.3862       3649.717          43.000  
G12  23372756.193   -13692116.932       -2424.082          41.000  
G13  22580229.034   -13810365.594        4347.773          41.250  
C16  37960296.456   -13259258.3062       2101.689          41.500  
C 8  37023345.780     -720437.2642        719.336          43.250  
C 7  39927780.250    16274736.5792      -1578.164          32.750  
C10  39043085.577    10122697.5922      -1868.877          36.250  
C 3  36425421.276    -4382470.6012        216.953          43.250  
C13  37061126.169    -4931298.8872        684.502          44.000  
C 2  37397621.562    -4959824.4252        269.326          39.000  
C 1  37853884.518    -4012287.5782        235.410          41.000  
C 6  37381129.998    -8499668.2362       1892.295          40.000  
C 4  38802695.566    -3966106.7452        210.566          37.250  
C12  21598095.316   -24731126.5862        827.451          46.250  
G 5  20552680.173   -30594912.692          37.764          47.000  
G15  24464763.510    -8128930.800        5075.352          34.500  
G29  23815662.644   -10521395.228        4398.203          42.250  
C21  21871488.401   -26303513.5402        -78.037          49.750  
G19  23443125.340    -7211152.332       -4091.797          38.000  
C 5  39457787.528    -4711511.3612        259.053          35.750  
G 6  22658199.591   -15448048.244       -1476.416          41.750  
C22  24240048.043   -16076505.7782      -3013.350          45.250  
G 2  21582708.857   -25607583.847         773.828          46.250  
G 9  24795262.882    -8494577.983       -3494.697          36.750  
G30  25721798.670    -1326431.788        2303.701          32.000  
> 2020  6 29  9  3  3.0000000  0 27                     
G25  24027503.492      635723.337        -997.334          37.250  
G17  24819636.709     7265607.652       -4180.068          34.500  
C11  24483300.776    -5309324.2072       3649.531          43.000  
G12  23372940.738   -13691147.187       -2424.395          41.000  
G13  22579898.099   -13812104.649        4347.637          41.250  
C16  37960134.998   -13260098.9152       2101.523          41.250  
C 8  37023290.454     -720725.0002        719.355          43.250  
C 7  39927901.468    16275367.8252      -1578.125          32.750  
C10  39043229.014    10123445.1512      -1868.906          36.250  
C 3  36425404.690    -4382557.3632        216.914          43.250  
C13  37061073.648    -4931572.6802        684.473          44.000  
C 2  37397601.019    -4959932.1302        269.238          39.000  
C 1  37853866.278    -4012381.7192        235.342          41.000  
C 6  37380984.681    -8500425.1022       1892.158          40.000  
C 4  38802679.429    -3966190.9062        210.342          37.250  
C12  21598031.715   -24731457.4482        827.148          46.250  
G 5  20552677.267   -30594927.688          37.500          47.000  
G15  24464377.267    -8130960.873        5075.176          34.750  
G29  23815328.075   -10523154.417        4397.969          42.250  
C21  21871494.640   -26303482.1942        -78.359          49.750  
G19  23443436.590    -7209515.521       -4092.021          38.250  
C 5  39457767.583    -4711614.8952        258.789          35.750  
G 6  22658312.040   -15447457.595       -1476.650          41.750  
C22  24240279.621   -16075300.3672      -3013.535          45.250  
G 2  21582649.893   -25607893.295         773.613          46.250  
G 9  24795528.937    -8493179.988       -3495.049          36.750  
G30  25721623.461    -1327353.285        2303.779          32.000  
> 2020  6 29  9  3  3.5000000  0 27                     
G25  24027579.340      636122.298        -997.354          37.000  
G17  24819954.962     7267279.702       -4180.098          34.500  
C11  24483020.547    -5310784.0042       3649.492          43.000  
G12  23373125.305   -13690177.387       -2424.463          40.750  
G13  22579567.082   -13813843.635        4347.461          41.250  
C16  37959973.697   -13260939.5322       2101.553          41.250  
C 8  37023235.215     -721012.7442        719.355          43.250  
C 7  39928022.646    16275999.0082      -1577.891          32.750  
C10  39043372.686    10124192.6802      -1868.857          36.250  
C 3  36425387.772    -4382644.1362        216.895          43.250  
C13  37061021.058    -4931846.5202        684.600          44.000  
C 2  37397580.323    -4960039.8262        269.238          39.000  
C 1  37853848.204    -4012475.8802        235.400          41.250  
C 6  37380839.317    -8501181.9782       1892.188          40.000  
C 4  38802663.187    -3966275.1012        210.479          37.250  
C12  21597968.270   -24731788.1952        826.846          46.250  
G 5  20552674.279   -30594942.604          37.275          47.000  
G15  24463991.089    -8132990.961        5075.195          35.000  
G29  23814993.201   -10524913.581        4397.910          42.250  
C21  21871500.970   -26303450.7492        -78.623          49.750  
G19  23443748.242    -7207878.690       -4092.100          38.250  
C 5  39457747.611    -4711718.4792        259.014          36.000  
G 6  22658424.341   -15446866.912       -1476.729          41.750  
C22  24240511.229   -16074094.9442      -3013.545          45.250  
G 2  21582590.981   -25608202.733         773.574          46.250  
G 9  24795794.887    -8491781.936       -3495.049          36.750  
G30  25721448.230    -1328274.772        2303.633          32.000  
> 2020  6 29  9  3  4.0000000  0 27                     
G25  24027655.427      636521.396        -997.803          37.250  
G17  24820273.057     7268951.759       -4180.186          34.500  
C11  24482740.358    -5312243.7792       3649.434          43.000  
G12  23373309.937   -13689207.535       -2424.668          40.750  
G13  22579236.173   -13815582.564        4347.295          41.250  
C16  37959812.225   -13261780.1202       2101.455          41.250  
C 8  37023179.798     -721300.5372        719.463          43.250  
C 7  39928143.755    16276630.1272      -1577.812          32.750  
C10  39043516.113    10124940.2312      -1868.867          36.250  
C 3  36425371.120    -4382730.9172        216.953          43.250  
C13  37060968.497    -4932120.3662        684.609          44.000  
C 2  37397559.609    -4960147.5352        269.268          39.000  
C 1  37853830.099    -4012570.0492        235.400          41.250  
C 6  37380693.956    -8501938.7882       1891.992          40.000  
C 4  38802646.845    -3966359.2812        210.498          37.250  
C12  21597904.782   -24732118.8572        826.670          46.250  
G 5  20552671.330   -30594957.428          37.061          47.000  
G15  24463604.597    -8135021.070        5075.303          35.250  
G29  23814658.309   -10526672.705        4397.793          42.250  
C21  21871506.986   -26303419.2062        -78.857          49.750  
G19  23444059.847    -7206241.771       -4092.266          38.250  
C 5  39457727.704    -4711822.0552        258.887          35.750  
G 6  22658536.655   -15446276.188       -1476.777          41.750  
C22  24240742.828   -16072889.4952      -3013.643          45.250  
G 2  21582532.261   -25608512.132         773.506          46.250  
G 9  24796060.872    -8490383.818       -3495.273          36.750  
G30  25721272.895    -1329196.300        2303.848          32.250  
> 2020  6 29  9  3  4.5000000  0 27                     
G25  24027731.501      636920.543        -997.900          37.250  
G17  24820591.236     7270623.811       -4180.195          34.500  
C11  24482459.894    -5313703.6212       3649.619          43.000  
G12  23373494.538   -13688237.673       -2424.658          40.750  
G13  22578905.273   -13817321.535        4347.432          41.250  
C16  37959650.889   -13262620.7672       2101.621          41.250  
C 8  37023124.612     -721588.4042        719.668          43.250  
C 7  39928265.030    16277261.2422      -1577.832          32.750  
C10  39043659.515    10125687.6862      -1868.613          36.000  
C 3  36425354.433    -4382817.7742        217.129          43.250  
C13  37060916.060    -4932394.3302        684.912          44.000  
C 2  37397538.926    -4960255.3212        269.453          39.000  
C 1  37853812.016    -4012664.2692        235.557          41.250  
C 6  37380548.692    -8502695.6712       1892.207          40.000  
C 4  38802630.878    -3966443.5402        210.557          37.250  
C12  21597841.176   -24732449.4892        826.562          46.250  
G 5  20552668.555   -30594972.235          37.002          47.000  
G15  24463218.280    -8137051.219        5075.400          35.000  
G29  23814323.431   -10528431.846        4397.842          42.250  
C21  21871513.028   -26303387.6432        -78.906          49.750  
G19  23444371.281    -7204604.886       -4092.256          38.250  
C 5  39457707.750    -4711925.7082        259.150          36.000  
G 6  22658649.078   -15445685.493       -1476.748          41.750  
C22  24240974.331   -16071684.0712      -3013.545          45.250  
G 2  21582473.410   -25608821.590         773.643          46.250  
G 9  24796326.800    -8488985.698       -3495.352          36.750  
G30  25721097.324    -1330117.835        2303.848          32.250  
> 2020  6 29  9  3  5.0000000  0 27                     
G25  24027807.471      637319.726        -997.959          37.500  
G17  24820909.218     7272295.853       -4180.029          34.500  
C11  24482179.534    -5315163.4702       3649.590          43.000  
G12  23373679.026   -13687267.781       -2424.766          40.750  
G13  22578574.343   -13819060.495        4347.383          41.250  
C16  37959489.414   -13263461.4252       2101.611          41.500  
C 8  37023069.412     -721876.3302        719.775          43.250  
C 7  39928386.169    16277892.2462      -1577.549          32.750  
C10  39043803.056    10126435.0992      -1868.555          36.250  
C 3  36425337.489    -4382904.6602        217.207          43.250  
C13  37060863.661    -4932668.3292        684.980          44.000  
C 2  37397518.056    -4960363.1582        269.609          39.000  
C 1  37853793.964    -4012758.5602        235.703          41.250  
C 6  37380403.258    -8503452.5602       1892.227          40.000  
C 4  38802614.819    -3966527.8492        210.840          37.250  
C12  21597777.587   -24732780.0502        826.396          46.500  
G 5  20552665.706   -30594986.990          36.875          47.000  
G15  24462831.867    -8139081.449        5075.576          35.000  
G29  23813988.788   -10530190.991        4397.842          42.250  
C21  21871518.769   -26303356.0042        -79.111          49.750  
G19  23444682.793    -7202967.953       -4092.314          38.250  
C 5  39457687.914    -4712029.4152        259.238          36.000  
G 6  22658761.562   -15445094.801       -1476.758          41.750  
C22  24241205.861   -16070478.6692      -3013.535          45.250  
G 2  21582414.529   -25609131.029         773.594          46.250  
G 9  24796592.737    -8487587.481       -3495.518          36.500  
G30  25720922.006    -1331039.436        2304.033          32.000  
> 2020  6 29  9  3  5.5000000  0 27                     
G25  24027883.685      637719.027        -998.262          37.250  
G17  24821227.353     7273967.911       -4180.234          34.500  
C11  24481899.218    -5316623.3002       3649.600          43.000  
G12  23373863.637   -13686297.821       -2424.854          40.500  
G13  22578243.592   -13820799.372        4347.188          41.250  
C16  37959327.842   -13264302.0892       2101.689          41.250  
C 8  37023014.165     -722164.2832        719.883          43.250  
C 7  39928507.326    16278523.2032      -1577.393          32.750  
C10  39043946.479    10127182.5452      -1868.652          36.250  
C 3  36425320.863    -4382991.5642        217.266          43.250  
C13  37060810.983    -4932942.3702        685.107          44.000  
C 2  37397497.364    -4960471.0192        269.619          39.000  
C 1  37853775.833    -4012852.8512        235.732          41.250  
C 6  37380257.941    -8504209.4322       1892.188          40.250  
C 4  38802598.503    -3966612.1632        210.732          37.250  
C12  21597714.112   -24733110.5062        826.123          46.250  
G 5  20552662.605   -30595001.664          36.680          47.000  
G15  24462445.436    -8141111.657        5075.479          35.000  
G29  23813653.897   -10531950.089        4397.764          42.000  
C21  21871524.837   -26303324.2792        -79.326          49.750  
G19  23444994.293    -7201331.009       -4092.363          38.250  
C 5  39457667.959    -4712133.1272        259.268          36.250  
G 6  22658874.111   -15444504.059       -1476.855          41.750  
C22  24241437.194   -16069273.2392      -3013.555          45.250  
G 2  21582355.643   -25609440.463         773.564          46.250  
G 9  24796858.909    -8486189.260       -3495.615          36.500  
G30  25720746.636    -1331961.039        2303.916          32.000  
> 2020  6 29  9  3  6.0000000  0 27                     
G25  24027959.851      638118.495        -998.672          37.250  
G17  24821545.523     7275639.990       -4180.195          34.250  
C11  24481618.915    -5318083.0892       3649.434          43.000  
G12  23374048.037   -13685327.785       -2425.137          40.500  
G13  22577912.705   -13822538.196        4347.051          41.250  
C16  37959166.380   -13265142.6772       2101.445          41.250  
C 8  37022958.747     -722452.2402        719.883          43.250  
C 7  39928628.461    16279154.2322      -1577.549          32.750  
C10  39044090.099    10127929.9312      -1868.486          36.000  
C 3  36425303.980    -4383078.4382        217.178          43.000  
C13  37060758.275    -4933216.4032        685.068          44.000  
C 2  37397476.581    -4960578.8422        269.561          39.250  
C 1  37853757.825    -4012947.1192        235.654          41.000  
C 6  37380112.725    -8504966.2672       1892.061          40.250  
C 4  38802582.383    -3966696.4422        210.703          37.500  
C12  21597650.750   -24733440.8442        825.840          46.250  
G 5  20552660.048   -30595016.228          36.406          47.000  
G15  24462059.132    -8143141.822        5075.400          35.250  
G29  23813319.193   -10533709.131        4397.588          42.000  
C21  21871531.137   -26303292.4242        -79.639          49.750  
G19  23445305.731    -7199693.968       -4092.627          38.250  
C 5  39457648.044    -4712236.7852        259.189          36.000  
G 6  22658986.539   -15443913.242       -1477.051          41.750  
C22  24241668.789   -16068067.7522      -3013.760          45.250  
G 2  21582296.875   -25609749.834         773.428          46.250  
G 9  24797124.903    -8484790.954       -3495.742          36.500  
G30  25720571.152    -1332882.682        2304.014          32.000  
> 2020  6 29  9  3  6.5000000  0 27                     
G25  24028035.951      638518.059        -998.867          37.500  
G17  24821863.662     7277312.157       -4180.391          34.250  
C11  24481338.617    -5319542.8432       3649.404          43.000  
G12  23374232.368   -13684357.651       -2425.312          40.500  
G13  22577582.037   -13824276.966        4346.924          41.250  
C16  37959005.083   -13265983.2552       2101.426          41.250  
C 8  37022903.496     -722740.2112        719.941          43.250  
C 7  39928749.444    16279785.1982      -1577.432          32.750  
C10  39044233.610    10128677.3502      -1868.516          36.000  
C 3  36425287.459    -4383165.3042        217.158          43.000  
C13  37060705.715    -4933490.4652        685.146          44.000  
C 2  37397456.012    -4960686.6602        269.561          39.250  
C 1  37853739.576    -4013041.3812        235.645          41.000  
C 6  37379967.342    -8505723.0652       1891.973          40.250  
C 4  38802566.181    -3966780.7182        210.654          37.500  
C12  21597587.393   -24733771.0772        825.576          46.250  
G 5  20552657.313   -30595030.685          36.133          47.000  
G15  24461672.675    -8145171.992        5075.449          35.500  
G29  23812984.550   -10535468.102        4397.412          42.000  
C21  21871537.593   -26303260.4532        -79.941          49.750  
G19  23445617.283    -7198056.842       -4092.812          38.500  
C 5  39457628.147    -4712340.4682        259.160          36.000  
G 6  22659098.835   -15443322.386       -1477.148          41.750  
C22  24241900.249   -16066862.2302      -3013.799          45.250  
G 2  21582238.024   -25610059.156         773.291          46.250  
G 9  24797390.840    -8483392.516       -3496.123          36.750  
G30  25720395.638    -1333804.267        2304.062          32.250  
> 2020  6 29  9  3  7.0000000  0 27                     
G25  24028112.060      638917.716        -999.209          37.500  
G17  24822181.662     7278984.333       -4180.361          34.250  
C11  24481058.227    -5321002.5882       3649.365          43.000  
G12  23374416.900   -13683387.472       -2425.479          40.250  
G13  22577251.089   -13826015.685        4346.797          41.250  
C16  37958843.891   -13266823.8252       2101.436          41.250  
C 8  37022848.078     -723028.1992        719.971          43.250  
C 7  39928870.548    16280416.1752      -1577.451          33.000  
C10  39044377.273    10129424.7482      -1868.496          36.000  
C 3  36425270.685    -4383252.2082        217.256          43.000  
C13  37060652.963    -4933764.5622        685.244          44.000  
C 2  37397435.154    -4960794.4782        269.521          39.000  
C 1  37853721.458    -4013135.6602        235.664          41.000  
C 6  37379821.886    -8506479.8732       1892.041          40.250  
C 4  38802549.909    -3966865.0412        210.811          37.250  
C12  21597523.979   -24734101.2252        825.371          46.250  
G 5  20552654.547   -30595045.059          35.938          47.000  
G15  24461286.258    -8147202.114        5075.205          35.250  
G29  23812649.920   -10537227.052        4397.383          42.000  
C21  21871543.714   -26303228.3942        -80.137          49.750  
G19  23445928.948    -7196419.694       -4092.871          38.500  
C 5  39457608.319    -4712444.1712        259.248          36.250  
G 6  22659211.381   -15442731.505       -1477.207          41.750  
C22  24242131.660   -16065656.6852      -3013.857          45.250  
G 2  21582179.099   -25610368.484         773.311          46.250  
G 9  24797656.964    -8481994.053       -3496.143          36.500  
G30  25720220.259    -1334725.838        2303.945          32.250  
> 2020  6 29  9  3  7.5000000  0 27                     
G25  24028188.296      639317.460        -999.326          37.500  
G17  24822499.823     7280656.553       -4180.645          34.250  
C11  24480777.946    -5322462.3182       3649.297          43.000  
G12  23374601.262   -13682417.206       -2425.674          40.250  
G13  22576920.163   -13827754.341        4346.621          41.250  
C16  37958682.298   -13267664.3682       2101.367          41.250  
C 8  37022792.730     -723316.2292        720.039          43.250  
C 7  39928991.762    16281047.0752      -1577.207          32.750  
C10  39044520.744    10130172.1372      -1868.477          36.250  
C 3  36425254.339    -4383339.0972        217.227          43.000  
C13  37060600.154    -4934038.7012        685.322          44.000  
C 2  37397414.498    -4960902.3202        269.629          39.000  
C 1  37853703.354    -4013229.9352        235.732          41.250  
C 6  37379676.548    -8507236.6462       1891.924          40.250  
C 4  38802533.724    -3966949.3542        210.762          37.250  
C12  21597460.700   -24734431.2672        825.088          46.250  
G 5  20552651.969   -30595059.346          35.713          47.000  
G15  24460900.036    -8149232.329        5075.605          35.000  
G29  23812315.199   -10538985.967        4397.295          41.750  
C21  21871549.595   -26303196.2332        -80.420          49.750  
G19  23446240.557    -7194782.481       -4093.076          38.250  
C 5  39457588.321    -4712547.8552        259.229          36.000  
G 6  22659323.764   -15442140.571       -1477.334          41.750  
C22  24242363.190   -16064451.1012      -3013.965          45.250  
G 2  21582119.947   -25610677.752         773.174          46.250  
G 9  24797923.154    -8480595.422       -3496.572          36.500  
G30  25720044.770    -1335647.405        2303.896          32.250  
> 2020  6 29  9  3  8.0000000  0 27                     
G25  24028264.557      639717.383        -999.814          37.750  
G17  24822818.089     7282328.844       -4180.732          34.250  
C11  24480497.425    -5323921.9742       3649.121          43.000  
G12  23374785.737   -13681446.857       -2425.840          40.250  
G13  22576589.355   -13829492.888        4346.387          41.500  
C16  37958520.661   -13268504.8432       2101.211          41.250  
C 8  37022737.492     -723604.2202        719.980          43.250  
C 7  39929112.936    16281678.0142      -1577.402          32.750  
C10  39044664.250    10130919.5622      -1868.584          36.000  
C 3  36425237.538    -4383425.9442        217.109          43.000  
C13  37060547.389    -4934312.7982        685.244          44.000  
C 2  37397393.806    -4961010.1202        269.463          39.000  
C 1  37853685.411    -4013324.1762        235.576          41.000  
C 6  37379531.174    -8507993.3482       1891.748          40.250  
C 4  38802517.604    -3967033.5952        210.615          37.250  
C12  21597397.334   -24734761.1422        824.707          46.250  
G 5  20552649.408   -30595073.485          35.352          47.000  
G15  24460513.627    -8151262.402        5075.176          35.000  
G29  23811980.477   -10540744.763        4396.973          41.750  
C21  21871555.449   -26303163.9172        -80.791          49.750  
G19  23446552.209    -7193145.151       -4093.301          38.250  
C 5  39457568.332    -4712651.5222        259.209          36.000  
G 6  22659436.331   -15441549.539       -1477.568          41.750  
C22  24242594.575   -16063245.4482      -3014.131          45.250  
G 2  21582061.123   -25610986.951         772.988          46.250  
G 9  24798189.279    -8479196.787       -3496.611          36.500  
G30  25719869.282    -1336568.940        2303.848          32.250  
> 2020  6 29  9  3  8.5000000  0 27                     
G25  24028340.780      640117.482       -1000.283          37.750  
G17  24823136.298     7284001.151       -4180.752          34.250  
C11  24480217.091    -5325381.5752       3649.014          43.000  
G12  23374970.377   -13680476.379       -2426.230          40.250  
G13  22576258.730   -13831231.376        4346.182          41.500  
C16  37958359.312   -13269345.2952       2101.084          41.250  
C 8  37022682.196     -723892.2122        719.980          43.000  
C 7  39929234.014    16282308.9392      -1577.285          33.000  
C10  39044807.778    10131667.0252      -1868.652          36.000  
C 3  36425220.930    -4383512.7562        217.031          43.000  
C13  37060494.781    -4934586.9082        685.254          44.000  
C 2  37397373.097    -4961117.8892        269.443          39.000  
C 1  37853667.271    -4013418.3882        235.518          41.000  
C 6  37379385.962    -8508749.9912       1891.602          40.000  
C 4  38802501.554    -3967117.8472        210.635          37.500  
C12  21597334.046   -24735090.8952        824.346          46.250  
G 5  20552646.729   -30595087.514          35.049          47.000  
G15  24460127.341    -8153292.519        5075.312          35.000  
G29  23811645.817   -10542503.508        4396.846          42.000  
C21  21871561.771   -26303131.4772        -81.123          49.750  
G19  23446863.813    -7191507.743       -4093.564          38.250  
C 5  39457548.552    -4712755.1142        258.936          36.250  
G 6  22659549.016   -15440958.446       -1477.764          41.750  
C22  24242826.414   -16062039.7382      -3014.287          45.250  
G 2  21582002.276   -25611296.084         772.822          46.250  
G 9  24798455.338    -8477797.996       -3496.982          36.500  
G30  25719694.030    -1337490.497        2303.906          32.250  
> 2020  6 29  9  3  9.0000000  0 27                     
G25  24028417.011      640517.613       -1000.312          37.750  
G17  24823454.603     7285673.530       -4180.957          34.250  
C11  24479936.762    -5326841.1622       3648.965          43.000  
G12  23375154.870   -13679505.854       -2426.318          40.250  
G13  22575927.874   -13832969.772        4346.025          41.500  
C16  37958197.958   -13270185.6862       2100.957          41.250  
C 8  37022626.901     -724180.2282        720.039          43.250  
C 7  39929355.088    16282939.8632      -1577.305          33.000  
C10  39044951.429    10132414.4762      -1868.623          36.000  
C 3  36425204.256    -4383599.5792        217.051          43.000  
C13  37060442.147    -4934861.0342        685.322          44.000  
C 2  37397352.567    -4961225.6502        269.385          39.000  
C 1  37853649.206    -4013512.6002        235.518          41.000  
C 6  37379240.689    -8509506.6242       1891.562          40.250  
C 4  38802485.465    -3967202.0732        210.547          37.500  
C12  21597270.741   -24735420.5402        824.131          46.250  
G 5  20552643.802   -30595101.445          34.824          47.000  
G15  24459741.010    -8155322.575        5075.137          35.250  
G29  23811311.061   -10544262.190        4396.709          41.750  
C21  21871568.293   -26303098.9262        -81.377          50.000  
G19  23447175.443    -7189870.270       -4093.672          38.250  
C 5  39457528.615    -4712858.7602        259.111          36.000  
G 6  22659661.417   -15440367.313       -1477.842          41.750  
C22  24243057.988   -16060833.9942      -3014.365          45.250  
G 2  21581943.504   -25611605.201         772.803          46.250  
G 9  24798721.628    -8476399.133       -3497.217          36.500  
G30  25719518.481    -1338411.981        2303.691          32.000  
> 2020  6 29  9  3  9.5000000  0 27                     
G25  24028493.312      640918.014       -1000.977          37.500  
G17  24823772.965     7287346.061       -4181.328          34.500  
C11  24479656.512    -5328300.6192       3648.652          43.000  
G12  23375339.646   -13678535.114       -2426.865          40.250  
G13  22575597.336   -13834708.026        4345.635          41.500  
C16  37958036.705   -13271025.9622       2100.723          41.250  
C 8  37022571.640     -724468.1372        719.756          43.250  
C 7  39929476.328    16283570.8942      -1577.607          33.000  
C10  39045094.917    10133162.0212      -1868.887          36.250  
C 3  36425187.570    -4383686.2892        216.787          43.250  
C13  37060389.582    -4935135.0552        685.049          44.000  
C 2  37397331.949    -4961333.3002        269.121          39.000  
C 1  37853631.053    -4013606.6982        235.264          41.000  
C 6  37379095.460    -8510263.1202       1891.250          40.000  
C 4  38802469.306    -3967286.1952        210.312          37.250  
C12  21597207.571   -24735749.9752        823.574          46.250  
G 5  20552641.102   -30595115.175          34.326          47.000  
G15  24459354.767    -8157352.523        5074.854          35.000  
G29  23810976.470   -10546020.712        4396.299          41.750  
C21  21871574.806   -26303066.1572        -81.924          50.000  
G19  23447487.087    -7188232.623       -4094.111          38.250  
C 5  39457508.892    -4712962.3032        258.828          36.000  
G 6  22659774.106   -15439775.991       -1478.291          41.750  
C22  24243289.652   -16059628.1022      -3014.717          45.250  
G 2  21581884.627   -25611914.147         772.373          46.250  
G 9  24798987.840    -8475000.079       -3497.588          36.500  
G30  25719343.093    -1339333.369        2303.506          32.000  
> 2020  6 29  9  3 10.0000000  0 27                     
G25  24028569.413      641318.472       -1001.162          37.750  
G17  24824091.339     7289018.565       -4181.279          34.750  
C11  24479376.109    -5329760.0962       3648.682          43.000  
G12  23375524.335   -13677564.384       -2426.797          40.250  
G13  22575266.423   -13836446.257        4345.557          41.500  
C16  37957875.339   -13271866.2802       2100.791          41.250  
C 8  37022516.476     -724756.1332        720.010          43.250  
C 7  39929597.659    16284201.8252      -1577.314          33.250  
C10  39045238.537    10133909.5122      -1868.682          36.250  
C 3  36425170.879    -4383773.0692        216.934          43.250  
C13  37060337.105    -4935409.1632        685.283          44.000  
C 2  37397311.271    -4961441.0092        269.297          39.000  
C 1  37853613.093    -4013700.8582        235.420          41.000  
C 6  37378950.209    -8511019.6452       1891.328          40.000  
C 4  38802453.208    -3967370.3862        210.459          37.500  
C12  21597144.258   -24736079.3552        823.457          46.500  
G 5  20552638.515   -30595128.866          34.229          47.000  
G15  24458968.424    -8159382.555        5075.039          35.000  
G29  23810641.753   -10547779.236        4396.338          42.000  
C21  21871581.023   -26303033.3432        -82.031          50.000  
G19  23447798.704    -7186594.979       -4094.082          38.250  
C 5  39457488.872    -4713065.8682        258.945          36.000  
G 6  22659886.769   -15439184.723       -1478.164          41.750  
C22  24243521.151   -16058422.2402      -3014.648          45.250  
G 2  21581825.946   -25612223.126         772.432          46.250  
G 9  24799254.004    -8473601.028       -3497.656          36.250  
G30  25719167.596    -1340254.887        2303.789          32.250  
> 2020  6 29  9  3 10.5000000  0 27                     
G25  24028645.801      641718.999       -1001.328          37.750  
G17  24824409.562     7290691.063       -4181.279          34.750  
C11  24479095.915    -5331219.5752       3648.711          43.000  
G12  23375708.975   -13676593.598       -2427.002          40.250  
G13  22574935.707   -13838184.472        4345.537          41.500  
C16  37957713.928   -13272706.5762       2100.742          41.250  
C 8  37022461.119     -725044.1662        720.068          43.250  
C 7  39929718.786    16284832.7372      -1577.324          33.250  
C10  39045382.026    10134656.9562      -1868.652          36.250  
C 3  36425154.017    -4383859.8512        216.943          43.250  
C13  37060284.397    -4935683.3092        685.342          44.000  
C 2  37397290.510    -4961548.7532        269.336          39.000  
C 1  37853594.940    -4013795.0352        235.430          41.250  
C 6  37378804.905    -8511776.1652       1891.289          40.250  
C 4  38802437.128    -3967454.5712        210.449          37.250  
C12  21597081.092   -24736408.6472        823.232          46.250  
G 5  20552635.941   -30595142.483          34.043          47.000  
G15  24458582.071    -8161412.545        5074.961          35.000  
G29  23810307.154   -10549537.750        4396.260          42.000  
C21  21871587.252   -26303000.4482        -82.246          50.000  
G19  23448110.260    -7184957.287       -4094.258          38.250  
C 5  39457468.909    -4713169.4472        258.916          36.000  
G 6  22659999.267   -15438593.406       -1478.311          42.000  
C22  24243752.563   -16057216.3652      -3014.717          45.250  
G 2  21581767.134   -25612532.088         772.412          46.250  
G 9  24799520.347    -8472201.898       -3497.812          36.250  
G30  25718992.278    -1341176.344        2303.633          32.000  
> 2020  6 29  9  3 11.0000000  0 27                     
G25  24028722.185      642119.632       -1001.602          37.750  
G17  24824727.788     7292363.568       -4181.201          34.500  
C11  24478815.773    -5332679.0482       3648.672          43.000  
G12  23375893.751   -13675622.764       -2427.031          40.250  
G13  22574604.951   -13839922.641        4345.420          41.500  
C16  37957552.636   -13273546.8792       2100.732          41.250  
C 8  37022405.863     -725332.2252        720.137          43.250  
C 7  39929839.890    16285463.5682      -1577.061          33.250  
C10  39045525.558    10135404.4172      -1868.682          36.250  
C 3  36425137.492    -4383946.6622        217.012          43.250  
C13  37060231.679    -4935957.5052        685.488          43.750  
C 2  37397269.687    -4961656.4852        269.297          39.000  
C 1  37853576.905    -4013889.2412        235.498          41.250  
C 6  37378659.675    -8512532.6782       1891.250          40.250  
C 4  38802420.659    -3967538.8112        210.596          37.250  
C12  21597017.617   -24736737.8582        823.008          46.500  
G 5  20552633.253   -30595156.022          33.828          47.000  
G15  24458195.802    -8163442.590        5075.176          35.500  
G29  23809972.472   -10551296.226        4396.182          42.000  
C21  21871593.312   -26302967.4612        -82.490          50.000  
G19  23448421.943    -7183319.539       -4094.395          38.250  
C 5  39457448.920    -4713273.0642        259.072          36.000  
G 6  22660111.711   -15438002.065       -1478.350          42.000  
C22  24243984.254   -16056010.4682      -3014.746          45.250  
G 2  21581708.227   -25612841.038         772.354          46.250  
G 9  24799786.602    -8470802.727       -3497.969          36.500  
G30  25718817.008    -1342097.861        2303.730          32.000  
> 2020  6 29  9  3 11.5000000  0 27                     
G25  24028798.438      642520.389       -1001.885          37.750  
G17  24825046.006     7294036.144       -4181.494          34.500  
C11  24478535.501    -5334138.4932       3648.604          43.000  
G12  23376078.606   -13674651.851       -2427.305          40.250  
G13  22574274.165   -13841660.743        4345.244          41.250  
C16  37957391.204   -13274387.1572       2100.693          41.250  
C 8  37022350.616     -725620.3072        720.195          43.250  
C 7  39929960.977    16286094.4382      -1577.148          33.500  
C10  39045669.160    10136151.8742      -1868.613          36.250  
C 3  36425120.626    -4384033.4752        217.041          43.250  
C13  37060179.080    -4936231.7152        685.518          44.000  
C 2  37397248.982    -4961764.2502        269.414          39.000  
C 1  37853558.801    -4013983.4442        235.498          41.250  
C 6  37378514.402    -8513289.1692       1891.250          40.250  
C 4  38802404.544    -3967623.0422        210.586          37.250  
C12  21596954.430   -24737066.9602        822.744          46.250  
G 5  20552630.767   -30595169.478          33.623          47.000  
G15  24457809.472    -8165472.614        5075.020          35.250  
G29  23809637.877   -10553054.668        4396.113          42.000  
C21  21871600.017   -26302934.3602        -82.764          50.000  
G19  23448733.848    -7181681.747       -4094.443          38.250  
C 5  39457429.088    -4713376.6662        259.033          36.000  
G 6  22660224.244   -15437410.664       -1478.506          42.000  
C22  24244215.783   -16054804.5482      -3014.814          45.000  
G 2  21581649.695   -25613149.951         772.285          46.250  
G 9  24800052.849    -8469403.419       -3498.242          36.500  
G30  25718641.620    -1343019.299        2303.633          32.000  
> 2020  6 29  9  3 12.0000000  0 27                     
G25  24028874.687      642921.083       -1001.758          37.750  
G17  24825364.202     7295708.560       -4180.967          34.250  
C11  24478255.251    -5335598.0572       3648.926          43.000  
G12  23376263.194   -13673681.014       -2427.090          40.250  
G13  22573943.274   -13843398.959        4345.527          41.250  
C16  37957229.733   -13275227.5522       2100.996          41.500  
C 8  37022295.338     -725908.5522        720.635          43.250  
C 7  39930082.200    16286725.0562      -1576.484          33.500  
C10  39045812.863    10136899.1642      -1868.203          36.250  
C 3  36425104.162    -4384120.4232        217.373          43.250  
C13  37060126.380    -4936506.1062        685.996          44.000  
C 2  37397228.382    -4961872.1262        269.688          39.000  
C 1  37853540.570    -4014077.7902        235.879          41.250  
C 6  37378369.265    -8514045.7822       1891.514          40.250  
C 4  38802388.459    -3967707.3922        210.928          37.250  
C12  21596891.295   -24737396.0922        822.832          46.250  
G 5  20552628.167   -30595182.971          33.760          47.000  
G15  24457423.089    -8167502.729        5075.234          35.500  
G29  23809303.330   -10554813.171        4396.260          42.000  
C21  21871606.583   -26302901.3072        -82.598          50.000  
G19  23449045.396    -7180044.047       -4094.258          38.250  
C 5  39457409.186    -4713480.4192        259.365          36.250  
G 6  22660336.732   -15436819.386       -1478.193          42.000  
C22  24244447.374   -16053598.7192      -3014.551          45.250  
G 2  21581590.944   -25613458.976         772.559          46.250  
G 9  24800319.418    -8468004.244       -3497.939          36.500  
G30  25718466.089    -1343940.970        2304.209          32.250  
> 2020  6 29  9  3 12.5000000  0 27                     
G25  24028951.062      643322.141       -1002.676          37.750  
G17  24825682.328     7297381.274       -4181.836          34.250  
C11  24477974.878    -5337057.3772       3648.262          43.000  
G12  23376448.119   -13672709.883       -2427.852          40.250  
G13  22573612.644   -13845136.888        4344.805          41.250  
C16  37957068.314   -13276067.7342       2100.420          41.500  
C 8  37022239.964     -726196.6192        720.127          43.250  
C 7  39930203.178    16287355.9062      -1577.246          33.500  
C10  39045956.339    10137646.6442      -1868.740          36.250  
C 3  36425087.362    -4384207.1612        216.826          43.250  
C13  37060073.563    -4936780.2892        685.420          44.000  
C 2  37397207.556    -4961979.7992        269.170          39.000  
C 1  37853522.718    -4014171.9302        235.312          41.250  
C 6  37378224.074    -8514802.1482       1890.898          40.250  
C 4  38802372.235    -3967791.5822        210.391          37.250  
C12  21596828.138   -24737724.9142        822.031          46.250  
G 5  20552625.654   -30595196.167          32.959          47.000  
G15  24457036.872    -8169532.702        5075.010          35.500  
G29  23808968.622   -10556571.440        4395.645          42.000  
C21  21871613.262   -26302867.9362        -83.457          50.000  
G19  23449357.301    -7178406.055       -4095.010          38.500  
C 5  39457389.410    -4713583.9812        258.857          36.000  
G 6  22660449.282   -15436227.839       -1478.896          42.000  
C22  24244678.973   -16052392.6592      -3015.195          45.000  
G 2  21581532.220   -25613767.748         771.914          46.250  
G 9  24800585.617    -8466604.774       -3498.730          36.500  
G30  25718290.557    -1344862.391        2303.643          32.000  
> 2020  6 29  9  3 13.0000000  0 27                     
G25  24029027.398      643723.214       -1002.646          37.750  
G17  24826000.611     7299053.940       -4181.650          34.000  
C11  24477694.662    -5338516.7482       3648.438          43.000  
G12  23376632.724   -13671738.770       -2427.783          40.250  
G13  22573281.984   -13846874.831        4344.893          41.250  
C16  37956906.943   -13276907.9562       2100.537          41.250  
C 8  37022184.752     -726484.7602        720.371          43.250  
C 7  39930324.313    16287986.6932      -1576.973          33.500  
C10  39046099.989    10138394.1002      -1868.682          36.250  
C 3  36425070.710    -4384293.9592        216.982          43.250  
C13  37060020.916    -4937054.5672        685.703          44.000  
C 2  37397186.737    -4962087.5512        269.385          39.000  
C 1  37853504.705    -4014266.1282        235.488          41.250  
C 6  37378078.758    -8515558.5672       1891.045          40.250  
C 4  38802356.211    -3967875.7852        210.498          37.500  
C12  21596765.043   -24738053.7052        821.973          46.250  
G 5  20552623.211   -30595209.348          32.949          47.000  
G15  24456650.699    -8171562.710        5074.951          35.500  
G29  23808633.984   -10558329.719        4395.703          42.000  
C21  21871619.570   -26302834.5272        -83.535          50.000  
G19  23449669.114    -7176768.078       -4094.980          38.250  
C 5  39457369.486    -4713687.5942        259.053          36.000  
G 6  22660561.809   -15435636.310       -1478.828          42.000  
C22  24244910.559   -16051186.6312      -3015.049          45.000  
G 2  21581473.465   -25614076.561         772.041          46.250  
G 9  24800851.947    -8465205.283       -3498.662          36.250  
G30  25718115.042    -1345783.891        2303.584          31.750  
> 2020  6 29  9  3 13.5000000  0 27                     
G25  24029103.878      644124.413       -1003.018          37.750  
G17  24826318.890     7300726.623       -4181.729          33.750  
C11  24477414.508    -5339976.0782       3648.340          43.000  
G12  23376817.500   -13670767.573       -2428.057          40.250  
G13  22572951.176   -13848612.699        4344.639          41.250  
C16  37956745.620   -13277748.1192       2100.439          41.250  
C 8  37022129.094     -726772.9232        720.410          43.250  
C 7  39930445.613    16288617.4392      -1576.797          33.750  
C10  39046243.709    10139141.5302      -1868.535          36.250  
C 3  36425053.892    -4384380.7682        217.041          43.250  
C13  37059968.290    -4937328.8432        685.674          43.750  
C 2  37397166.033    -4962195.2922        269.326          39.250  
C 1  37853486.552    -4014360.3192        235.479          41.250  
C 6  37377933.515    -8516314.9402       1890.938          40.250  
C 4  38802340.044    -3967960.0282        210.635          37.250  
C12  21596701.930   -24738382.3752        821.680          46.500  
G 5  20552620.873   -30595222.423          32.705          47.000  
G15  24456264.399    -8173592.702        5074.961          35.500  
G29  23808299.358   -10560087.939        4395.547          41.750  
C21  21871625.769   -26302801.0062        -83.799          50.000  
G19  23449980.784    -7175130.040       -4095.039          38.250  
C 5  39457349.750    -4713791.1922        258.955          36.000  
G 6  22660674.442   -15435044.718       -1478.975          42.000  
C22  24245142.071   -16049980.5642      -3015.176          45.000  
G 2  21581414.557   -25614385.322         771.885          46.250  
G 9  24801118.298    -8463805.671       -3499.082          36.500  
G30  25717939.384    -1346705.381        2303.779          31.750  
> 2020  6 29  9  3 14.0000000  0 27                     
G25  24029180.157      644525.764       -1003.398          37.750  
G17  24826637.169     7302399.433       -4182.012          34.000  
C11  24477134.214    -5341435.3292       3648.096          43.000  
G12  23377002.032   -13669796.229       -2428.340          40.000  
G13  22572620.211   -13850350.465        4344.395          41.250  
C16  37956584.480   -13278588.2112       2100.195          41.500  
C 8  37022073.690     -727061.0572        720.293          43.250  
C 7  39930566.783    16289248.2232      -1577.012          33.750  
C10  39046387.211    10139889.0112      -1868.730          36.250  
C 3  36425037.315    -4384467.5202        216.855          43.250  
C13  37059915.525    -4937603.1002        685.635          43.750  
C 2  37397145.267    -4962302.9852        269.229          39.250  
C 1  37853468.448    -4014454.4852        235.400          41.250  
C 6  37377788.220    -8517071.2582       1890.781          40.250  
C 4  38802323.832    -3968044.1892        210.361          37.500  
C12  21596638.895   -24738710.8942        821.289          46.250  
G 5  20552618.447   -30595235.348          32.285          47.000  
G15  24455878.195    -8175622.618        5074.824          35.500  
G29  23807964.794   -10561846.060        4395.293          41.750  
C21  21871632.078   -26302767.3292        -84.209          50.000  
G19  23450292.502    -7173491.881       -4095.400          38.250  
C 5  39457329.826    -4713894.7792        258.994          36.000  
G 6  22660786.969   -15434453.033       -1479.229          42.000  
C22  24245373.649   -16048774.4062      -3015.420          45.000  
G 2  21581355.763   -25614694.001         771.680          46.250  
G 9  24801384.549    -8462405.967       -3499.219          36.500  
G30  25717764.010    -1347626.784        2303.467          31.750  
> 2020  6 29  9  3 14.5000000  0 27                     
G25  24029256.563      644927.223       -1003.633          38.000  
G17  24826955.492     7304072.202       -4181.973          34.000  
C11  24476853.898    -5342894.6142       3648.242          43.000  
G12  23377186.843   -13668824.879       -2428.350          40.000  
G13  22572289.534   -13852088.234        4344.463          41.250  
C16  37956423.210   -13279428.3492       2100.352          41.500  
C 8  37022018.255     -727349.2262        720.449          43.250  
C 7  39930687.949    16289878.9602      -1576.865          33.750  
C10  39046530.817    10140636.4502      -1868.555          36.250  
C 3  36425020.785    -4384554.3122        216.973          43.250  
C13  37059862.743    -4937877.4362        685.859          44.000  
C 2  37397124.479    -4962410.7132        269.336          39.250  
C 1  37853450.374    -4014548.6792        235.518          41.250  
C 6  37377642.987    -8517827.5842       1890.830          40.250  
C 4  38802307.682    -3968128.4102        210.605          37.500  
C12  21596575.769   -24739039.3402        821.133          46.250  
G 5  20552616.187   -30595248.226          32.217          47.000  
G15  24455491.808    -8177652.608        5074.951          35.500  
G29  23807630.208   -10563604.186        4395.312          41.750  
C21  21871638.704   -26302733.5942        -84.336          50.000  
G19  23450604.219    -7171853.706       -4095.449          38.250  
C 5  39457309.807    -4713998.3692        258.975          36.000  
G 6  22660899.480   -15433861.352       -1479.209          42.000  
C22  24245605.340   -16047568.2592      -3015.352          45.000  
G 2  21581297.139   -25615002.689         771.719          46.250  
G 9  24801650.909    -8461006.199       -3499.453          36.500  
G30  25717588.600    -1348548.256        2303.672          31.750  
> 2020  6 29  9  3 15.0000000  0 27                     
G25  24029333.082      645328.832       -1004.043          37.750  
G17  24827273.858     7305745.081       -4182.168          34.000  
C11  24476573.787    -5344353.8002       3647.939          43.000  
G12  23377371.837   -13667853.369       -2428.789          40.000  
G13  22571958.865   -13853825.843        4344.014          41.250  
C16  37956261.800   -13280268.3872       2100.127          41.250  
C 8  37021962.999     -727637.3462        720.293          43.250  
C 7  39930809.158    16290509.7242      -1576.914          34.000  
C10  39046674.590    10141383.9642      -1868.877          36.250  
C 3  36425003.989    -4384641.0252        216.787          43.250  
C13  37059810.095    -4938151.7182        685.693          43.750  
C 2  37397103.958    -4962518.3972        269.209          39.250  
C 1  37853432.287    -4014642.8112        235.303          41.250  
C 6  37377497.727    -8518583.8122       1890.566          40.250  
C 4  38802291.632    -3968212.5352        210.254          37.500  
C12  21596512.765   -24739367.6262        820.693          46.250  
G 5  20552613.762   -30595260.943          31.787          47.000  
G15  24455105.478    -8179682.478        5074.678          35.750  
G29  23807295.700   -10565362.179        4394.971          41.750  
C21  21871645.418   -26302699.6812        -84.785          50.000  
G19  23450915.906    -7170215.387       -4095.811          38.000  
C 5  39457290.140    -4714101.9152        258.887          36.250  
G 6  22661012.138   -15433269.548       -1479.502          42.000  
C22  24245836.900   -16046362.0062      -3015.625          45.000  
G 2  21581238.380   -25615311.264         771.455          46.250  
G 9  24801917.326    -8459606.321       -3499.707          36.500  
G30  25717413.003    -1349469.697        2303.613          31.750  
> 2020  6 29  9  3 15.5000000  0 27                     
G25  24029409.510      645730.581       -1004.365          37.500  
G17  24827592.036     7307418.026       -4182.363          34.000  
C11  24476293.798    -5345812.9412       3647.842          43.000  
G12  23377556.508   -13666881.770       -2428.994          40.000  
G13  22571628.157   -13855563.391        4343.867          41.250  
C16  37956100.573   -13281108.3682       2099.941          41.250  
C 8  37021907.516     -727925.4642        720.293          43.250  
C 7  39930930.241    16291140.5052      -1576.943          34.000  
C10  39046818.305    10142131.4872      -1868.770          36.250  
C 3  36424987.481    -4384727.7142        216.738          43.250  
C13  37059757.509    -4938425.9822        685.664          44.000  
C 2  37397083.615    -4962626.0322        269.082          39.250  
C 1  37853414.287    -4014736.8872        235.195          41.250  
C 6  37377352.554    -8519339.9852       1890.410          40.250  
C 4  38802275.299    -3968296.6512        210.342          37.500  
C12  21596449.761   -24739695.7622        820.332          46.250  
G 5  20552611.192   -30595273.539          31.475          47.000  
G15  24454719.313    -8181712.321        5074.600          35.500  
G29  23806961.210   -10567120.089        4394.766          41.750  
C21  21871652.324   -26302665.6252        -85.146          50.000  
G19  23451227.633    -7168576.988       -4096.016          38.250  
C 5  39457270.256    -4714205.4022        258.691          36.000  
G 6  22661124.950   -15432677.671       -1479.707          42.000  
C22  24246068.669   -16045155.7002      -3015.781          45.000  
G 2  21581179.725   -25615619.789         771.299          46.250  
G 9  24802183.878    -8458206.345       -3499.951          36.500  
G30  25717237.078    -1350390.983        2303.184          31.500  
> 2020  6 29  9  3 16.0000000  0 27                     
G25  24029485.937      646132.324       -1004.355          37.500  
G17  24827910.250     7309090.859       -4182.080          34.000  
C11  24476013.561    -5347272.1752       3648.105          43.000  
G12  23377741.485   -13665910.242       -2428.809          40.000  
G13  22571297.698   -13857301.002        4344.004          41.250  
C16  37955939.241   -13281948.4832       2100.254          41.500  
C 8  37021852.299     -728213.7342        720.684          43.250  
C 7  39931051.446    16291771.1102      -1576.553          34.000  
C10  39046961.733    10142878.8672      -1868.428          36.250  
C 3  36424970.607    -4384814.5552        217.100          43.000  
C13  37059704.927    -4938700.4232        686.084          43.750  
C 2  37397062.998    -4962733.8092        269.424          39.250  
C 1  37853396.221    -4014831.1192        235.566          41.000  
C 6  37377207.442    -8520096.2882       1890.752          40.250  
C 4  38802259.101    -3968380.9052        210.586          37.500  
C12  21596386.779   -24740023.9352        820.439          46.250  
G 5  20552608.788   -30595286.173          31.572          47.000  
G15  24454333.109    -8183742.307        5074.961          35.500  
G29  23806626.733   -10568878.106        4395.039          41.750  
C21  21871658.724   -26302631.6112        -85.039          50.000  
G19  23451539.477    -7166938.664       -4095.791          38.250  
C 5  39457250.384    -4714309.0482        259.072          36.000  
G 6  22661237.508   -15432085.897       -1479.434          42.000  
C22  24246300.360   -16043949.5012      -3015.508          45.000  
G 2  21581120.831   -25615928.413         771.572          46.250  
G 9  24802450.147    -8456806.412       -3499.814          36.500  
G30  25717058.641    -1351312.546        2303.926          31.500  
> 2020  6 29  9  3 16.5000000  0 27                     
G25  24029562.526      646534.142       -1004.541          37.750  
G17  24828228.376     7310763.721       -4182.168          34.000  
C11  24475733.249    -5348731.4232       3648.096          43.000  
G12  23377926.331   -13664938.660       -2428.975          40.000  
G13  22570967.239   -13859038.574        4343.945          41.250  
C16  37955778.075   -13282788.5642       2100.215          41.500  
C 8  37021796.942     -728502.0292        720.723          43.000  
C 7  39931172.507    16292401.6922      -1576.357          34.000  
C10  39047105.226    10143626.2282      -1868.408          36.500  
C 3  36424953.999    -4384901.4122        217.119          43.250  
C13  37059652.302    -4938974.8972        686.162          44.000  
C 2  37397042.333    -4962841.5992        269.482          39.250  
C 1  37853378.095    -4014925.3872        235.645          41.250  
C 6  37377062.156    -8520852.5782       1890.723          40.250  
C 4  38802243.025    -3968465.1822        210.693          37.500  
C12  21596323.818   -24740352.0342        820.234          46.500  
G 5  20552606.450   -30595298.739          31.416          47.250  
G15  24453947.010    -8185772.313        5075.088          35.750  
G29  23806292.108   -10570636.096        4394.951          41.750  
C21  21871664.897   -26302597.5122        -85.254          50.000  
G19  23451851.312    -7165300.298       -4095.947          38.250  
C 5  39457230.269    -4714412.7042        259.131          36.000  
G 6  22661350.293   -15431494.079       -1479.531          42.000  
C22  24246532.016   -16042743.2772      -3015.576          45.000  
G 2  21581062.250   -25616237.022         771.514          46.250  
G 9  24802716.398    -8455406.377       -3500.117          36.250  
G30  25716884.314    -1352233.991        2303.604          31.250  
> 2020  6 29  9  3 17.0000000  0 27                     
G25  24029639.046      646936.051       -1004.775          37.750  
G17  24828546.712     7312436.557       -4182.100          33.750  
C11  24475452.999    -5350190.6562       3648.066          43.000  
G12  23378111.120   -13663967.045       -2429.033          40.000  
G13  22570636.680   -13860776.150        4343.867          41.250  
C16  37955616.766   -13283628.6672       2100.225          41.250  
C 8  37021741.581     -728790.3862        720.869          43.000  
C 7  39931293.546    16293032.2282      -1576.406          34.000  
C10  39047248.828    10144373.5672      -1868.340          36.500  
C 3  36424937.142    -4384988.2942        217.188          43.250  
C13  37059599.388    -4939249.4192        686.289          44.000  
C 2  37397021.453    -4962949.4312        269.551          39.250  
C 1  37853359.838    -4015019.6692        235.703          41.250  
C 6  37376916.935    -8521608.8632       1890.684          40.500  
C 4  38802226.722    -3968549.5162        210.879          37.500  
C12  21596261.045   -24740680.0522        820.029          46.500  
G 5  20552604.024   -30595311.243          31.250          47.250  
G15  24453560.758    -8187802.339        5075.000          35.750  
G29  23805957.722   -10572394.058        4394.902          41.750  
C21  21871671.284   -26302563.3372        -85.449          50.000  
G19  23452163.126    -7163661.907       -4095.986          38.250  
C 5  39457210.310    -4714516.4062        259.248          36.000  
G 6  22661462.947   -15430902.257       -1479.600          42.000  
C22  24246763.681   -16041537.0622      -3015.547          45.000  
G 2  21581003.469   -25616545.628         771.494          46.250  
G 9  24802982.771    -8454006.352       -3500.088          36.250  
G30  25716708.354    -1353155.593        2303.984          31.500  
> 2020  6 29  9  3 17.5000000  0 27                     
G25  24029715.473      647338.107       -1005.137          37.500  
G17  24828865.165     7314109.535       -4182.412          33.750  
C11  24475172.766    -5351649.8002       3647.871          43.000  
G12  23378295.761   -13662995.257       -2429.463          40.000  
G13  22570305.959   -13862513.564        4343.564          41.250  
C16  37955455.438   -13284468.6712       2100.039          41.250  
C 8  37021686.260     -729078.6842        720.762          43.000  
C 7  39931414.807    16293662.7772      -1576.367          34.250  
C10  39047392.500    10145120.9352      -1868.457          36.500  
C 3  36424920.629    -4385075.1022        217.021          43.250  
C13  37059546.706    -4939523.8812        686.182          44.000  
C 2  37397000.626    -4963057.1562        269.355          39.250  
C 1  37853341.676    -4015113.8802        235.518          41.250  
C 6  37376771.680    -8522365.0652       1890.527          40.250  
C 4  38802210.663    -3968633.7262        210.459          37.500  
C12  21596197.941   -24741007.8812        819.580          46.250  
G 5  20552601.738   -30595323.578          30.850          47.250  
G15  24453174.751    -8189832.271        5074.863          35.750  
G29  23805623.215   -10574151.899        4394.629          41.500  
C21  21871678.203   -26302528.9822        -85.869          50.000  
G19  23452474.843    -7162023.382       -4096.260          38.250  
C 5  39457190.421    -4714620.0002        258.975          36.000  
G 6  22661575.479   -15430310.316       -1479.824          42.000  
C22  24246995.381   -16040330.7352      -3015.801          45.000  
G 2  21580944.810   -25616854.118         771.221          46.250  
G 9  24803249.157    -8452606.156       -3500.449          36.500  
G30  25716534.136    -1354077.011        2303.545          31.500  
> 2020  6 29  9  3 18.0000000  0 27                     
G25  24029791.897      647740.370       -1005.684          37.750  
G17  24829183.378     7315782.572       -4182.627          34.000  
C11  24474892.546    -5353108.8712       3647.686          43.000  
G12  23378480.602   -13662023.368       -2429.727          40.000  
G13  22569975.330   -13864250.876        4343.271          41.250  
C16  37955294.386   -13285308.5942       2099.805          41.500  
C 8  37021630.860     -729366.9462        720.645          43.000  
C 7  39931535.903    16294293.3872      -1576.533          34.250  
C10  39047536.102    10145868.3882      -1868.652          36.500  
C 3  36424903.991    -4385161.8552        216.885          43.250  
C13  37059493.963    -4939798.3202        686.084          44.000  
C 2  37396979.996    -4963164.8662        269.277          39.250  
C 1  37853323.550    -4015208.0432        235.430          41.250  
C 6  37376626.612    -8523121.1782       1890.283          40.250  
C 4  38802194.587    -3968717.8942        210.449          37.250  
C12  21596135.050   -24741335.5472        819.160          46.500  
G 5  20552599.330   -30595335.751          30.420          47.250  
G15  24452788.289    -8191862.157        5074.688          35.750  
G29  23805288.598   -10575909.620        4394.277          41.500  
C21  21871685.030   -26302494.4672        -86.289          50.000  
G19  23452786.500    -7160384.722       -4096.660          38.250  
C 5  39457170.659    -4714723.5562        258.926          36.000  
G 6  22661688.064   -15429718.256       -1480.156          42.000  
C22  24247227.111   -16039124.3052      -3016.074          45.000  
G 2  21580886.230   -25617162.517         770.996          46.250  
G 9  24803515.683    -8451205.839       -3500.811          36.500  
G30  25716356.793    -1354998.458        2303.613          31.500  
> 2020  6 29  9  3 18.5000000  0 27                     
G25  24029868.503      648142.725       -1005.879          37.750  
G17  24829501.749     7317455.636       -4182.656          34.000  
C11  24474612.400    -5354567.9482       3647.676          43.000  
G12  23378665.452   -13661051.443       -2429.814          39.750  
G13  22569644.910   -13865988.165        4343.242          41.250  
C16  37955133.063   -13286148.5412       2099.854          41.500  
C 8  37021575.451     -729655.2682        720.801          43.000  
C 7  39931657.112    16294923.9582      -1576.504          34.250  
C10  39047679.757    10146615.8092      -1868.594          36.500  
C 3  36424887.395    -4385248.6482        216.973          43.250  
C13  37059441.219    -4940072.8002        686.191          44.000  
C 2  37396959.208    -4963272.5762        269.248          39.250  
C 1  37853305.485    -4015302.2442        235.508          41.250  
C 6  37376481.243    -8523877.3092       1890.342          40.250  
C 4  38802178.612    -3968802.1122        210.547          37.500  
C12  21596072.116   -24741663.1552        819.023          46.500  
G 5  20552597.092   -30595347.868          30.283          47.250  
G15  24452402.090    -8193892.045        5074.697          35.500  
G29  23804954.091   -10577667.332        4394.277          41.750  
C21  21871691.731   -26302459.8922        -86.455          50.000  
G19  23453098.518    -7158746.046       -4096.719          38.500  
C 5  39457150.914    -4714827.1712        258.994          36.000  
G 6  22661800.888   -15429126.197       -1480.166          42.000  
C22  24247458.714   -16037917.8992      -3016.025          45.000  
G 2  21580827.584   -25617470.927         771.016          46.250  
G 9  24803782.183    -8449805.484       -3500.908          36.750  
G30  25716183.713    -1355919.874        2303.555          31.500  
> 2020  6 29  9  3 19.0000000  0 27                     
G25  24029945.166      648545.075       -1005.947          37.500  
G17  24829820.133     7319128.630       -4182.461          34.000  
C11  24474332.224    -5356027.0972       3647.881          43.000  
G12  23378850.342   -13660079.510       -2429.834          39.750  
G13  22569314.429   -13867725.472        4343.262          41.250  
C16  37954971.679   -13286988.5412       2099.990          41.500  
C 8  37021520.160     -729943.6702        721.006          43.000  
C 7  39931778.304    16295554.4062      -1576.035          34.250  
C10  39047823.342    10147363.1382      -1868.301          36.500  
C 3  36424870.696    -4385335.5022        217.139          43.250  
C13  37059388.363    -4940347.4142        686.543          44.000  
C 2  37396938.674    -4963380.3902        269.512          39.250  
C 1  37853287.472    -4015396.5022        235.645          41.250  
C 6  37376335.991    -8524633.4982       1890.469          40.250  
C 4  38802162.243    -3968886.4212        210.732          37.500  
C12  21596009.117   -24741990.7252        818.945          46.500  
G 5  20552594.627   -30595359.972          30.273          47.250  
G15  24452015.838    -8195921.993        5074.834          35.500  
G29  23804619.613   -10579425.095        4394.424          41.500  
C21  21871698.345   -26302425.2712        -86.533          50.000  
G19  23453410.275    -7157107.407       -4096.621          38.500  
C 5  39457131.047    -4714930.8312        259.150          36.000  
G 6  22661913.603   -15428534.166       -1480.049          42.250  
C22  24247690.375   -16036711.5272      -3015.938          45.000  
G 2  21580768.890   -25617779.365         771.104          46.250  
G 9  24804048.778    -8448405.107       -3500.869          36.500  
G30  25716009.499    -1356841.448        2303.916          31.500  
> 2020  6 29  9  3 19.5000000  0 27                     
G25  24030021.629      648947.616       -1006.299          37.500  
G17  24830138.608     7320801.734       -4182.773          34.250  
C11  24474052.021    -5357486.1132       3647.510          43.000  
G12  23379034.908   -13659107.435       -2430.234          39.750  
G13  22568983.887   -13869462.648        4342.930          41.250  
C16  37954810.347   -13287828.4372       2099.736          41.500  
C 8  37021464.825     -730232.0342        720.908          43.000  
C 7  39931899.422    16296184.8662      -1576.162          34.500  
C10  39047967.014    10148110.5072      -1868.398          36.250  
C 3  36424853.865    -4385422.3042        216.992          43.250  
C13  37059335.663    -4940621.9582        686.328          44.000  
C 2  37396918.000    -4963488.1482        269.385          39.250  
C 1  37853269.480    -4015490.7152        235.518          41.250  
C 6  37376190.884    -8525389.5742       1890.156          40.250  
C 4  38802146.028    -3968970.6352        210.547          37.250  
C12  21595946.235   -24742318.1282        818.467          46.500  
G 5  20552592.163   -30595371.917          29.844          47.250  
G15  24451629.704    -8197951.939        5074.854          35.750  
G29  23804285.102   -10581182.726        4394.062          41.500  
C21  21871704.727   -26302390.4822        -86.982          50.000  
G19  23453722.281    -7155468.626       -4096.914          38.250  
C 5  39457111.158    -4715034.4402        259.053          36.000  
G 6  22662026.232   -15427942.037       -1480.342          42.250  
C22  24247922.105   -16035505.0442      -3016.211          45.000  
G 2  21580709.987   -25618087.708         770.840          46.250  
G 9  24804315.278    -8447004.588       -3501.387          36.750  
G30  25715833.701    -1357762.870        2303.564          31.500  
> 2020  6 29  9  3 20.0000000  0 27                     
G25  24030098.501      649350.215       -1006.475          37.500  
G17  24830457.100     7322474.837       -4182.754          34.250  
C11  24473771.954    -5358945.1892       3647.715          43.000  
G12  23379219.684   -13658135.358       -2430.156          39.500  
G13  22568653.449   -13871199.837        4342.969          41.500  
C16  37954648.937   -13288668.3982       2099.932          41.250  
C 8  37021409.504     -730520.4812        721.104          43.250  
C 7  39932020.583    16296815.2732      -1576.104          34.250  
C10  39048110.503    10148857.8292      -1868.340          36.250  
C 3  36424837.300    -4385509.1712        217.188          43.250  
C13  37059282.990    -4940896.5962        686.602          44.000  
C 2  37396897.286    -4963595.9612        269.541          39.250  
C 1  37853251.354    -4015584.9792        235.654          41.000  
C 6  37376045.711    -8526145.6942       1890.303          40.250  
C 4  38802129.934    -3969054.9212        210.732          37.250  
C12  21595883.331   -24742645.4852        818.408          46.500  
G 5  20552589.955   -30595383.831          29.795          47.250  
G15  24451243.448    -8199981.871        5074.883          35.750  
G29  23803950.502   -10582940.363        4394.082          41.500  
C21  21871711.236   -26302355.6522        -87.090          50.000  
G19  23454034.199    -7153829.831       -4097.021          38.000  
C 5  39457091.304    -4715138.1362        259.209          36.000  
G 6  22662138.938   -15427349.903       -1480.322          42.000  
C22  24248153.700   -16034298.6132      -3016.084          45.000  
G 2  21580651.237   -25618396.079         770.938          46.250  
G 9  24804581.686    -8445604.053       -3501.270          36.750  
G30  25715658.300    -1358684.397        2303.818          31.750  
> 2020  6 29  9  3 20.5000000  0 27                     
G25  24030175.295      649752.913       -1006.777          37.500  
G17  24830775.554     7324147.898       -4182.744          34.250  
C11  24473491.856    -5360404.2492       3647.627          43.000  
G12  23379404.495   -13657163.246       -2430.342          39.500  
G13  22568322.995   -13872936.970        4342.812          41.500  
C16  37954487.566   -13289508.3332       2099.795          41.250  
C 8  37021354.134     -730808.9642        721.172          43.250  
C 7  39932141.810    16297445.6482      -1575.947          34.250  
C10  39048253.970    10149605.1372      -1868.242          36.250  
C 3  36424820.356    -4385596.0412        217.139          43.250  
C13  37059230.216    -4941171.2722        686.689          44.000  
C 2  37396876.516    -4963703.7722        269.521          39.000  
C 1  37853233.184    -4015679.2662        235.684          41.000  
C 6  37375900.504    -8526901.8272       1890.322          40.250  
C 4  38802113.714    -3969139.2242        210.713          37.250  
C12  21595820.392   -24742972.7512        818.145          46.500  
G 5  20552587.691   -30595395.663          29.561          47.000  
G15  24450857.039    -8202011.841        5074.873          35.750  
G29  23803616.017   -10584697.983        4394.033          41.500  
C21  21871718.133   -26302320.7342        -87.305          50.000  
G19  23454345.969    -7152191.004       -4097.090          38.000  
C 5  39457071.349    -4715241.8052        259.150          35.750  
G 6  22662251.780   -15426757.753       -1480.410          42.000  
C22  24248385.208   -16033092.1382      -3016.191          45.000  
G 2  21580592.521   -25618704.433         770.859          46.250  
G 9  24804848.282    -8444203.502       -3501.377          36.750  
G30  25715483.070    -1359605.876        2303.701          31.500  
> 2020  6 29  9  3 21.0000000  0 27                     
G25  24030252.033      650155.762       -1007.148          37.500  
G17  24831093.828     7325821.089       -4182.969          34.250  
C11  24473211.544    -5361863.2662       3647.559          43.000  
G12  23379589.406   -13656190.999       -2430.605          39.500  
G13  22567992.269   -13874674.034        4342.666          41.500  
C16  37954326.278   -13290348.1982       2099.648          41.250  
C 8  37021298.616     -731097.4212        721.152          43.250  
C 7  39932263.171    16298076.0712      -1575.996          34.500  
C10  39048397.563    10150352.4782      -1868.369          36.500  
C 3  36424804.062    -4385682.8752        217.080          43.250  
C13  37059177.381    -4941445.9182        686.631          44.000  
C 2  37396855.772    -4963811.5292        269.365          39.000  
C 1  37853215.066    -4015773.5062        235.615          41.000  
C 6  37375755.183    -8527657.8692       1890.098          40.250  
C 4  38802097.621    -3969223.5062        210.664          37.250  
C12  21595757.681   -24743299.8662        817.783          46.500  
G 5  20552585.558   -30595407.362          29.219          47.000  
G15  24450470.752    -8204041.737        5074.736          35.750  
G29  23803281.827   -10586455.505        4393.799          41.250  
C21  21871725.283   -26302285.6682        -87.666          50.000  
G19  23454657.839    -7150552.084       -4097.305          38.000  
C 5  39457051.360    -4715345.4582        259.150          36.000  
G 6  22662364.513   -15426165.503       -1480.615          42.000  
C22  24248616.881   -16031885.6052      -3016.348          45.000  
G 2  21580533.840   -25619012.713         770.703          46.250  
G 9  24805114.926    -8442802.763       -3501.904          36.750  
G30  25715308.275    -1360527.386        2303.730          31.500  
> 2020  6 29  9  3 21.5000000  0 27                     
G25  24030328.643      650558.659       -1007.207          37.500  
G17  24831412.168     7327494.227       -4182.734          34.250  
C11  24472931.202    -5363322.2962       3647.559          43.000  
G12  23379774.261   -13655218.719       -2430.693          39.500  
G13  22567661.640   -13876411.067        4342.578          41.500  
C16  37954164.934   -13291188.0972       2099.736          41.250  
C 8  37021243.085     -731385.9382        721.299          43.000  
C 7  39932384.272    16298706.4082      -1575.869          34.500  
C10  39048540.973    10151099.7902      -1868.281          36.500  
C 3  36424787.126    -4385769.7612        217.217          43.250  
C13  37059124.755    -4941720.6382        686.768          44.000  
C 2  37396834.919    -4963919.3792        269.639          39.000  
C 1  37853196.949    -4015867.8202        235.801          41.000  
C 6  37375610.045    -8528413.9402       1890.195          40.250  
C 4  38802081.597    -3969307.8022        210.781          37.250  
C12  21595694.773   -24743626.9222        817.646          46.250  
G 5  20552583.512   -30595419.012          29.131          47.000  
G15  24450084.374    -8206071.699        5074.941          35.750  
G29  23802947.442   -10588213.022        4393.779          41.250  
C21  21871731.923   -26302250.5442        -87.812          50.000  
G19  23454969.662    -7148913.145       -4097.334          38.250  
C 5  39457031.419    -4715449.1552        259.258          36.000  
G 6  22662477.228   -15425573.245       -1480.645          42.000  
C22  24248848.624   -16030679.0872      -3016.279          45.000  
G 2  21580475.269   -25619320.999         770.713          46.250  
G 9  24805381.465    -8441402.036       -3501.807          36.750  
G30  25715131.827    -1361448.933        2303.867          31.500  
> 2020  6 29  9  3 22.0000000  0 27                     
G25  24030405.394      650961.644       -1007.510          37.500  
G17  24831730.587     7329167.384       -4182.939          34.250  
C11  24472651.056    -5364781.3092       3647.549          43.000  
G12  23379959.155   -13654246.408       -2430.781          39.500  
G13  22567331.255   -13878148.064        4342.480          41.500  
C16  37954003.667   -13292028.0012       2099.756          41.250  
C 8  37021187.690     -731674.4982        721.387          43.000  
C 7  39932505.398    16299336.6682      -1575.654          34.500  
C10  39048684.432    10151847.0502      -1868.154          36.500  
C 3  36424770.505    -4385856.6672        217.266          43.250  
C13  37059072.160    -4941995.4062        686.914          44.000  
C 2  37396814.341    -4964027.2272        269.619          39.250  
C 1  37853178.870    -4015962.1232        235.723          41.250  
C 6  37375464.946    -8529170.0122       1890.127          40.250  
C 4  38802065.464    -3969392.1582        210.898          37.250  
C12  21595631.952   -24743953.9122        817.451          46.500  
G 5  20552581.409   -30595430.603          28.994          47.000  
G15  24449698.109    -8208101.650        5074.912          35.750  
G29  23802612.860   -10589970.530        4393.789          41.250  
C21  21871738.389   -26302215.3432        -88.008          50.000  
G19  23455281.672    -7147274.174       -4097.432          38.000  
C 5  39457011.539    -4715552.8612        259.238          35.750  
G 6  22662589.895   -15424980.995       -1480.625          42.250  
C22  24249080.394   -16029472.5502      -3016.367          45.000  
G 2  21580416.540   -25619629.274         770.684          46.250  
G 9  24805648.104    -8440001.257       -3501.943          36.750  
G30  25714955.393    -1362370.473        2303.848          31.250  
> 2020  6 29  9  3 22.5000000  0 27                     
G25  24030482.035      651364.707       -1007.695          37.500  
G17  24832048.944     7330840.579       -4183.047          34.000  
C11  24472370.863    -5366240.3072       3647.471          43.000  
G12  23380144.066   -13653274.035       -2430.957          39.500  
G13  22567000.827   -13879885.011        4342.324          41.500  
C16  37953842.379   -13292867.8832       2099.668          41.250  
C 8  37021132.394     -731963.0952        721.484          43.000  
C 7  39932626.646    16299966.9212      -1575.625          34.500  
C10  39048827.942    10152594.2462      -1868.018          36.250  
C 3  36424753.971    -4385943.5892        217.305          43.250  
C13  37059019.465    -4942270.2002        686.963          44.000  
C 2  37396793.654    -4964135.0832        269.648          39.250  
C 1  37853160.630    -4016056.4562        235.840          41.250  
C 6  37375319.913    -8529926.0792       1890.176          40.250  
C 4  38802049.135    -3969476.4922        210.762          37.250  
C12  21595569.232   -24744280.7922        817.207          46.500  
G 5  20552579.398   -30595442.099          28.730          47.000  
G15  24449311.818    -8210131.659        5074.980          36.000  
G29  23802278.475   -10591727.993        4393.643          41.250  
C21  21871745.028   -26302180.0372        -88.271          50.000  
G19  23455593.564    -7145635.146       -4097.598          38.000  
C 5  39456991.667    -4715656.6002        259.385          35.750  
G 6  22662702.615   -15424388.684       -1480.771          42.250  
C22  24249312.263   -16028265.9992      -3016.377          45.000  
G 2  21580357.920   -25619937.527         770.635          46.250  
G 9  24805914.691    -8438600.365       -3502.256          36.750  
G30  25714780.005    -1363292.044        2303.896          31.000  
> 2020  6 29  9  3 23.0000000  0 27                     
G25  24030558.711      651767.972       -1008.135          37.750  
G17  24832367.240     7332513.843       -4183.125          34.000  
C11  24472090.765    -5367699.2552       3647.373          43.000  
G12  23380329.021   -13652301.526       -2431.221          39.250  
G13  22566670.285   -13881621.861        4342.129          41.750  
C16  37953681.074   -13293707.7002       2099.580          41.250  
C 8  37021077.038     -732251.6602        721.406          43.000  
C 7  39932747.925    16300597.2242      -1575.752          34.500  
C10  39048971.570    10153341.5462      -1868.213          36.250  
C 3  36424737.258    -4386030.4672        217.168          43.250  
C13  37058966.787    -4942544.9722        686.934          44.000  
C 2  37396773.172    -4964242.9062        269.512          39.250  
C 1  37853142.408    -4016150.7592        235.732          41.000  
C 6  37375174.802    -8530682.0812       1890.000          40.250  
C 4  38802032.963    -3969560.8122        210.889          37.250  
C12  21595506.563   -24744607.5282        816.826          46.500  
G 5  20552577.443   -30595453.472          28.418          47.000  
G15  24448925.514    -8212161.559        5074.746          36.000  
G29  23801944.085   -10593485.364        4393.418          41.250  
C21  21871751.995   -26302144.5922        -88.623          50.000  
G19  23455905.421    -7143996.000       -4097.871          38.000  
C 5  39456971.730    -4715760.2852        259.189          35.750  
G 6  22662815.361   -15423796.296       -1480.986          42.250  
C22  24249544.033   -16027059.3722      -3016.562          45.000  
G 2  21580299.344   -25620245.701         770.439          46.250  
G 9  24806181.282    -8437199.373       -3502.461          36.750  
G30  25714604.425    -1364213.532        2303.740          31.250  
> 2020  6 29  9  3 23.5000000  0 27                     
G25  24030635.466      652171.341       -1008.398          37.500  
G17  24832685.759     7334187.152       -4183.301          34.000  
C11  24471810.658    -5369158.1512       3647.236          43.000  
G12  23380513.980   -13651328.972       -2431.455          39.250  
G13  22566339.926   -13883358.650        4341.992          41.500  
C16  37953519.773   -13294547.4842       2099.463          41.500  
C 8  37021021.546     -732540.2282        721.426          43.000  
C 7  39932869.034    16301227.4732      -1575.703          34.500  
C10  39049115.003    10154088.8302      -1868.232          36.250  
C 3  36424720.593    -4386117.3362        217.188          43.250  
C13  37058914.057    -4942819.7602        686.973          43.750  
C 2  37396752.506    -4964350.7122        269.541          39.250  
C 1  37853124.255    -4016245.0262        235.654          41.250  
C 6  37375029.607    -8531438.0262       1889.863          40.250  
C 4  38802016.761    -3969645.0832        210.635          37.250  
C12  21595443.725   -24744934.1352        816.533          46.500  
G 5  20552575.480   -30595464.733          28.145          47.000  
G15  24448539.135    -8214191.457        5074.727          36.000  
G29  23801609.577   -10595242.679        4393.262          41.000  
C21  21871759.063   -26302109.0262        -88.916          50.000  
G19  23456217.392    -7142356.792       -4098.018          38.000  
C 5  39456951.772    -4715863.9782        259.209          35.750  
G 6  22662928.006   -15423203.849       -1481.113          42.250  
C22  24249775.693   -16025852.6972      -3016.709          45.000  
G 2  21580240.773   -25620553.836         770.322          46.250  
G 9  24806447.865    -8435798.306       -3502.617          36.500  
G30  25714428.994    -1365135.025        2303.799          31.250  
> 2020  6 29  9  3 24.0000000  0 27                     
G25  24030712.225      652574.803       -1008.633          37.250  
G17  24833004.217     7335860.437       -4183.193          34.000  
C11  24471530.434    -5370617.0742       3647.324          43.000  
G12  23380699.066   -13650356.363       -2431.514          39.500  
G13  22566009.549   -13885095.409        4341.885          41.500  
C16  37953358.594   -13295387.2982       2099.551          41.500  
C 8  37020966.164     -732828.8482        721.543          43.000  
C 7  39932990.104    16301857.6842      -1575.469          34.750  
C10  39049258.574    10154836.0542      -1868.057          36.500  
C 3  36424703.649    -4386204.2172        217.188          43.250  
C13  37058861.283    -4943094.6052        687.100          44.000  
C 2  37396731.850    -4964458.5502        269.580          39.250  
C 1  37853106.029    -4016339.3332        235.791          41.250  
C 6  37374884.692    -8532193.9812       1889.902          40.250  
C 4  38802000.427    -3969729.4162        210.850          37.250  
C12  21595380.931   -24745260.6742        816.338          46.500  
G 5  20552573.111   -30595475.933          28.018          47.000  
G15  24448153.062    -8216221.408        5074.844          36.000  
G29  23801275.227   -10596999.949        4393.164          41.000  
C21  21871765.916   -26302073.3902        -89.082          50.000  
G19  23456529.183    -7140717.561       -4098.047          38.000  
C 5  39456931.918    -4715967.6602        259.180          36.000  
G 6  22663040.639   -15422611.380       -1481.182          42.250  
C22  24250007.546   -16024646.0182      -3016.670          45.000  
G 2  21580182.162   -25620861.961         770.312          46.250  
G 9  24806714.500    -8434397.242       -3502.705          36.750  
G30  25714253.584    -1366056.558        2303.760          31.250  
> 2020  6 29  9  3 24.5000000  0 27                     
G25  24030789.150      652978.358       -1008.926          37.250  
G17  24833322.670     7337533.787       -4183.447          34.000  
C11  24471250.258    -5372075.9512       3647.158          43.000  
G12  23380884.051   -13649383.666       -2431.748          39.500  
G13  22565679.108   -13886832.106        4341.738          41.500  
C16  37953197.184   -13296227.0752       2099.424          41.500  
C 8  37020910.716     -733117.4992        721.631          43.000  
C 7  39933111.239    16302487.8672      -1575.459          34.500  
C10  39049401.928    10155583.2932      -1868.125          36.250  
C 3  36424687.372    -4386291.1432        217.324          43.250  
C13  37058808.588    -4943369.4702        687.188          43.750  
C 2  37396711.106    -4964566.4022        269.609          39.250  
C 1  37853088.125    -4016433.6552        235.801          41.250  
C 6  37374739.392    -8532949.9402       1889.873          40.250  
C 4  38801984.260    -3969813.7372        210.771          37.250  
C12  21595318.197   -24745587.1212        816.094          46.500  
G 5  20552570.795   -30595487.037          27.754          47.000  
G15  24447766.684    -8218251.342        5074.912          35.750  
G29  23800940.745   -10598757.204        4393.154          41.250  
C21  21871772.691   -26302037.6492        -89.365          50.000  
G19  23456841.036    -7139078.250       -4098.320          38.000  
C 5  39456912.016    -4716071.3772        259.287          35.750  
G 6  22663153.350   -15422018.881       -1481.270          42.000  
C22  24250239.232   -16023439.3212      -3016.748          45.000  
G 2  21580123.555   -25621170.059         770.234          46.250  
G 9  24806981.205    -8432996.002       -3503.096          36.500  
G30  25714078.393    -1366978.127        2303.945          31.000  
> 2020  6 29  9  3 25.0000000  0 27                     
G25  24030866.084      653382.067       -1009.268          37.250  
G17  24833640.962     7339207.174       -4183.408          34.000  
C11  24470970.046    -5373534.7652       3647.041          43.000  
G12  23381068.980   -13648410.874       -2431.973          39.500  
G13  22565348.653   -13888568.719        4341.514          41.500  
C16  37953035.922   -13297066.7742       2099.229          41.500  
C 8  37020855.263     -733406.1022        721.504          43.000  
C 7  39933232.256    16303118.0742      -1575.469          34.500  
C10  39049545.386    10156330.5742      -1868.232          36.250  
C 3  36424670.472    -4386377.9782        217.080          43.250  
C13  37058755.858    -4943644.2832        687.031          43.750  
C 2  37396690.244    -4964674.2032        269.502          39.000  
C 1  37853070.177    -4016527.9212        235.664          41.000  
C 6  37374594.311    -8533705.8002       1889.668          40.250  
C 4  38801967.966    -3969898.0382        210.781          37.250  
C12  21595255.782   -24745913.4062        815.732          46.500  
G 5  20552568.535   -30595498.011          27.432          47.000  
G15  24447380.476    -8220281.181        5074.492          35.750  
G29  23800606.452   -10600514.348        4392.881          41.000  
C21  21871779.148   -26302001.7512        -89.756          50.000  
G19  23457152.885    -7137438.862       -4098.477          38.000  
C 5  39456892.227    -4716175.0462        259.199          35.750  
G 6  22663266.288   -15421426.269       -1481.523          42.000  
C22  24250470.949   -16022232.5332      -3016.992          45.000  
G 2  21580064.813   -25621478.074         770.039          46.250  
G 9  24807247.691    -8431594.723       -3503.223          36.500  
G30  25713903.184    -1367899.598        2303.613          30.750  
> 2020  6 29  9  3 25.5000000  0 27                     
G25  24030943.057      653785.870       -1009.531          37.500  
G17  24833959.390     7340880.617       -4183.574          34.000  
C11  24470689.870    -5374993.5812       3647.041          43.000  
G12  23381254.288   -13647438.023       -2432.139          39.500  
G13  22565018.155   -13890305.274        4341.396          41.500  
C16  37952874.678   -13297906.4692       2099.238          41.500  
C 8  37020799.771     -733694.7422        721.582          43.000  
C 7  39933353.479    16303748.2402      -1575.518          34.750  
C10  39049688.866    10157077.8342      -1868.115          36.250  
C 3  36424653.942    -4386464.8622        217.207          43.250  
C13  37058703.023    -4943919.1712        687.197          43.750  
C 2  37396669.705    -4964782.0122        269.541          39.000  
C 1  37853052.077    -4016622.1922        235.654          41.250  
C 6  37374449.016    -8534461.6582       1889.639          40.250  
C 4  38801951.816    -3969982.3422        210.713          37.500  
C12  21595193.153   -24746239.6072        815.488          46.500  
G 5  20552566.489   -30595508.904          27.217          47.000  
G15  24446994.337    -8222311.085        5074.902          35.500  
G29  23800272.001   -10602271.465        4392.754          41.000  
C21  21871786.111   -26301965.7772        -89.932          50.000  
G19  23457464.886    -7135799.428       -4098.604          38.250  
C 5  39456872.430    -4716278.7272        259.170          35.750  
G 6  22663379.064   -15420833.651       -1481.562          42.250  
C22  24250702.684   -16021025.7312      -3017.012          45.000  
G 2  21580006.202   -25621786.072         769.980          46.250  
G 9  24807514.400    -8430193.356       -3503.428          36.500  
G30  25713727.813    -1368821.065        2303.701          30.500  
> 2020  6 29  9  3 26.0000000  0 27                     
G25  24031020.056      654189.843       -1009.941          37.500  
G17  24834277.599     7342554.111       -4183.770          34.000  
C11  24470409.916    -5376452.3532       3646.895          43.000  
G12  23381439.627   -13646465.097       -2432.334          39.500  
G13  22564687.482   -13892041.757        4341.211          41.250  
C16  37952713.425   -13298746.1332       2099.150          41.500  
C 8  37020744.363     -733983.3842        721.582          43.250  
C 7  39933474.518    16304378.3912      -1575.381          34.750  
C10  39049832.433    10157825.1162      -1868.203          36.250  
C 3  36424637.007    -4386551.7212        217.139          43.250  
C13  37058650.127    -4944194.0502        687.188          44.000  
C 2  37396649.066    -4964889.8002        269.473          39.250  
C 1  37853034.042    -4016716.4792        235.693          41.250  
C 6  37374303.883    -8535217.4752       1889.531          40.250  
C 4  38801935.438    -3970066.6242        210.713          37.250  
C12  21595130.385   -24746565.6842        815.186          46.500  
G 5  20552564.408   -30595519.693          26.953          47.000  
G15  24446608.186    -8224340.921        5074.502          35.500  
G29  23799937.733   -10604028.525        4392.676          41.000  
C21  21871793.278   -26301929.6742        -90.264          50.000  
G19  23457776.874    -7134159.907       -4098.809          38.250  
C 5  39456852.410    -4716382.3782        259.131          35.750  
G 6  22663491.967   -15420240.957       -1481.748          42.000  
C22  24250934.479   -16019818.8742      -3017.168          45.000  
G 2  21579947.814   -25622094.021         769.873          46.250  
G 9  24807781.040    -8428791.889       -3503.652          36.500  
G30  25713552.670    -1369742.568        2303.672          30.500  
> 2020  6 29  9  3 26.5000000  0 27                     
G25  24031096.785      654593.875       -1010.049          37.500  
G17  24834596.131     7344227.614       -4183.779          34.000  
C11  24470129.853    -5377911.1082       3646.914          43.000  
G12  23381624.918   -13645492.084       -2432.490          39.750  
G13  22564356.931   -13893778.192        4341.084          41.250  
C16  37952552.158   -13299585.7842       2099.150          41.500  
C 8  37020689.015     -734272.0652        721.719          43.000  
C 7  39933595.561    16305008.5282      -1575.312          34.750  
C10  39049975.857    10158572.3632      -1868.105          36.250  
C 3  36424620.346    -4386638.5772        217.158          43.250  
C13  37058597.275    -4944468.9632        687.295          44.000  
C 2  37396628.544    -4964997.6122        269.551          39.000  
C 1  37853015.964    -4016810.7562        235.752          41.250  
C 6  37374158.654    -8535973.2862       1889.531          40.250  
C 4  38801919.075    -3970150.9102        210.703          37.500  
C12  21595067.734   -24746891.6722        814.980          46.500  
G 5  20552562.227   -30595530.388          26.758          47.000  
G15  24446221.868    -8226370.820        5074.746          35.500  
G29  23799603.103   -10605785.537        4392.510          41.000  
C21  21871800.564   -26301893.4822        -90.479          50.000  
G19  23458088.683    -7132520.326       -4098.965          38.250  
C 5  39456832.421    -4716486.0702        259.209          35.750  
G 6  22663604.787   -15419648.226       -1481.797          42.000  
C22  24251166.301   -16018612.0102      -3017.129          45.000  
G 2  21579889.177   -25622401.940         769.824          46.250  
G 9  24808047.779    -8427390.377       -3503.809          36.500  
G30  25713377.287    -1370664.055        2303.730          30.250  
> 2020  6 29  9  3 27.0000000  0 27                     
G25  24031173.862      654998.118       -1010.625          37.500  
G17  24834914.649     7345901.238       -4184.062          34.250  
C11  24469849.651    -5379369.7562       3646.602          43.000  
G12  23381810.108   -13644518.931       -2432.910          39.750  
G13  22564026.507   -13895514.478        4340.723          41.500  
C16  37952390.835   -13300425.3332       2098.867          41.500  
C 8  37020633.715     -734560.6742        721.504          43.000  
C 7  39933716.666    16305638.7432      -1575.518          34.750  
C10  39050119.267    10159319.7082      -1868.408          36.250  
C 3  36424603.620    -4386725.3622        216.963          43.250  
C13  37058544.405    -4944743.8002        687.090          44.000  
C 2  37396607.621    -4965105.3442        269.258          39.250  
C 1  37852997.763    -4016904.9522        235.459          41.250  
C 6  37374013.490    -8536728.9702       1889.219          40.250  
C 4  38801902.990    -3970235.1252        210.469          37.250  
C12  21595005.031   -24747217.4602        814.463          46.500  
G 5  20552560.368   -30595540.913          26.299          47.000  
G15  24445835.630    -8228400.532        5074.268          35.500  
G29  23799268.692   -10607542.406        4392.188          41.000  
C21  21871807.553   -26301857.0902        -90.986          50.000  
G19  23458400.815    -7130880.619       -4099.258          38.250  
C 5  39456812.471    -4716589.6872        259.092          35.750  
G 6  22663717.664   -15419055.364       -1482.188          42.000  
C22  24251398.023   -16017405.0162      -3017.490          45.000  
G 2  21579830.579   -25622709.736         769.453          46.250  
G 9  24808314.672    -8425988.669       -3504.248          36.500  
G30  25713201.938    -1371585.442        2303.418          30.250  
> 2020  6 29  9  3 27.5000000  0 27                     
G25  24031250.905      655402.437       -1010.811          37.500  
G17  24835233.090     7347574.878       -4184.170          34.250  
C11  24469569.514    -5380828.3922       3646.572          43.000  
G12  23381995.246   -13643545.707       -2433.066          40.000  
G13  22563696.209   -13897250.727        4340.576          41.250  
C16  37952229.591   -13301264.8632       2098.770          41.250  
C 8  37020578.032     -734849.3252        721.592          43.000  
C 7  39933837.761    16306268.9042      -1575.459          34.500  
C10  39050262.699    10160067.0242      -1868.311          36.250  
C 3  36424586.837    -4386812.1652        216.973          43.250  
C13  37058491.504    -4945018.6772        687.178          44.000  
C 2  37396587.052    -4965213.0912        269.375          39.250  
C 1  37852979.676    -4016999.1852        235.537          41.000  
C 6  37373868.330    -8537484.6532       1889.160          40.250  
C 4  38801886.909    -3970319.3592        210.586          37.250  
C12  21594942.472   -24747543.1632        814.209          46.500  
G 5  20552558.274   -30595551.359          26.094          47.000  
G15  24445449.430    -8230430.316        5074.463          35.250  
G29  23798934.472   -10609299.260        4392.109          41.000  
C21  21871814.293   -26301820.6192        -91.191          50.000  
G19  23458712.899    -7129240.857       -4099.414          38.000  
C 5  39456792.604    -4716693.2612        258.896          35.750  
G 6  22663830.510   -15418462.479       -1482.236          42.000  
C22  24251629.713   -16016198.0042      -3017.559          45.000  
G 2  21579772.147   -25623017.515         769.424          46.250  
G 9  24808581.363    -8424586.921       -3504.375          36.500  
G30  25713026.302    -1372506.866        2303.604          30.000  
> 2020  6 29  9  3 28.0000000  0 26                     
G25  24031327.821      655806.813       -1010.938          37.500  
G17  24835551.508     7349248.488       -4183.945          33.750  
C11  24469289.351    -5382287.0892       3646.748          43.000  
G12  23382180.646   -13642572.502       -2433.027          40.000  
G13  22563366.090   -13898986.983        4340.654          41.500  
C16  37952068.491   -13302104.4542       2099.023          41.250  
C 8  37020522.466     -735138.0482        721.855          43.250  
C 7  39933958.809    16306898.9602      -1575.117          34.500  
C10  39050406.166    10160814.2662      -1868.076          36.250  
C 3  36424570.338    -4386899.0362        217.188          43.250  
C13  37058438.626    -4945293.6522        687.412          44.000  
C 2  37396566.251    -4965320.8902        269.473          39.000  
C 1  37852961.641    -4017093.4732        235.752          41.250  
C 6  37373723.118    -8538240.3942       1889.346          40.250  
C 4  38801870.585    -3970403.6712        210.820          37.500  
C12  21594880.096   -24747868.8302        814.180          46.500  
G 5  20552556.123   -30595561.780          26.074          47.000  
G15  24445062.908    -8232460.168        5074.668          35.000  
G29  23798600.157   -10611056.134        4392.168          40.750  
C21  21871821.055   -26301784.1152        -91.270          50.000  
G19  23459024.739    -7127601.108       -4099.355          38.000  
G 6  22663943.448   -15417869.610       -1482.148          42.000  
C22  24251861.548   -16014991.0382      -3017.402          45.000  
G 2  21579713.558   -25623325.342         769.580          46.250  
G 9  24808848.051    -8423185.157       -3504.424          36.500  
G30  25712853.898    -1373428.348        2303.633          30.250  
> 2020  6 29  9  3 28.5000000  0 26                     
G25  24031404.737      656211.303       -1011.250          37.750  
G17  24835869.962     7350922.107       -4184.141          34.000  
C11  24469009.200    -5383745.7602       3646.670          43.000  
G12  23382366.020   -13641599.234       -2433.184          40.250  
G13  22563035.797   -13900723.207        4340.576          41.250  
C16  37951907.246   -13302944.0282       2098.896          41.250  
C 8  37020467.092     -735426.8162        721.865          43.250  
C 7  39934079.839    16307529.0082      -1575.137          34.500  
C10  39050549.620    10161561.4962      -1868.096          36.250  
C 3  36424553.459    -4386985.9162        217.178          43.250  
C13  37058385.782    -4945568.6562        687.510          44.000  
C 2  37396545.520    -4965428.7332        269.609          39.000  
C 1  37852943.672    -4017187.7792        235.762          41.250  
C 6  37373577.998    -8538996.1162       1889.307          40.250  
C 4  38801854.478    -3970487.9672        210.732          37.250  
C12  21594817.751   -24748194.3962        813.916          46.500  
G 5  20552554.086   -30595572.130          25.840          47.000  
G15  24444676.538    -8234490.020        5074.541          35.250  
G29  23798265.967   -10612812.972        4392.119          40.750  
C21  21871828.192   -26301747.5092        -91.504          50.000  
G19  23459336.867    -7125961.319       -4099.531          38.000  
G 6  22664056.285   -15417276.708       -1482.275          42.000  
C22  24252093.436   -16013784.0432      -3017.500          45.000  
G 2  21579654.799   -25623633.131         769.463          46.250  
G 9  24809114.882    -8421783.324       -3504.600          36.250  
G30  25712676.224    -1374349.830        2303.818          30.250  
> 2020  6 29  9  3 29.0000000  0 27                     
G25  24031481.819      656615.935       -1011.553          37.750  
G17  24836188.262     7352595.829       -4184.277          33.750  
C11  24468729.085    -5385204.3412       3646.436          43.000  
G12  23382551.420   -13640625.832       -2433.477          40.250  
G13  22562705.451   -13902459.299        4340.215          41.500  
C16  37951745.963   -13303783.5092       2098.701          41.500  
C 8  37020411.618     -735715.5332        721.797          43.000  
C 7  39934200.909    16308159.0672      -1575.127          34.500  
C10  39050692.991    10162308.7852      -1868.203          36.250  
C 3  36424536.912    -4387072.7252        217.021          43.250  
C13  37058332.965    -4945843.6262        687.432          44.000  
C 2  37396524.838    -4965536.4922        269.434          39.000  
C 1  37852925.436    -4017282.0162        235.586          41.250  
C 6  37373432.764    -8539751.7522       1889.092          40.250  
C 4  38801838.315    -3970572.2442        210.645          37.250  
C12  21594755.157   -24748519.7972        813.506          46.500  
G 5  20552552.188   -30595582.305          25.459          47.000  
G15  24444290.238    -8236519.809        5074.482          35.250  
G29  23797931.608   -10614569.671        4391.748          40.750  
C21  21871835.682   -26301710.7372        -91.943          50.000  
G19  23459648.798    -7124321.385       -4099.785          38.250  
C 5  39456732.889    -4717004.3013        259.062          35.750  
G 6  22664168.966   -15416683.700       -1482.520          42.000  
C22  24252325.262   -16012576.9482      -3017.744          45.000  
G 2  21579596.367   -25623940.829         769.258          46.250  
G 9  24809381.722    -8420381.357       -3504.941          36.250  
G30  25712503.018    -1375271.263        2303.506          30.000  
> 2020  6 29  9  3 29.5000000  0 27                     
G25  24031558.927      657020.718       -1011.973          37.500  
G17  24836506.733     7354269.622       -4184.482          34.000  
C11  24468449.123    -5386662.8852       3646.367          43.000  
G12  23382737.212   -13639652.346       -2433.730          40.250  
G13  22562375.228   -13904195.334        4340.078          41.250  
C16  37951584.696   -13304622.9712       2098.672          41.250  
C 8  37020356.130     -736004.2642        721.816          43.000  
C 7  39934321.843    16308789.1592      -1575.234          34.750  
C10  39050836.392    10163056.0582      -1868.164          36.000  
C 3  36424519.964    -4387159.5362        217.002          43.250  
C13  37058280.082    -4946118.6122        687.451          44.000  
C 2  37396503.971    -4965644.2342        269.287          39.000  
C 1  37852907.275    -4017376.2432        235.537          41.250  
C 6  37373287.552    -8540507.3382       1888.984          40.500  
C 4  38801821.903    -3970656.4612        210.576          37.250  
C12  21594692.502   -24748845.0762        813.174          46.500  
G 5  20552550.361   -30595592.404          25.225          47.000  
G15  24443903.886    -8238549.554        5074.395          35.250  
G29  23797597.450   -10616326.336        4391.621          40.750  
C21  21871842.811   -26301673.8552        -92.207          50.000  
G19  23459960.760    -7122681.378       -4100.020          38.000  
C 5  39456712.974    -4717107.8962        259.023          35.750  
G 6  22664281.733   -15416090.635       -1482.676          42.000  
C22  24252557.040   -16011369.8192      -3017.832          45.000  
G 2  21579537.821   -25624248.470         769.082          46.250  
G 9  24809648.514    -8418979.325       -3505.078          36.250  
G30  25712325.941    -1376192.650        2303.506          30.250  
> 2020  6 29  9  3 30.0000000  0 27                     
G25  24031635.970      657425.529       -1012.012          37.500  
G17  24836825.169     7355943.339       -4184.277          34.000  
C11  24468168.985    -5388121.4722       3646.465          43.000  
G12  23382922.498   -13638678.852       -2433.730          40.500  
G13  22562044.886   -13905931.362        4340.078          41.250  
C16  37951423.535   -13305462.4602       2098.721          41.250  
C 8  37020300.721     -736293.0782        722.051          43.000  
C 7  39934442.939    16309419.1062      -1574.873          34.500  
C10  39050979.807    10163803.2752      -1868.105          36.250  
C 3  36424503.565    -4387246.3962        217.168          43.250  
C13  37058227.387    -4946393.6892        687.725          44.000  
C 2  37396483.306    -4965752.0422        269.570          39.000  
C 1  37852889.031    -4017470.5332        235.781          41.250  
C 6  37373142.540    -8541262.9922       1889.102          40.500  
C 4  38801805.661    -3970740.7942        210.830          37.000  
C12  21594630.013   -24749170.3152        813.115          46.500  
G 5  20552548.642   -30595602.452          25.137          47.000  
G15  24443517.556    -8240579.366        5074.541          35.250  
G29  23797263.234   -10618083.016        4391.729          40.750  
C21  21871849.625   -26301636.9212        -92.334          50.000  
G19  23460272.853    -7121041.394       -4099.941          38.000  
C 5  39456692.989    -4717211.5902        259.238          35.750  
G 6  22664394.614   -15415497.594       -1482.578          42.000  
C22  24252788.923   -16010162.7162      -3017.754          45.000  
G 2  21579479.280   -25624556.151         769.209          46.250  
G 9  24809915.110    -8417577.243       -3505.186          36.250  
G30  25712149.629    -1377114.148        2303.750          30.000  
> 2020  6 29  9  3 30.5000000  0 27                     
G25  24031712.987      657830.490       -1012.451          37.500  
G17  24837143.400     7357617.164       -4184.570          34.000  
C11  24467888.931    -5389579.9822       3646.260          43.000  
G12  23383107.907   -13637705.228       -2434.072          40.500  
G13  22561714.615   -13907667.300        4339.844          41.250  
C16  37951262.539   -13306301.9122       2098.613          41.250  
C 8  37020245.147     -736581.8682        721.953          43.000  
C 7  39934563.878    16310049.1282      -1575.039          34.750  
C10  39051123.222    10164550.5282      -1868.135          36.250  
C 3  36424486.651    -4387333.2422        217.100          43.250  
C13  37058174.600    -4946668.7452        687.607          44.000  
C 2  37396462.545    -4965859.8252        269.463          39.000  
C 1  37852871.074    -4017564.8132        235.664          41.250  
C 6  37372997.420    -8542018.5602       1888.916          40.500  
C 4  38801789.467    -3970825.0492        210.645          37.000  
C12  21594567.676   -24749495.4152        812.734          46.500  
G 5  20552546.997   -30595612.377          24.814          47.000  
G15  24443131.457    -8242609.159        5074.463          35.500  
G29  23796928.958   -10619839.603        4391.416          40.750  
C21  21871856.230   -26301599.8542        -92.676          50.000  
G19  23460584.972    -7119401.307       -4100.215          38.000  
C 5  39456673.210    -4717315.2612        259.150          35.750  
G 6  22664507.679   -15414904.459       -1482.871          42.000  
C22  24253020.928   -16008955.5622      -3017.900          45.000  
G 2  21579420.682   -25624863.763         769.023          46.250  
G 9  24810181.867    -8416175.090       -3505.439          36.500  
G30  25711974.948    -1378035.594        2303.564          30.000  
> 2020  6 29  9  3 31.0000000  0 27                     
G25  24031789.881      658235.534       -1012.588          37.500  
G17  24837461.923     7359290.990       -4184.551          34.000  
C11  24467608.620    -5391038.5292       3646.387          43.000  
G12  23383293.425   -13636731.607       -2434.023          40.750  
G13  22561384.234   -13909403.238        4339.834          41.250  
C16  37951101.365   -13307141.3652       2098.623          41.500  
C 8  37020189.668     -736870.7092        722.100          43.000  
C 7  39934684.913    16310679.0402      -1574.785          34.500  
C10  39051266.641    10165297.7192      -1867.959          36.000  
C 3  36424470.217    -4387420.1242        217.197          43.250  
C13  37058121.795    -4946943.8522        687.764          44.000  
C 2  37396442.097    -4965967.6632        269.600          39.000  
C 1  37852853.188    -4017659.1012        235.713          41.250  
C 6  37372852.099    -8542774.1552       1889.004          40.250  
C 4  38801773.391    -3970909.3532        210.752          37.000  
C12  21594505.248   -24749820.4562        812.617          46.500  
G 5  20552545.331   -30595622.245          24.668          47.000  
G15  24442745.218    -8244638.911        5074.336          35.500  
G29  23796594.682   -10621596.178        4391.484          40.750  
C21  21871863.533   -26301562.7242        -92.822          50.000  
G19  23460897.178    -7117761.210       -4100.273          38.000  
C 5  39456653.395    -4717418.9222        259.121          35.750  
G 6  22664620.547   -15414311.332       -1482.803          42.000  
C22  24253252.588   -16007748.3832      -3017.930          45.000  
G 2  21579362.281   -25625171.378         769.033          46.250  
G 9  24810448.729    -8414772.838       -3505.635          36.500  
G30  25711797.593    -1378957.036        2303.672          29.750  
> 2020  6 29  9  3 31.5000000  0 27                     
G25  24031866.876      658640.678       -1012.842          37.500  
G17  24837780.425     7360964.787       -4184.531          34.250  
C11  24467328.548    -5392497.0632       3646.309          43.000  
G12  23383478.829   -13635757.921       -2434.238          40.750  
G13  22561053.866   -13911139.123        4339.736          41.250  
C16  37950940.221   -13307980.8072       2098.643          41.500  
C 8  37020134.299     -737159.5852        722.197          43.000  
C 7  39934806.048    16311308.9442      -1574.766          34.500  
C10  39051409.933    10166044.9232      -1868.018          36.000  
C 3  36424453.374    -4387507.0152        217.217          43.000  
C13  37058068.930    -4947218.9932        687.842          44.000  
C 2  37396421.397    -4966075.4952        269.541          39.000  
C 1  37852834.974    -4017753.4152        235.801          41.250  
C 6  37372707.044    -8543529.7452       1888.975          40.250  
C 4  38801757.289    -3970993.6862        210.850          37.250  
C12  21594442.724   -24750145.4062        812.354          46.250  
G 5  20552543.533   -30595632.032          24.482          47.000  
G15  24442358.975    -8246668.739        5074.570          35.500  
G29  23796260.505   -10623352.735        4391.348          40.750  
C21  21871870.748   -26301525.5022        -93.057          50.000  
G19  23461209.354    -7116121.044       -4100.439          38.250  
C 5  39456633.602    -4717522.6072        259.229          35.500  
G 6  22664733.271   -15413718.137       -1482.988          42.000  
C22  24253484.288   -16006541.2142      -3017.949          45.000  
G 2  21579303.779   -25625478.972         768.994          46.250  
G 9  24810715.556    -8413370.598       -3505.518          36.250  
G30  25711623.047    -1379878.507        2303.652          30.000  
> 2020  6 29  9  3 32.0000000  0 27                     
G25  24031943.949      659045.915       -1013.115          37.500  
G17  24838098.865     7362638.611       -4184.521          34.000  
C11  24467048.398    -5393955.5962       3646.318          43.000  
G12  23383664.447   -13634784.203       -2434.336          40.750  
G13  22560723.595   -13912874.974        4339.580          41.250  
C16  37950778.950   -13308820.2552       2098.564          41.500  
C 8  37020078.750     -737448.5232        722.334          43.000  
C 7  39934927.170    16311938.8032      -1574.727          34.500  
C10  39051553.513    10166792.0872      -1867.920          36.000  
C 3  36424436.765    -4387593.9432        217.295          43.000  
C13  37058016.165    -4947494.1802        687.949          44.000  
C 2  37396400.806    -4966183.3532        269.629          39.250  
C 1  37852816.713    -4017847.7812        235.898          41.250  
C 6  37372561.793    -8544285.3392       1888.965          40.250  
C 4  38801741.021    -3971078.0512        210.859          37.250  
C12  21594380.235   -24750470.2752        812.168          46.500  
G 5  20552541.710   -30595641.773          24.316          47.000  
G15  24441972.518    -8248698.563        5074.570          35.500  
G29  23795926.085   -10625109.263        4391.318          40.750  
C21  21871878.038   -26301488.2032        -93.262          50.000  
G19  23461521.647    -7114480.852       -4100.508          38.250  
C 5  39456613.643    -4717626.3462        259.307          35.750  
G 6  22664846.139   -15413124.972       -1482.930          42.000  
C22  24253716.136   -16005334.0272      -3017.969          45.000  
G 2  21579245.273   -25625786.562         768.945          46.250  
G 9  24810982.588    -8411968.236       -3505.957          36.500  
G30  25711449.626    -1380800.018        2303.662          30.000  
> 2020  6 29  9  3 32.5000000  0 27                     
G25  24032020.979      659451.211       -1013.242          37.750  
G17  24838417.310     7364312.494       -4184.727          34.000  
C11  24466768.322    -5395414.0992       3646.270          43.000  
G12  23383849.877   -13633810.396       -2434.521          40.750  
G13  22560392.987   -13914610.736        4339.414          41.250  
C16  37950617.671   -13309659.6922       2098.613          41.500  
C 8  37020023.293     -737737.4602        722.344          43.000  
C 7  39935048.200    16312568.6232      -1574.512          34.500  
C10  39051696.941    10167539.2152      -1867.852          36.000  
C 3  36424420.048    -4387680.8492        217.275          43.250  
C13  37057963.251    -4947769.4142        688.096          44.000  
C 2  37396379.883    -4966291.2142        269.639          39.000  
C 1  37852798.582    -4017942.1142        235.840          41.250  
C 6  37372416.686    -8545040.9112       1888.926          40.250  
C 4  38801724.745    -3971162.4132        210.947          37.250  
C12  21594318.016   -24750795.0382        811.895          46.500  
G 5  20552539.768   -30595651.404          24.092          47.000  
G15  24441586.170    -8250728.394        5074.570          35.250  
G29  23795591.826   -10626865.740        4391.191          40.750  
C21  21871885.049   -26301450.7962        -93.516          50.000  
G19  23461833.753    -7112840.622       -4100.596          38.250  
C 5  39456593.794    -4717730.1072        259.424          35.500  
G 6  22664958.954   -15412531.741       -1483.086          42.000  
C22  24253947.861   -16004126.8132      -3018.037          45.000  
G 2  21579186.688   -25626094.109         768.867          46.250  
G 9  24811249.393    -8410565.842       -3505.986          36.250  
G30  25711272.406    -1381721.556        2303.945          30.000  
> 2020  6 29  9  3 33.0000000  0 27                     
G25  24032098.274      659856.715       -1013.770          37.750  
G17  24838735.676     7365986.477       -4184.990          34.000  
C11  24466488.176    -5396872.5082       3646.025          43.000  
G12  23384035.417   -13632836.431       -2434.883          40.750  
G13  22560062.463   -13916346.398        4339.141          41.250  
C16  37950456.496   -13310499.0122       2098.301          41.250  
C 8  37019967.889     -738026.3702        722.275          43.000  
C 7  39935169.117    16313198.4762      -1574.688          34.500  
C10  39051840.369    10168286.4542      -1868.037          36.000  
C 3  36424403.248    -4387767.6942        217.139          43.250  
C13  37057910.225    -4948044.5822        687.930          44.000  
C 2  37396359.257    -4966398.9842        269.453          39.000  
C 1  37852780.394    -4018036.3832        235.664          41.250  
C 6  37372271.871    -8545796.3622       1888.633          40.250  
C 4  38801708.607    -3971246.6832        210.674          37.000  
C12  21594255.671   -24751119.6122        811.436          46.250  
G 5  20552537.888   -30595660.869          23.633          47.000  
G15  24441199.822    -8252758.149        5074.365          35.250  
G29  23795257.611   -10628622.090        4390.889          40.750  
C21  21871891.837   -26301413.2112        -93.955          50.000  
G19  23462146.094    -7111200.234       -4100.947          38.250  
C 5  39456573.844    -4717833.7332        259.111          35.500  
G 6  22665071.949   -15411938.376       -1483.408          42.000  
C22  24254179.975   -16002919.4832      -3018.311          45.000  
G 2  21579128.234   -25626401.556         768.623          46.250  
G 9  24811516.320    -8409163.283       -3506.406          36.500  
G30  25711097.917    -1382642.985        2303.574          30.250  
> 2020  6 29  9  3 33.5000000  0 27                     
G25  24032175.548      660262.380       -1014.189          38.000  
G17  24839054.282     7367660.475       -4184.961          34.250  
C11  24466207.991    -5398330.8652       3645.889          43.000  
G12  23384221.043   -13631862.396       -2435.088          40.750  
G13  22559732.218   -13918081.976        4338.955          41.250  
C16  37950295.383   -13311338.3172       2098.242          41.250  
C 8  37019912.393     -738315.2592        722.217          43.000  
C 7  39935290.204    16313828.3822      -1574.756          34.500  
C10  39051983.770    10169033.6722      -1868.135          36.000  
C 3  36424386.910    -4387854.5202        217.061          43.250  
C13  37057857.433    -4948319.7422        687.891          44.000  
C 2  37396338.434    -4966506.7502        269.414          39.000  
C 1  37852762.259    -4018130.6402        235.615          41.250  
C 6  37372126.628    -8546551.7832       1888.535          40.250  
C 4  38801692.427    -3971330.9522        210.654          37.250  
C12  21594193.325   -24751444.0602        811.123          46.250  
G 5  20552535.982   -30595670.222          23.389          47.000  
G15  24440813.474    -8254787.841        5074.209          35.250  
G29  23794923.566   -10630378.367        4390.693          40.750  
C21  21871899.153   -26301375.4992        -94.297          50.000  
G19  23462458.370    -7109559.762       -4101.172          38.500  
C 5  39456553.972    -4717937.4002        259.141          35.750  
G 6  22665184.847   -15411344.953       -1483.545          42.000  
C22  24254411.780   -16001712.0952      -3018.486          45.000  
G 2  21579069.841   -25626708.936         768.438          46.250  
G 9  24811783.217    -8407760.640       -3506.611          36.250  
G30  25710923.878    -1383564.387        2303.457          30.500  
> 2020  6 29  9  3 34.0000000  0 27                     
G25  24032252.556      660668.093       -1014.277          38.000  
G17  24839372.879     7369334.484       -4185.068          34.250  
C11  24465927.998    -5399789.2602       3645.967          43.000  
G12  23384406.639   -13630888.335       -2435.176          40.750  
G13  22559401.859   -13919817.549        4338.945          41.250  
C16  37950134.160   -13312177.6212       2098.242          41.250  
C 8  37019857.080     -738604.2182        722.383          43.000  
C 7  39935411.108    16314458.1562      -1574.404          34.500  
C10  39052127.181    10169780.8722      -1867.988          36.250  
C 3  36424370.193    -4387941.3872        217.148          43.250  
C13  37057804.612    -4948594.9722        688.076          44.000  
C 2  37396317.717    -4966614.5632        269.512          39.250  
C 1  37852744.338    -4018224.9332        235.723          41.250  
C 6  37371981.582    -8547307.2222       1888.574          40.250  
C 4  38801676.233    -3971415.2472        210.752          37.250  
C12  21594131.111   -24751768.4572        810.986          46.250  
G 5  20552534.075   -30595679.520          23.232          47.000  
G15  24440427.340    -8256817.582        5074.395          35.000  
G29  23794589.180   -10632134.645        4390.684          41.000  
C21  21871906.709   -26301337.7332        -94.434          50.000  
G19  23462770.515    -7107919.302       -4101.182          38.500  
C 5  39456534.040    -4718041.0882        259.219          35.500  
G 6  22665297.768   -15410751.537       -1483.574          42.000  
C22  24254643.497   -16000504.7332      -3018.428          45.000  
G 2  21579011.213   -25627016.334         768.496          46.250  
G 9  24812050.192    -8406357.955       -3506.787          36.000  
G30  25710748.887    -1384485.879        2303.721          30.500  
> 2020  6 29  9  3 34.5000000  0 27                     
G25  24032329.808      661073.928       -1014.619          38.000  
G17  24839691.258     7371008.539       -4185.117          34.000  
C11  24465647.987    -5401247.6162       3645.879          43.000  
G12  23384592.327   -13629914.184       -2435.371          40.750  
G13  22559071.548   -13921553.047        4338.721          41.250  
C16  37949972.925   -13313016.8982       2098.223          41.500  
C 8  37019801.597     -738893.1812        722.393          43.000  
C 7  39935532.116    16315087.9732      -1574.570          34.500  
C10  39052270.586    10170528.0482      -1867.939          36.000  
C 3  36424353.707    -4388028.2452        217.129          43.250  
C13  37057751.846    -4948870.2202        688.105          44.000  
C 2  37396296.994    -4966722.3672        269.512          39.250  
C 1  37852726.094    -4018319.2392        235.791          41.250  
C 6  37371836.632    -8548062.6242       1888.535          40.250  
C 4  38801660.039    -3971499.5512        210.742          37.250  
C12  21594068.705   -24752092.7252        810.664          46.500  
G 5  20552532.374   -30595688.726          23.008          47.000  
G15  24440041.041    -8258847.339        5074.355          35.000  
G29  23794254.935   -10633890.872        4390.547          41.000  
C21  21871914.138   -26301299.8542        -94.697          50.000  
G19  23463082.761    -7106278.753       -4101.357          38.500  
C 5  39456514.090    -4718144.7462        259.111          35.750  
G 6  22665410.614   -15410158.051       -1483.701          42.000  
C22  24254875.345   -15999297.3192      -3018.525          45.000  
G 2  21578952.646   -25627323.688         768.369          46.250  
G 9  24812317.049    -8404955.190       -3506.836          36.250  
G30  25710574.799    -1385407.270        2303.496          30.500  
> 2020  6 29  9  3 35.0000000  0 27                     
G25  24032407.161      661479.873       -1014.873          38.000  
G17  24840009.747     7372682.630       -4185.264          34.000  
C11  24465367.863    -5402705.9402       3645.811          43.000  
G12  23384777.744   -13628939.980       -2435.508          41.000  
G13  22558741.342   -13923288.478        4338.545          41.250  
C16  37949811.907   -13313856.1542       2098.105          41.250  
C 8  37019745.996     -739182.1722        722.471          43.000  
C 7  39935653.169    16315717.7602      -1574.512          34.500  
C10  39052414.145    10171275.2452      -1867.988          36.000  
C 3  36424336.802    -4388115.1162        217.178          43.250  
C13  37057699.064    -4949145.4812        688.154          44.000  
C 2  37396276.203    -4966830.1852        269.521          39.000  
C 1  37852708.085    -4018413.5352        235.742          41.000  
C 6  37371691.489    -8548818.0112       1888.438          40.000  
C 4  38801643.815    -3971583.8622        210.771          37.250  
C12  21594006.517   -24752416.9122        810.459          46.500  
G 5  20552530.607   -30595697.843          22.773          47.000  
G15  24439654.867    -8260877.057        5074.287          35.000  
G29  23793920.793   -10635647.033        4390.391          41.000  
C21  21871921.276   -26301261.8632        -94.990          50.000  
G19  23463395.181    -7104638.159       -4101.484          38.750  
C 5  39456494.205    -4718248.4532        259.287          35.750  
G 6  22665523.438   -15409564.537       -1483.789          42.000  
C22  24255107.184   -15998089.8762      -3018.623          45.000  
G 2  21578893.991   -25627631.008         768.281          46.250  
G 9  24812584.077    -8403552.313       -3507.207          36.250  
G30  25710399.040    -1386328.695        2303.604          30.500  
> 2020  6 29  9  3 35.5000000  0 27                     
G25  24032484.273      661885.922       -1015.117          38.000  
G17  24840328.344     7374356.768       -4185.332          33.750  
C11  24465087.918    -5404164.2062       3645.664          43.000  
G12  23384963.253   -13627965.663       -2435.801          41.000  
G13  22558410.939   -13925023.842        4338.428          41.250  
C16  37949650.711   -13314695.3532       2098.008          41.500  
C 8  37019690.522     -739471.1402        722.432          43.000  
C 7  39935774.003    16316347.5192      -1574.365          34.500  
C10  39052557.647    10172022.4532      -1867.998          36.000  
C 3  36424320.224    -4388201.9572        217.109          43.250  
C13  37057646.164    -4949420.7572        688.164          44.000  
C 2  37396255.550    -4966937.9282        269.395          39.250  
C 1  37852689.924    -4018507.8102        235.674          41.250  
C 6  37371546.491    -8549573.3312       1888.320          40.000  
C 4  38801627.494    -3971668.1322        210.625          37.250  
C12  21593944.359   -24752740.9602        810.107          46.500  
G 5  20552528.648   -30595706.827          22.451          47.000  
G15  24439268.493    -8262906.720        5074.219          34.750  
G29  23793586.770   -10637403.138        4390.293          41.000  
C21  21871928.308   -26301223.7432        -95.303          50.000  
G19  23463707.522    -7102997.457       -4101.816          38.500  
C 5  39456474.316    -4718352.0912        259.092          36.000  
G 6  22665636.389   -15408970.924       -1484.053          42.000  
C22  24255339.049   -15996882.3752      -3018.760          45.000  
G 2  21578835.624   -25627938.266         768.154          46.250  
G 9  24812850.930    -8402149.377       -3507.314          36.500  
G30  25710223.391    -1387250.119        2303.613          30.750  
> 2020  6 29  9  3 36.0000000  0 27                     
G25  24032561.551      662292.017       -1015.244          38.000  
G17  24840646.876     7376030.861       -4185.234          33.750  
C11  24464807.834    -5405622.5622       3645.879          42.750  
G12  23385148.819   -13626991.371       -2435.791          41.000  
G13  22558080.642   -13926759.236        4338.467          41.250  
C16  37949489.553   -13315534.6452       2098.223          41.250  
C 8  37019635.044     -739760.2352        722.734          43.000  
C 7  39935894.758    16316977.2092      -1574.238          34.500  
C10  39052701.075    10172769.5312      -1867.744          35.750  
C 3  36424303.559    -4388288.8942        217.324          43.250  
C13  37057593.307    -4949696.1332        688.447          44.000  
C 2  37396234.832    -4967045.8252        269.736          39.250  
C 1  37852671.845    -4018602.1672        235.879          41.250  
C 6  37371401.532    -8550328.7372       1888.486          40.250  
C 4  38801611.493    -3971752.5172        210.996          37.250  
C12  21593882.179   -24753064.9892        810.068          46.250  
G 5  20552527.069   -30595715.826          22.510          47.000  
G15  24438882.215    -8264936.560        5074.609          34.500  
G29  23793252.594   -10639159.284        4390.332          41.000  
C21  21871935.528   -26301185.6212        -95.312          50.000  
G19  23464019.611    -7101356.806       -4101.572          38.500  
C 5  39456454.380    -4718455.8462        259.365          35.750  
G 6  22665749.218   -15408377.387       -1483.848          42.000  
C22  24255571.015   -15995674.9312      -3018.613          44.750  
G 2  21578777.070   -25628245.588         768.301          46.250  
G 9  24813117.761    -8400746.464       -3507.275          36.500  
G30  25710047.977    -1388171.586        2303.584          30.750  
> 2020  6 29  9  3 36.5000000  0 27                     
G25  24032638.891      662698.263       -1015.615          37.750  
G17  24840965.508     7377705.009       -4185.322          34.000  
C11  24464527.854    -5407080.8602       3645.752          42.750  
G12  23385334.411   -13626016.998       -2435.908          41.000  
G13  22557750.449   -13928494.549        4338.301          41.250  
C16  37949328.436   -13316373.8772       2098.105          41.500  
C 8  37019579.678     -740049.3292        722.754          43.000  
C 7  39936015.614    16317606.8802      -1574.160          34.500  
C10  39052844.454    10173516.6662      -1867.832          35.750  
C 3  36424286.824    -4388375.7932        217.256          43.250  
C13  37057540.494    -4949971.5212        688.477          44.000  
C 2  37396214.337    -4967153.6712        269.609          39.000  
C 1  37852653.614    -4018696.5152        235.859          41.250  
C 6  37371256.477    -8551084.0802       1888.408          40.000  
C 4  38801595.220    -3971836.8472        210.820          37.250  
C12  21593820.070   -24753388.8942        809.766          46.500  
G 5  20552525.346   -30595724.700          22.197          47.000  
G15  24438495.889    -8266966.274        5074.238          34.750  
G29  23792918.383   -10640915.346        4390.146          41.000  
C21  21871943.228   -26301147.3602        -95.645          50.000  
G19  23464331.769    -7099716.046       -4101.934          38.500  
C 5  39456434.412    -4718559.5722        259.287          35.500  
G 6  22665862.256   -15407783.774       -1484.014          42.000  
C22  24255802.793   -15994467.4422      -3018.701          44.750  
G 2  21578718.808   -25628552.843         768.145          46.250  
G 9  24813384.771    -8399343.431       -3507.637          36.500  
G30  25709872.925    -1389093.075        2303.564          30.750  
> 2020  6 29  9  3 37.0000000  0 27                     
G25  24032716.191      663104.608       -1015.850          38.000  
G17  24841283.944     7379379.147       -4185.488          34.250  
C11  24464247.773    -5408539.1402       3645.684          42.750  
G12  23385520.094   -13625042.541       -2436.201          41.250  
G13  22557420.072   -13930229.828        4338.164          41.250  
C16  37949167.139   -13317213.0962       2097.988          41.500  
C 8  37019523.951     -740338.4432        722.725          43.000  
C 7  39936136.444    16318236.4852      -1574.023          34.500  
C10  39052987.856    10174263.7742      -1867.793          35.750  
C 3  36424270.212    -4388462.7132        217.275          43.250  
C13  37057487.607    -4950246.9442        688.535          44.000  
C 2  37396193.589    -4967261.5252        269.629          39.000  
C 1  37852635.645    -4018790.8692        235.889          41.250  
C 6  37371111.361    -8551839.4272       1888.330          40.250  
C 4  38801579.048    -3971921.2372        210.967          37.250  
C12  21593757.794   -24753712.7052        809.512          46.250  
G 5  20552523.727   -30595733.509          22.002          47.000  
G15  24438109.664    -8268996.043        5074.326          34.750  
G29  23792584.303   -10642671.398        4390.127          41.000  
C21  21871950.841   -26301109.0092        -95.898          50.000  
G19  23464643.718    -7098075.265       -4101.924          38.500  
C 5  39456414.466    -4718663.2872        259.297          35.500  
G 6  22665975.185   -15407190.124       -1484.180          42.000  
C22  24256034.742   -15993259.9332      -3018.789          44.750  
G 2  21578660.368   -25628860.074         768.057          46.250  
G 9  24813651.860    -8397940.334       -3507.754          36.500  
G30  25709697.079    -1390014.592        2303.770          31.000  
> 2020  6 29  9  3 37.5000000  0 27                     
G25  24032793.504      663511.017       -1016.016          38.000  
G17  24841602.345     7381053.318       -4185.361          34.500  
C11  24463967.719    -5409997.4082       3645.674          42.750  
G12  23385705.651   -13624068.048       -2436.191          41.000  
G13  22557089.823   -13931965.039        4338.057          41.000  
C16  37949006.117   -13318052.3182       2098.086          41.250  
C 8  37019468.512     -740627.5892        722.891          43.000  
C 7  39936257.387    16318866.0862      -1574.014          34.250  
C10  39053131.327    10175010.8742      -1867.705          35.750  
C 3  36424253.385    -4388549.6522        217.354          43.250  
C13  37057434.728    -4950522.4122        688.672          44.000  
C 2  37396173.050    -4967369.4332        269.736          39.000  
C 1  37852617.383    -4018885.2412        235.918          41.250  
C 6  37370966.463    -8552594.7422       1888.271          40.250  
C 4  38801562.898    -3972005.5882        210.850          37.500  
C12  21593695.558   -24754036.4192        809.268          46.250  
G 5  20552522.091   -30595742.223          21.777          47.000  
G15  24437723.211    -8271025.809        5074.482          35.000  
G29  23792250.149   -10644427.400        4390.000          41.000  
C21  21871958.026   -26301070.5592        -96.123          50.000  
G19  23464955.955    -7096434.427       -4102.148          38.500  
C 5  39456394.534    -4718767.0352        259.395          35.500  
G 6  22666088.123   -15406596.435       -1484.189          42.000  
C22  24256266.686   -15992052.3952      -3018.848          44.750  
G 2  21578602.040   -25629167.287         768.037          46.250  
G 9  24813919.040    -8396537.156       -3507.910          36.500  
G30  25709522.821    -1390936.092        2303.857          31.000  
> 2020  6 29  9  3 38.0000000  0 27                     
G25  24032870.926      663917.557       -1016.377          38.000  
G17  24841920.877     7382727.536       -4185.508          34.500  
C11  24463687.695    -5411455.6712       3645.635          42.750  
G12  23385891.243   -13623093.502       -2436.367          41.000  
G13  22556759.425   -13933700.214        4337.920          41.000  
C16  37948844.999   -13318891.5142       2097.969          41.500  
C 8  37019412.933     -740916.7572        722.910          43.000  
C 7  39936378.378    16319495.6482      -1573.916          34.250  
C10  39053274.912    10175757.9432      -1867.705          35.750  
C 3  36424236.904    -4388636.5922        217.344          43.250  
C13  37057381.797    -4950797.9052        688.740          44.000  
C 2  37396152.140    -4967477.3112        269.697          39.000  
C 1  37852599.462    -4018979.6312        235.957          41.250  
C 6  37370821.265    -8553350.0622       1888.291          40.250  
C 4  38801546.613    -3972089.9992        210.977          37.250  
C12  21593633.413   -24754360.0442        809.082          46.250  
G 5  20552520.442   -30595750.863          21.582          47.000  
G15  24437336.964    -8273055.571        5074.414          35.000  
G29  23791916.064   -10646183.350        4389.873          41.000  
C21  21871965.163   -26301032.0232        -96.357          50.000  
G19  23465268.388    -7094793.536       -4102.236          38.500  
C 5  39456374.658    -4718870.8232        259.492          35.500  
G 6  22666201.200   -15406002.718       -1484.307          42.000  
C22  24256498.490   -15990844.8432      -3018.887          44.750  
G 2  21578543.599   -25629474.489         768.008          46.500  
G 9  24814186.090    -8395133.919       -3508.096          36.500  
G30  25709348.127    -1391857.567        2303.740          31.000  
> 2020  6 29  9  3 38.5000000  0 27                     
G25  24032948.135      664324.212       -1016.650          38.000  
G17  24842239.575     7384401.767       -4185.615          34.250  
C11  24463407.667    -5412913.8682       3645.527          42.750  
G12  23386076.678   -13622118.835       -2436.641          41.000  
G13  22556429.044   -13935435.302        4337.744          41.000  
C16  37948683.755   -13319730.6752       2097.900          41.500  
C 8  37019357.541     -741205.9122        722.920          43.000  
C 7  39936499.282    16320125.2182      -1573.896          34.250  
C10  39053418.431    10176505.0152      -1867.695          35.750  
C 3  36424220.060    -4388723.5082        217.295          43.250  
C13  37057329.041    -4951073.4022        688.740          44.000  
C 2  37396131.331    -4967585.1832        269.707          39.250  
C 1  37852581.362    -4019073.9882        235.938          41.250  
C 6  37370676.231    -8554105.3312       1888.203          40.250  
C 4  38801530.445    -3972174.3392        210.918          37.500  
C12  21593571.317   -24754683.5342        808.730          46.250  
G 5  20552518.671   -30595759.374          21.289          47.000  
G15  24436950.707    -8275085.305        5074.277          34.750  
G29  23791581.949   -10647939.234        4389.707          41.000  
C21  21871972.553   -26300993.3532        -96.670          50.000  
G19  23465580.794    -7093152.549       -4102.441          38.500  
C 5  39456354.673    -4718974.5452        259.277          35.500  
G 6  22666314.404   -15405408.919       -1484.502          42.000  
C22  24256730.416   -15989637.2182      -3019.072          44.750  
G 2  21578485.098   -25629781.617         767.812          46.250  
G 9  24814453.113    -8393730.634       -3508.242          36.500  
G30  25709170.680    -1392779.037        2303.701          31.250  
> 2020  6 29  9  3 39.0000000  0 27                     
G25  24033025.618      664731.041       -1017.051          38.000  
G17  24842558.141     7386076.088       -4185.811          34.250  
C11  24463127.700    -5414371.9942       3645.273          42.750  
G12  23386262.169   -13621144.050       -2436.973          41.000  
G13  22556098.912   -13937170.263        4337.363          41.250  
C16  37948522.545   -13320569.7412       2097.666          41.500  
C 8  37019302.006     -741495.0262        722.754          43.000  
C 7  39936620.103    16320754.8512      -1574.150          34.250  
C10  39053561.994    10177252.2052      -1867.959          35.750  
C 3  36424203.552    -4388810.3752        217.129          43.250  
C13  37057276.071    -4951348.8352        688.535          44.000  
C 2  37396110.500    -4967692.9742        269.453          39.000  
C 1  37852563.357    -4019168.2842        235.693          41.250  
C 6  37370531.128    -8554860.4952       1887.861          40.250  
C 4  38801514.264    -3972258.6612        210.840          37.250  
C12  21593509.268   -24755006.8612        808.291          46.500  
G 5  20552516.917   -30595767.737          20.879          47.000  
G15  24436564.368    -8277114.977        5074.180          34.750  
G29  23791247.821   -10649695.018        4389.443          41.000  
C21  21871980.122   -26300954.5262        -97.070          50.000  
G19  23465892.970    -7091511.450       -4102.734          38.250  
C 5  39456334.771    -4719078.2222        259.160          35.750  
G 6  22666427.377   -15404815.016       -1484.746          42.250  
C22  24256962.448   -15988429.5052      -3019.297          44.750  
G 2  21578426.670   -25630088.654         767.578          46.500  
G 9  24814720.302    -8392327.153       -3508.691          36.500  
G30  25708994.760    -1393700.470        2303.545          31.250  
> 2020  6 29  9  3 39.5000000  0 27                     
G25  24033103.206      665138.015       -1017.422          37.750  
G17  24842876.708     7387750.513       -4186.094          34.000  
C11  24462847.568    -5415830.0682       3645.195          42.750  
G12  23386447.626   -13620169.181       -2437.197          41.000  
G13  22555768.758   -13938905.168        4337.246          41.000  
C16  37948361.632   -13321408.7742       2097.578          41.500  
C 8  37019246.418     -741784.1462        722.793          43.000  
C 7  39936741.063    16321384.4732      -1574.023          34.000  
C10  39053705.195    10177999.3532      -1867.871          36.000  
C 3  36424186.765    -4388897.2232        217.139          43.250  
C13  37057223.271    -4951624.3002        688.672          44.000  
C 2  37396089.721    -4967800.7932        269.512          39.250  
C 1  37852545.017    -4019262.5652        235.693          41.250  
C 6  37370386.004    -8555615.6472       1887.900          40.250  
C 4  38801498.105    -3972342.9452        210.625          37.250  
C12  21593447.128   -24755330.0572        807.988          46.250  
G 5  20552515.286   -30595775.992          20.654          47.000  
G15  24436177.968    -8279144.600        5074.072          35.000  
G29  23790913.584   -10651450.725        4389.277          40.750  
C21  21871987.883   -26300915.5732        -97.402          50.000  
G19  23466205.246    -7089870.278       -4102.939          38.250  
C 5  39456314.834    -4719181.9102        259.199          35.750  
G 6  22666540.463   -15404221.062       -1484.941          42.000  
C22  24257194.422   -15987221.7432      -3019.414          44.750  
G 2  21578368.246   -25630395.633         767.432          46.500  
G 9  24814987.570    -8390923.595       -3508.926          36.500  
G30  25708820.485    -1394621.861        2303.486          31.500  
> 2020  6 29  9  3 40.0000000  0 27                     
G25  24033180.698      665545.066       -1017.656          38.000  
G17  24843195.450     7389424.889       -4185.908          34.250  
C11  24462567.439    -5417288.1652       3645.234          42.750  
G12  23386633.087   -13619194.272       -2437.266          40.750  
G13  22555438.674   -13940640.038        4337.158          41.250  
C16  37948200.515   -13322247.8412       2097.656          41.500  
C 8  37019190.835     -742073.3322        722.959          43.000  
C 7  39936862.015    16322013.9872      -1573.799          34.000  
C10  39053848.745    10178746.4522      -1867.773          35.750  
C 3  36424170.357    -4388984.1172        217.246          43.250  
C13  37057170.484    -4951899.8162        688.809          44.000  
C 2  37396069.156    -4967908.6042        269.570          39.000  
C 1  37852526.834    -4019356.8942        235.830          41.250  
C 6  37370240.918    -8556370.7982       1887.881          40.250  
C 4  38801481.803    -3972427.2582        210.830          37.000  
C12  21593385.044   -24755653.1972        807.852          46.250  
G 5  20552513.545   -30595784.193          20.479          47.000  
G15  24435791.795    -8281174.248        5074.102          35.000  
G29  23790579.400   -10653206.432        4389.238          40.750  
C21  21871995.313   -26300876.5602        -97.529          50.000  
G19  23466517.653    -7088229.097       -4102.939          38.250  
C 5  39456295.020    -4719285.6072        259.268          36.000  
G 6  22666653.554   -15403627.103       -1484.854          42.000  
C22  24257426.283   -15986013.9962      -3019.365          44.750  
G 2  21578309.784   -25630702.625         767.500          46.500  
G 9  24815254.850    -8389520.011       -3508.965          36.500  
G30  25708646.615    -1395543.281        2303.506          31.250  
> 2020  6 29  9  3 40.5000000  0 27                     
G25  24033258.203      665952.172       -1017.725          37.750  
G17  24843514.082     7391099.322       -4186.094          34.500  
C11  24462287.333    -5418746.2482       3645.215          42.750  
G12  23386818.626   -13618219.317       -2437.363          40.750  
G13  22555108.590   -13942374.879        4337.119          41.250  
C16  37948039.436   -13323086.8582       2097.549          41.500  
C 8  37019135.540     -742362.5352        723.008          43.000  
C 7  39936982.853    16322643.4842      -1573.730          34.250  
C10  39053992.487    10179493.5712      -1867.842          35.750  
C 3  36424153.335    -4389071.0082        217.217          43.250  
C13  37057117.579    -4952175.3582        688.828          44.000  
C 2  37396048.460    -4968016.4492        269.590          39.000  
C 1  37852508.677    -4019451.2272        235.820          41.250  
C 6  37370095.964    -8557125.9462       1887.822          40.000  
C 4  38801465.666    -3972511.6252        210.850          37.250  
C12  21593323.009   -24755976.2322        807.588          46.250  
G 5  20552512.036   -30595792.315          20.303          47.000  
G15  24435405.429    -8283203.939        5074.287          35.000  
G29  23790245.315   -10654962.091        4389.150          40.750  
C21  21872002.602   -26300837.4432        -97.803          50.000  
G19  23466829.890    -7086587.860       -4103.135          38.250  
C 5  39456275.057    -4719389.3292        259.277          36.000  
G 6  22666766.714   -15403033.098       -1485.029          42.000  
C22  24257658.319   -15984806.2172      -3019.463          44.750  
G 2  21578251.352   -25631009.594         767.402          46.500  
G 9  24815521.921    -8388116.330       -3509.209          36.750  
G30  25708471.708    -1396464.732        2303.662          31.500  
