     3.02           OBSERVATION DATA    M: Mixed            RINEX VERSION / TYPE
RTKCONV 2.4.3 b33                       20200629 092257 UTC PGM / RUN BY / DATE 
log: D:\Documents\²âÊÔÊý¾Ý\¾²Ö¹\base_202006290902.log       COMMENT             
format: u-blox                                              COMMENT             
                                                            MARKER NAME         
                                                            MARKER NUMBER       
                                                            MARKER TYPE         
                                                            OBSERVER / AGENCY   
                                                            REC # / TYPE / VERS 
                                                            ANT # / TYPE        
 -2191140.4566  5198847.7139  2965377.0062                  APPROX POSITION XYZ 
        0.0000        0.0000        0.0000                  ANTENNA: DELTA H/E/N
G    4 C1C L1C D1C S1C                                      SYS / # / OBS TYPES 
C    4 C1I L1I D1I S1I                                      SYS / # / OBS TYPES 
  2020     6    29     9     2   23.0000000     GPS         TIME OF FIRST OBS   
  2020     6    29     9     4    0.0000000     GPS         TIME OF LAST OBS    
G                                                           SYS / PHASE SHIFT   
C                                                           SYS / PHASE SHIFT   
  0                                                         GLONASS SLOT / FRQ #
 C1C    0.000 C1P    0.000 C2C    0.000 C2P    0.000        GLONASS COD/PHS/BIS 
                                                            END OF HEADER       
> 2020  6 29  9  2 23.0000000  0 28                     
C21  21857729.236   -18599884.2302        115.117          49.500  
C16  37959713.754   -22084308.7772       1845.752          40.500  
G17  24780845.926     3590220.647       -3176.250          34.500  
G 9  24760940.720   -11017003.946       -2621.084          35.750  
C 6  37379277.657   -22605096.4722       1678.486          40.250  
C11  24492398.203   -15034499.4682       3084.375          43.250  
G25  24008160.397    -8053021.591        -617.441          36.500  
C 8  37014349.050    -4206153.0062        733.438          45.000  
C 7  39904843.496    12716735.8093      -1105.000          32.000  
C10  39018397.956     6555101.0502      -1334.971          34.250  
C 3  36413388.574    -7883105.9282        334.404          42.500  
C13  37051920.686    -8419213.2762        704.990          46.000  
C 2  37385912.728    -8458824.4922        376.279          38.250  
C 1  37841956.753    -7512312.0262        349.014          41.250  
C 4  38790614.165    -7466928.8702        329.141          37.750  
G13  22593059.298    -9103904.657        3649.541          40.000  
C 9  39085765.455    -4314073.1552       1822.656          32.750  
G15  24481942.975    -3386546.2511       4223.633          32.500  
G 2  21574031.470   -25715085.121         786.797          47.750  
C 5  39446018.792    -8199514.8643        368.008          35.250  
C12  21589828.638   -29872177.1252        839.473          46.250  
G19  23405202.801   -10883967.435       -3101.387          37.250  
G 6  22635993.063   -19065996.925       -1011.543          43.750  
G29  23828795.699    -8712534.680        3688.408          43.500  
C22  24208426.874   -21765382.8442      -2244.473          47.000  
G12  23344876.059   -13827733.103       -1765.488          38.250  
G30  25722292.921    -2056268.415        2005.488          33.000  
G 5  20539617.424   -30443061.494         207.373          47.500  
> 2020  6 29  9  2 24.0000000  0 28                     
C21  21857706.991   -18599999.0702        114.756          49.500  
C16  37959359.279   -22086154.5232       1845.791          40.500  
G17  24781450.520     3593396.936       -3176.348          34.500  
G 9  24761439.378   -11014382.656       -2621.299          36.000  
C 6  37378955.509   -22606774.9912       1678.535          40.250  
C11  24491806.056   -15037583.8292       3084.395          43.250  
G25  24008277.759    -8052403.851        -617.871          36.500  
C 8  37014208.091    -4206886.5472        733.584          45.250  
C 7  39905055.778    12717840.6862      -1104.766          32.250  
C10  39018654.221     6556435.8872      -1334.795          34.250  
C 3  36413324.283    -7883440.3722        334.502          42.500  
C13  37051785.085    -8419918.4252        705.205          46.000  
C 2  37385840.754    -8459200.7782        376.318          38.500  
C 1  37841889.666    -7512661.1052        349.121          41.250  
C 4  38790551.104    -7467258.0662        329.209          37.500  
G13  22592365.050    -9107554.039        3649.336          40.250  
C 9  39085415.543    -4315895.8642       1822.666          33.000  
G15  24481139.348    -3390769.868        4223.730          32.750  
G 2  21573881.935   -25715871.883         786.768          47.750  
C 5  39445948.258    -8199882.8612        368.066          35.500  
C12  21589667.529   -29873016.3192        839.102          46.250  
G19  23405792.789   -10880865.936       -3101.465          37.250  
G 6  22636185.434   -19064985.298       -1011.621          43.750  
G29  23828093.978    -8716223.035        3688.350          43.500  
C22  24208857.847   -21763138.3082      -2244.521          47.000  
G12  23345212.351   -13825967.428       -1765.781          38.750  
G30  25721911.224    -2058273.935        2005.488          32.500  
G 5  20539577.912   -30443268.662         207.139          47.500  
> 2020  6 29  9  2 25.0000000  0 28                     
C21  21857684.895   -18600113.6202        114.404          49.500  
C16  37959004.961   -22088000.2882       1845.703          40.500  
G17  24782055.008     3596573.214       -3176.357          34.250  
G 9  24761938.201   -11011761.187       -2621.582          35.750  
C 6  37378632.907   -22608453.5442       1678.457          40.250  
C11  24491213.634   -15040668.2382       3084.346          43.250  
G25  24008395.635    -8051785.802        -618.203          36.500  
C 8  37014067.264    -4207620.2982        733.730          45.250  
C 7  39905268.025    12718945.3502      -1104.707          32.250  
C10  39018910.490     6557770.5792      -1334.619          34.500  
C 3  36413259.966    -7883774.9352        334.541          42.500  
C13  37051649.545    -8420623.7972        705.352          46.000  
C 2  37385768.502    -8459577.2322        376.426          38.250  
C 1  37841822.740    -7513010.3222        349.160          41.250  
C 4  38790487.934    -7467587.3722        329.268          37.500  
G13  22591670.705    -9111203.335        3649.189          40.250  
C 9  39085065.378    -4317718.7192       1822.861          33.000  
G15  24480335.840    -3394993.589        4223.711          32.500  
G 2  21573732.129   -25716658.634         786.680          47.750  
C 5  39445877.702    -8200251.0182        368.203          35.250  
C12  21589506.463   -29873855.2282        838.740          46.250  
G19  23406382.942   -10877764.337       -3101.719          37.500  
G 6  22636378.229   -19063973.622       -1011.787          43.750  
G29  23827392.178    -8719911.337        3688.242          43.500  
C22  24209288.946   -21760893.7662      -2244.619          47.000  
G12  23345548.455   -13824201.604       -1765.889          38.750  
G30  25721529.409    -2060279.676        2005.801          32.250  
G 5  20539538.662   -30443475.585         206.807          47.500  
> 2020  6 29  9  2 26.0000000  0 28                     
C21  21857663.318   -18600227.7162        113.916          49.500  
C16  37958650.468   -22089845.9452       1845.576          40.500  
G17  24782659.593     3599749.659       -3176.543          34.250  
G 9  24762437.142   -11009139.345       -2621.904          35.500  
C 6  37378310.828   -22610131.9482       1678.311          40.250  
C11  24490621.208   -15043752.5042       3084.150          43.250  
G25  24008513.223    -8051167.319        -618.672          36.500  
C 8  37013926.384    -4208354.0762        733.750          45.250  
C 7  39905480.342    12720049.9432      -1104.551          32.250  
C10  39019166.843     6559105.3172      -1334.746          34.500  
C 3  36413195.767    -7884109.4682        334.482          42.500  
C13  37051514.070    -8421329.2032        705.420          46.000  
C 2  37385696.306    -8459953.6212        376.318          38.500  
C 1  37841755.377    -7513359.5052        349.111          41.250  
C 4  38790424.655    -7467916.6572        329.248          37.500  
G13  22590976.732    -9114852.358        3648.867          40.250  
C 9  39084715.275    -4319541.4742       1822.695          33.000  
G15  24479532.262    -3399217.226        4223.506          32.250  
G 2  21573582.463   -25717445.209         786.475          47.750  
C 5  39445807.055    -8200619.1012        368.076          35.750  
C12  21589345.419   -29874693.6772        838.262          46.250  
G19  23406973.113   -10874662.432       -3102.100          37.500  
G 6  22636570.840   -19062961.709       -1012.051          43.750  
G29  23826690.418    -8723599.407        3687.979          43.250  
C22  24209720.045   -21758649.0402      -2244.844          47.000  
G12  23345884.712   -13822435.470       -1766.348          38.750  
G30  25721147.803    -2062285.295        2005.576          32.250  
G 5  20539499.408   -30443682.085         206.338          47.500  
> 2020  6 29  9  2 27.0000000  0 27                     
C21  21857641.287   -18600341.4182        113.574          49.500  
C16  37958296.229   -22091691.5152       1845.479          40.250  
G17  24783263.785     3602926.248       -3176.611          34.500  
G 9  24762936.035   -11006517.231       -2622.168          35.750  
C 6  37377988.483   -22611810.2932       1678.330          40.250  
C11  24490029.065   -15046836.7282       3084.199          43.250  
G25  24008631.051    -8050548.352        -619.102          36.500  
C 8  37013785.600    -4209087.9712        733.926          45.250  
C 7  39905692.366    12721154.4172      -1104.355          32.250  
C10  39019423.317     6560440.0012      -1334.678          34.500  
C 3  36413131.472    -7884444.0272        334.531          42.500  
C13  37051378.678    -8422034.7182        705.547          46.000  
C 2  37385624.036    -8460330.0742        376.426          38.250  
C 1  37841688.307    -7513708.7122        349.199          41.250  
C 4  38790361.359    -7468245.9942        329.277          37.750  
G13  22590282.466    -9118501.199        3648.760          40.250  
C 9  39084365.459    -4321364.2712       1822.793          33.000  
G15  24478728.527    -3403440.916        4223.545          32.250  
G 2  21573432.788   -25718231.685         786.436          47.500  
C12  21589184.502   -29875531.7392        837.920          46.250  
G19  23407563.663   -10871560.304       -3102.178          37.500  
G 6  22636763.311   -19061949.669       -1012.129          44.000  
G29  23825988.670    -8727287.321        3687.871          43.500  
C22  24210150.982   -21756404.2252      -2244.863          47.000  
G12  23346221.318   -13820669.056       -1766.514          39.250  
G30  25720766.337    -2064290.979        2005.693          32.500  
G 5  20539460.337   -30443888.235         206.035          47.500  
> 2020  6 29  9  2 28.0000000  0 28                     
C21  21857619.758   -18600454.6642        113.164          49.500  
C16  37957941.846   -22093536.9872       1845.449          40.500  
G17  24783868.492     3606102.990       -3176.719          34.750  
G 9  24763435.054   -11003894.792       -2622.539          35.750  
C 6  37377666.182   -22613488.5082       1678.203          40.250  
C11  24489436.796   -15049920.7872       3084.023          43.250  
G25  24008749.128    -8049928.920        -619.473          36.500  
C 8  37013644.742    -4209821.8822        733.994          45.250  
C 7  39905904.600    12722258.8312      -1104.385          32.500  
C10  39019679.714     6561774.6742      -1334.619          34.250  
C 3  36413067.150    -7884778.5782        334.570          42.500  
C13  37051243.190    -8422740.3182        705.654          46.000  
C 2  37385551.421    -8460706.4652        376.416          38.250  
C 1  37841621.447    -7514057.9202        349.229          41.000  
C 4  38790298.124    -7468575.2742        329.355          37.500  
G13  22589587.939    -9122149.783        3648.555          40.250  
C 9  39084015.512    -4323187.0302       1822.871          33.000  
G15  24477924.687    -3407664.542        4223.643          32.500  
G 2  21573283.122   -25719017.994         786.328          47.500  
C 5  39445665.870    -8201355.3713        368.135          35.500  
C12  21589023.790   -29876369.3652        837.520          46.250  
G19  23408154.021   -10868457.928       -3102.412          37.500  
G 6  22636955.892   -19060937.408       -1012.295          44.000  
G29  23825286.801    -8730974.996        3687.646          43.250  
C22  24210582.107   -21754159.2452      -2244.990          47.000  
G12  23346557.614   -13818902.316       -1766.846          39.250  
G30  25720384.565    -2066296.588        2005.615          32.250  
G 5  20539421.039   -30444094.000         205.703          47.500  
> 2020  6 29  9  2 29.0000000  0 28                     
C21  21857597.797   -18600567.5902        112.705          49.500  
C16  37957587.375   -22095382.4772       1845.420          40.500  
G17  24784473.011     3609279.754       -3176.963          34.750  
G 9  24763933.886   -11001272.127       -2622.891          35.750  
C 6  37377343.916   -22615166.7362       1678.154          40.250  
C11  24488844.584   -15053004.9022       3084.004          43.250  
G25  24008866.869    -8049309.149        -619.941          36.500  
C 8  37013503.783    -4210555.9992        734.053          45.250  
C 7  39906116.520    12723363.0902      -1104.453          32.250  
C10  39019935.983     6563109.2252      -1334.541          34.500  
C 3  36413002.754    -7885113.2162        334.551          42.500  
C13  37051107.715    -8423446.0852        705.723          46.000  
C 2  37385478.989    -8461082.9922        376.592          38.250  
C 1  37841554.429    -7514407.2202        349.277          41.250  
C 4  38790234.766    -7468904.6802        329.355          37.750  
G13  22588893.621    -9125798.284        3648.418          40.250  
C 9  39083665.347    -4325009.8492       1822.822          33.250  
G15  24477120.912    -3411888.242        4223.652          32.250  
G 2  21573133.591   -25719804.268         786.152          47.500  
C 5  39445594.908    -8201723.5852        368.213          35.750  
C12  21588862.908   -29877206.6532        837.080          46.250  
G19  23408744.633   -10865355.393       -3102.656          37.750  
G 6  22637148.852   -19059925.070       -1012.490          44.000  
G29  23824585.245    -8734662.569        3687.432          43.500  
C22  24211013.424   -21751914.2202      -2245.166          47.000  
G12  23346894.094   -13817135.409       -1767.080          39.250  
G30  25720002.380    -2068302.286        2005.674          32.250  
G 5  20539381.366   -30444299.480         205.283          47.250  
> 2020  6 29  9  2 30.0000000  0 28                     
C21  21857576.394   -18600680.1962        112.510          49.500  
C16  37957232.743   -22097227.9692       1845.557          40.250  
G17  24785077.495     3612456.559       -3176.787          35.000  
G 9  24764432.932   -10998649.285       -2622.822          35.500  
C 6  37377021.506   -22616844.9642       1678.164          40.250  
C11  24488252.445   -15056088.9922       3084.053          43.250  
G25  24008984.671    -8048689.043        -620.215          36.500  
C 8  37013362.667    -4211290.2642        734.336          45.250  
C 7  39906328.741    12724467.1142      -1103.906          32.500  
C10  39020192.388     6564443.6682      -1334.365          34.500  
C 3  36412938.490    -7885447.9592        334.805          42.500  
C13  37050972.153    -8424152.0422        706.025          46.000  
C 2  37385406.510    -8461459.6182        376.641          38.500  
C 1  37841487.237    -7514756.6312        349.492          41.250  
C 4  38790171.645    -7469234.2032        329.590          37.750  
G13  22588199.591    -9129446.609        3648.389          40.250  
C 9  39083315.265    -4326832.7402       1823.027          33.000  
G15  24476317.225    -3416112.007        4223.691          32.250  
G 2  21572984.025   -25720590.506         786.240          47.750  
C 5  39445524.217    -8202091.8792        368.359          35.500  
C12  21588702.231   -29878043.6202        836.855          46.250  
G19  23409335.122   -10862252.706       -3102.676          37.500  
G 6  22637341.756   -19058912.650       -1012.432          44.000  
G29  23823883.611    -8738350.064        3687.461          43.500  
C22  24211444.414   -21749669.1722      -2245.068          47.000  
G12  23347230.421   -13815368.303       -1767.119          39.250  
G30  25719620.769    -2070308.140        2005.918          32.250  
G 5  20539342.509   -30444504.700         205.146          47.250  
> 2020  6 29  9  2 31.0000000  0 28                     
C21  21857554.930   -18600792.3632        112.012          49.500  
C16  37956878.242   -22099073.3442       1845.312          40.500  
G17  24785681.918     3615633.535       -3177.109          35.000  
G 9  24764932.061   -10996026.055       -2623.125          35.750  
C 6  37376699.052   -22618523.0712       1677.979          40.250  
C11  24487660.006   -15059172.9762       3083.926          43.250  
G25  24009102.700    -8048068.450        -620.811          36.750  
C 8  37013221.726    -4212024.5902        734.297          45.000  
C 7  39906540.630    12725571.1072      -1104.014          32.000  
C10  39020448.588     6565778.1582      -1334.492          34.500  
C 3  36412874.447    -7885782.6752        334.668          42.500  
C13  37050836.727    -8424858.0742        706.006          46.000  
C 2  37385334.279    -8461836.2282        376.592          38.500  
C 1  37841419.984    -7515106.0102        349.336          41.000  
C 4  38790108.401    -7469563.6542        329.414          37.500  
G13  22587504.946    -9133094.710        3648.008          40.250  
C 9  39082965.175    -4328655.5922       1822.812          33.000  
G15  24475513.381    -3420335.751        4223.828          32.000  
G 2  21572834.521   -25721376.583         785.996          47.750  
C 5  39445453.605    -8202460.2072        368.262          35.500  
C12  21588541.684   -29878880.1462        836.348          46.500  
G19  23409925.650   -10859149.755       -3103.047          37.500  
G 6  22637534.454   -19057900.017       -1012.734          44.000  
G29  23823182.195    -8742037.343        3687.139          43.500  
C22  24211875.583   -21747423.9552      -2245.312          47.000  
G12  23347567.127   -13813600.882       -1767.529          39.250  
G30  25719239.124    -2072313.929        2005.723          31.750  
G 5  20539303.665   -30444709.517         204.648          47.250  
> 2020  6 29  9  2 32.0000000  0 28                     
C21  21857533.174   -18600904.1702        111.602          49.500  
C16  37956523.919   -22100918.7092       1845.254          40.500  
G17  24786286.738     3618810.550       -3177.207          35.000  
G 9  24765431.359   -10993402.603       -2623.574          35.500  
C 6  37376377.017   -22620201.1562       1677.949          40.250  
C11  24487067.680   -15062256.9412       3083.828          43.250  
G25  24009220.690    -8047447.492        -621.104          36.500  
C 8  37013080.733    -4212759.0932        734.424          45.250  
C 7  39906752.511    12726674.9282      -1103.945          32.000  
C10  39020704.831     6567112.4802      -1334.326          34.500  
C 3  36412810.113    -7886117.4782        334.707          42.500  
C13  37050700.999    -8425564.2852        706.172          46.000  
C 2  37385262.070    -8462212.8982        376.621          38.250  
C 1  37841352.871    -7515455.4702        349.414          41.000  
C 4  38790045.113    -7469893.2052        329.414          37.500  
G13  22586810.711    -9136742.658        3647.842          40.250  
C 9  39082615.115    -4330478.4772       1822.803          33.250  
G15  24474709.410    -3424559.518        4223.613          32.000  
G 2  21572684.850   -25722162.602         785.898          47.750  
C 5  39445382.932    -8202828.6062        368.320          35.750  
C12  21588381.064   -29879716.3262        835.947          46.500  
G19  23410515.969   -10856046.634       -3103.320          37.500  
G 6  22637727.087   -19056887.272       -1012.861          44.000  
G29  23822480.422    -8745724.520        3687.012          43.500  
C22  24212306.839   -21745178.6812      -2245.381          47.000  
G12  23347904.117   -13811833.232       -1767.832          39.500  
G30  25718857.375    -2074319.830        2005.898          32.000  
G 5  20539264.816   -30444914.038         204.336          47.250  
> 2020  6 29  9  2 33.0000000  0 28                     
C21  21857512.133   -18601015.3792        110.938          49.500  
C16  37956169.501   -22102763.8052       1844.922          40.500  
G17  24786891.498     3621987.914       -3177.578          34.750  
G 9  24765930.457   -10990778.691       -2624.121          35.500  
C 6  37376055.078   -22621878.9702       1677.646          40.250  
C11  24486475.791   -15065340.6212       3083.555          43.250  
G25  24009338.928    -8046825.882        -621.768          36.750  
C 8  37012939.796    -4213493.4792        734.287          45.250  
C 7  39906964.614    12727778.8332      -1103.945          32.000  
C10  39020961.236     6568447.0302      -1334.736          34.250  
C 3  36412745.761    -7886452.0862        334.502          42.500  
C13  37050565.310    -8426270.3762        705.996          46.000  
C 2  37385189.848    -8462589.3852        376.357          38.250  
C 1  37841285.875    -7515804.7562        349.180          41.250  
C 4  38789981.655    -7470222.6052        329.277          37.500  
G13  22586116.580    -9140390.183        3647.334          40.250  
C 9  39082264.924    -4332301.2222       1822.549          33.000  
G15  24473905.579    -3428783.124        4223.457          31.750  
G 2  21572535.398   -25722948.298         785.518          47.750  
C 5  39445311.966    -8203196.7662        368.057          35.750  
C12  21588220.495   -29880551.9222        835.342          46.500  
G19  23411106.786   -10852943.066       -3103.750          37.750  
G 6  22637919.886   -19055874.160       -1013.301          44.000  
G29  23821778.744    -8749411.317        3686.621          43.500  
C22  24212738.121   -21742933.0872      -2245.762          47.000  
G12  23348240.832   -13810065.110       -1768.301          39.500  
G30  25718475.542    -2076325.509        2005.625          31.500  
G 5  20539225.841   -30445117.995         203.750          47.250  
> 2020  6 29  9  2 34.0000000  0 28                     
C21  21857490.748   -18601126.2992        110.771          49.500  
C16  37955815.135   -22104608.9342       1845.117          40.500  
G17  24787496.100     3625165.244       -3177.324          34.750  
G 9  24766429.691   -10988154.553       -2624.248          35.250  
C 6  37375732.899   -22623556.8152       1677.783          40.250  
C11  24485883.535   -15068424.3572       3083.672          43.500  
G25  24009457.433    -8046203.965        -622.080          36.500  
C 8  37012798.720    -4214228.0482        734.570          45.250  
C 7  39907176.533    12728882.5922      -1103.838          32.250  
C10  39021217.322     6569781.4092      -1334.492          34.500  
C 3  36412681.758    -7886786.8372        334.746          42.500  
C13  37050429.840    -8426976.6752        706.309          46.000  
C 2  37385117.530    -8462966.0332        376.621          38.250  
C 1  37841218.596    -7516154.1912        349.443          41.250  
C 4  38789918.385    -7470552.1492        329.541          37.500  
G13  22585422.345    -9144037.640        3647.393          40.250  
C 9  39081915.073    -4334124.0832       1822.832          33.000  
G15  24473101.909    -3433006.836        4223.711          32.000  
G 2  21572385.832   -25723733.992         785.625          47.750  
C 5  39445241.114    -8203565.1262        368.359          35.750  
C12  21588060.145   -29881387.2102        835.137          46.500  
G19  23411697.401   -10849839.396       -3103.779          37.500  
G 6  22638112.462   -19054861.010       -1013.223          44.000  
G29  23821077.136    -8753098.060        3686.660          43.500  
C22  24213169.202   -21740687.4892      -2245.664          47.000  
G12  23348577.791   -13808296.853       -1768.350          39.750  
G30  25718093.758    -2078331.313        2005.664          31.500  
G 5  20539187.071   -30445321.716         203.613          47.250  
> 2020  6 29  9  2 35.0000000  0 28                     
C21  21857469.847   -18601236.6872        110.146          49.500  
C16  37955461.022   -22106453.8752       1844.785          40.500  
G17  24788100.911     3628342.846       -3177.764          34.750  
G 9  24766929.055   -10985529.980       -2624.785          35.250  
C 6  37375410.776   -22625234.4422       1677.520          40.250  
C11  24485291.226   -15071507.8612       3083.379          43.500  
G25  24009575.837    -8045581.471        -622.715          36.750  
C 8  37012657.570    -4214962.5952        734.473          45.250  
C 7  39907388.292    12729986.2952      -1103.691          32.000  
C10  39021473.705     6571115.8612      -1334.541          34.500  
C 3  36412617.654    -7887121.4702        334.512          42.500  
C13  37050294.169    -8427682.9732        706.230          46.000  
C 2  37385045.133    -8463342.5332        376.377          38.250  
C 1  37841151.543    -7516503.5042        349.219          41.250  
C 4  38789855.154    -7470881.5492        329.346          37.500  
G13  22584728.263    -9147684.761        3646.953          40.250  
C 9  39081565.253    -4335946.7922       1822.617          33.250  
G15  24472298.344    -3437230.369        4223.301          32.000  
G 2  21572236.419   -25724519.448         785.293          47.750  
C 5  39445170.445    -8203933.3472        368.115          35.750  
C12  21587899.808   -29882221.9802        834.551          46.500  
G19  23412288.187   -10846735.364       -3104.209          37.750  
G 6  22638305.505   -19053847.568       -1013.574          44.000  
G29  23820376.048    -8756784.511        3686.318          43.500  
C22  24213600.637   -21738441.6472      -2245.977          47.000  
G12  23348914.310   -13806528.181       -1768.848          39.500  
G30  25717711.807    -2080337.028        2005.518          31.750  
G 5  20539148.567   -30445524.935         203.008          47.250  
> 2020  6 29  9  2 36.0000000  0 28                     
C21  21857448.366   -18601346.7032        109.883          49.500  
C16  37955106.827   -22108298.7802       1844.873          40.500  
G17  24788705.884     3631520.540       -3177.812          34.500  
G 9  24767428.275   -10982905.191       -2624.893          35.000  
C 6  37375088.458   -22626912.0472       1677.568          40.250  
C11  24484699.097   -15074591.3382       3083.438          43.500  
G25  24009694.585    -8044958.642        -623.008          36.500  
C 8  37012516.498    -4215697.2522        734.658          45.250  
C 7  39907600.421    12731089.8812      -1103.408          32.000  
C10  39021729.966     6572450.2682      -1334.355          34.500  
C 3  36412553.215    -7887456.1742        334.678          42.500  
C13  37050158.515    -8428389.4012        706.475          46.000  
C 2  37384972.985    -8463719.1102        376.523          38.250  
C 1  37841084.369    -7516852.8732        349.424          41.250  
C 4  38789791.836    -7471211.0002        329.326          37.500  
G13  22584034.582    -9151331.688        3646.904          40.250  
C 9  39081215.446    -4337769.5252       1822.852          33.250  
G15  24471490.390    -3441453.922        4223.496          32.000  
G 2  21572086.949   -25725304.817         785.342          47.750  
C 5  39445099.549    -8204301.5672        368.281          35.500  
C12  21587739.742   -29883056.3722        834.277          46.500  
G19  23412878.663   -10843631.136       -3104.297          37.750  
G 6  22638498.317   -19052833.972       -1013.672          44.000  
G29  23819674.540    -8760470.817        3686.270          43.500  
C22  24214031.959   -21736195.7182      -2245.977          47.000  
G12  23349251.182   -13804759.264       -1769.004          39.500  
G30  25717330.232    -2082342.780        2005.615          32.000  
G 5  20539109.867   -30445727.840         202.783          47.250  
> 2020  6 29  9  2 37.0000000  0 27                     
C21  21857427.395   -18601456.4702        109.668          49.500  
C16  37954752.496   -22110143.7792       1845.049          40.500  
G17  24789310.359     3634698.172       -3177.676          34.250  
G 9  24767927.757   -10980280.250       -2625.020          35.000  
C 6  37374766.240   -22628589.6952       1677.637          40.250  
C11  24484107.042   -15077674.8942       3083.545          43.500  
G25  24009813.356    -8044335.478        -623.301          36.750  
C 8  37012375.164    -4216432.1642        734.932          45.250  
C 7  39907811.455    12732193.2362      -1103.438          32.000  
C10  39021986.113     6573784.5002      -1334.189          34.500  
C 3  36412488.619    -7887791.0562        334.922          42.500  
C13  37050022.556    -8429096.0902        706.719          45.750  
C 2  37384900.672    -8464095.8742        376.826          38.250  
C 1  37841017.233    -7517202.4322        349.561          41.250  
C 4  38789728.636    -7471540.6622        329.609          37.500  
G13  22583340.731    -9154978.590        3646.875          40.250  
C 9  39080865.429    -4339592.4202       1822.910          33.250  
G15  24470685.198    -3445677.641        4223.740          32.250  
G 2  21571937.671   -25726090.225         785.410          47.750  
C12  21587579.597   -29883890.5162        834.033          46.500  
G19  23413469.419   -10840526.846       -3104.287          37.750  
G 6  22638691.351   -19051820.375       -1013.672          44.000  
G29  23818972.911    -8764157.096        3686.270          43.250  
C22  24214463.140   -21733949.8342      -2245.908          47.000  
G12  23349588.028   -13802990.237       -1769.102          39.500  
G30  25716948.487    -2084348.731        2005.957          32.000  
G 5  20539071.280   -30445930.543         202.627          47.250  
> 2020  6 29  9  2 38.0000000  0 28                     
C21  21857406.363   -18601565.7282        109.062          49.500  
C16  37954398.160   -22111988.5572       1844.707          40.500  
G17  24789915.197     3637876.042       -3177.988          33.750  
G 9  24768427.296   -10977654.914       -2625.518          35.250  
C 6  37374444.043   -22630267.1952       1677.373          40.250  
C11  24483514.934   -15080758.2512       3083.271          43.500  
G25  24009931.804    -8043711.790        -623.867          36.750  
C 8  37012234.079    -4217167.0552        734.854          45.250  
C 7  39908023.899    12733296.5882      -1103.408          32.250  
C10  39022242.326     6575118.7742      -1334.316          34.500  
C 3  36412424.341    -7888125.8372        334.678          42.500  
C13  37049887.007    -8429802.7872        706.689          45.750  
C 2  37384828.197    -8464472.5502        376.650          38.250  
C 1  37840950.338    -7517551.8972        349.385          41.250  
C 4  38789665.305    -7471870.2272        329.492          37.500  
G13  22582647.041    -9158625.186        3646.445          40.250  
C 9  39080515.583    -4341415.1872       1822.725          33.250  
G15  24469884.656    -3449901.280        4223.613          32.000  
G 2  21571788.070   -25726875.399         785.078          47.750  
C 5  39444957.801    -8205038.4283        368.447          35.500  
C12  21587419.670   -29884724.1602        833.457          46.500  
G19  23414060.318   -10837422.220       -3104.814          37.750  
G 6  22638884.364   -19050806.509       -1013.994          44.000  
G29  23818271.416    -8767843.118        3685.908          43.250  
C22  24214894.484   -21731703.7292      -2246.201          47.000  
G12  23349924.817   -13801220.841       -1769.502          39.750  
G30  25716566.833    -2086354.568        2005.850          31.750  
G 5  20539032.877   -30446132.786         202.041          47.250  
> 2020  6 29  9  2 39.0000000  0 28                     
C21  21857385.240   -18601674.5542        108.779          49.500  
C16  37954043.916   -22113833.2872       1844.775          40.500  
G17  24790519.904     3641054.026       -3177.910          33.750  
G 9  24768926.922   -10975029.269       -2625.693          35.000  
C 6  37374121.825   -22631944.5752       1677.432          40.250  
C11  24482922.992   -15083841.5112       3083.301          43.500  
G25  24010050.709    -8043087.661        -624.189          36.750  
C 8  37012092.955    -4217902.0082        735.078          45.250  
C 7  39908234.078    12734399.8142      -1103.066          32.000  
C10  39022498.735     6576453.0702      -1334.248          34.500  
C 3  36412360.246    -7888460.6062        334.844          42.500  
C13  37049751.153    -8430509.5852        706.895          46.000  
C 2  37384755.721    -8464849.1892        376.729          38.500  
C 1  37840883.237    -7517901.3572        349.521          41.250  
C 4  38789601.943    -7472199.7802        329.678          37.500  
G13  22581953.081    -9162271.526        3646.377          40.500  
C 9  39080165.296    -4343237.9592       1822.812          33.500  
G15  24469080.419    -3454124.879        4223.623          32.000  
G 2  21571638.640   -25727660.425         785.068          47.750  
C 5  39444887.071    -8205406.7702        368.486          35.500  
C12  21587259.569   -29885557.3682        833.174          46.500  
G19  23414651.313   -10834317.328       -3104.883          37.750  
G 6  22639077.389   -19049792.455       -1014.014          44.000  
G29  23817570.048    -8771528.935        3685.869          43.250  
C22  24215325.953   -21729457.4662      -2246.211          47.000  
G12  23350261.685   -13799451.135       -1769.688          39.750  
G30  25716184.992    -2088360.367        2005.879          31.750  
G 5  20538994.333   -30446334.634         201.807          47.250  
> 2020  6 29  9  2 40.0000000  0 28                     
C21  21857364.758   -18601783.0372        108.418          49.500  
C16  37953689.581   -22115677.9822       1844.727          40.500  
G17  24791124.746     3644232.108       -3177.988          34.250  
G 9  24769426.652   -10972403.354       -2625.977          34.750  
C 6  37373799.720   -22633621.9252       1677.354          40.250  
C11  24482330.950   -15086924.7632       3083.252          43.500  
G25  24010169.545    -8042463.131        -624.580          36.500  
C 8  37011951.604    -4218637.1362        735.215          45.250  
C 7  39908445.295    12735502.9412      -1103.037          32.000  
C10  39022755.040     6577787.2362      -1334.141          34.750  
C 3  36412295.837    -7888795.4672        334.951          42.500  
C13  37049615.264    -8431216.5302        707.051          45.750  
C 2  37384683.325    -8465225.9182        376.807          38.250  
C 1  37840815.941    -7518250.9192        349.629          41.250  
C 4  38789538.904    -7472529.4242        329.727          37.750  
G13  22581259.129    -9165917.718        3646.191          40.500  
C 9  39079815.589    -4345060.7622       1822.891          33.250  
G15  24468280.553    -3458348.507        4223.428          32.250  
G 2  21571489.475   -25728445.385         784.971          47.750  
C 5  39444816.437    -8205775.2202        368.545          35.500  
C12  21587099.598   -29886390.2402        832.812          46.500  
G19  23415242.352   -10831212.275       -3105.107          37.750  
G 6  22639270.415   -19048778.298       -1014.141          44.000  
G29  23816868.728    -8775214.640        3685.723          43.250  
C22  24215757.349   -21727211.1572      -2246.289          47.000  
G12  23350598.705   -13797681.235       -1769.893          39.750  
G30  25715803.390    -2090366.310        2006.143          31.500  
G 5  20538955.895   -30446536.191         201.504          47.250  
> 2020  6 29  9  2 41.0000000  0 28                     
C21  21857343.538   -18601891.1662        108.027          49.500  
C16  37953335.211   -22117522.6422       1844.648          40.500  
G17  24791729.330     3647410.235       -3178.076          33.750  
G 9  24769926.597   -10969777.207       -2626.250          34.750  
C 6  37373477.672   -22635299.2672       1677.334          40.250  
C11  24481738.820   -15090007.9922       3083.271          43.500  
G25  24010288.639    -8041838.224        -625.127          36.750  
C 8  37011810.314    -4219372.3972        735.312          45.250  
C 7  39908658.100    12736605.9142      -1103.066          32.000  
C10  39023011.366     6579121.3052      -1333.916          34.750  
C 3  36412231.407    -7889130.3822        334.912          42.500  
C13  37049479.680    -8431923.5972        707.139          45.750  
C 2  37384611.007    -8465602.7202        376.836          38.500  
C 1  37840748.962    -7518600.5082        349.639          41.250  
C 4  38789475.486    -7472859.1012        329.697          37.500  
G13  22580565.212    -9169563.755        3645.938          40.500  
C 9  39079465.425    -4346883.6342       1822.871          33.500  
G15  24467477.926    -3462572.197        4223.740          32.250  
G 2  21571340.154   -25729230.282         784.883          47.750  
C 5  39444745.676    -8206143.7082        368.477          35.500  
C12  21586939.732   -29887222.7492        832.402          46.500  
G19  23415832.985   -10828107.042       -3105.254          37.750  
G 6  22639463.453   -19047764.006       -1014.346          44.000  
G29  23816167.422    -8778900.223        3685.576          43.250  
C22  24216188.867   -21724964.7752      -2246.396          47.000  
G12  23350935.647   -13795911.096       -1770.195          39.750  
G30  25715421.401    -2092372.231        2005.908          32.000  
G 5  20538917.570   -30446737.444         201.191          47.250  
> 2020  6 29  9  2 42.0000000  0 28                     
C21  21857323.078   -18601998.8162        107.549          49.500  
C16  37952981.115   -22119367.1842       1844.531          40.500  
G17  24792334.111     3650588.572       -3178.369          33.750  
G 9  24770426.205   -10967150.679       -2626.670          34.750  
C 6  37373155.864   -22636976.4352       1677.148          40.000  
C11  24481146.739   -15093091.0512       3083.027          43.500  
G25  24010407.632    -8041212.872        -625.449          36.750  
C 8  37011669.085    -4220107.6752        735.312          45.250  
C 7  39908871.477    12737708.7772      -1102.842          32.000  
C10  39023267.579     6580455.4402      -1334.004          34.500  
C 3  36412167.286    -7889465.2732        334.902          42.500  
C13  37049343.969    -8432630.7412        707.197          45.750  
C 2  37384538.697    -8465979.4772        376.816          38.250  
C 1  37840681.853    -7518950.0922        349.541          41.250  
C 4  38789411.871    -7473188.7732        329.629          37.750  
G13  22579871.640    -9173209.519        3645.684          40.250  
C 9  39079115.430    -4348706.4542       1822.881          33.500  
G15  24466671.827    -3466795.800        4223.672          32.000  
G 2  21571190.828   -25730014.993         784.678          47.750  
C 5  39444674.850    -8206512.1482        368.428          35.250  
C12  21586780.028   -29888054.8052        831.904          46.500  
G19  23416424.046   -10825001.511       -3105.664          37.750  
G 6  22639656.553   -19046749.501       -1014.590          44.000  
G29  23815466.001    -8782585.553        3685.264          43.250  
C22  24216620.336   -21722718.2162      -2246.602          47.000  
G12  23351272.764   -13794140.618       -1770.576          39.750  
G30  25715039.603    -2094378.172        2005.986          32.000  
G 5  20538879.236   -30446938.266         200.723          47.250  
> 2020  6 29  9  2 43.0000000  0 28                     
C21  21857302.138   -18602106.0682        107.158          49.500  
C16  37952627.120   -22121211.6372       1844.414          40.500  
G17  24792938.888     3653767.008       -3178.457          34.000  
G 9  24770926.001   -10964523.898       -2626.807          34.750  
C 6  37372833.850   -22638653.5432       1677.109          40.250  
C11  24480554.670   -15096174.0482       3082.998          43.500  
G25  24010526.607    -8040587.000        -626.094          36.750  
C 8  37011528.126    -4220843.0482        735.439          45.250  
C 7  39909083.471    12738811.5692      -1102.754          32.000  
C10  39023523.578     6581789.5452      -1334.053          34.750  
C 3  36412102.956    -7889800.1552        334.902          42.500  
C13  37049207.967    -8433337.9802        707.285          46.000  
C 2  37384466.379    -8466356.2402        376.836          38.250  
C 1  37840614.831    -7519299.6992        349.609          41.250  
C 4  38789348.692    -7473518.4422        329.629          37.750  
G13  22579177.689    -9176855.089        3645.527          40.250  
C 9  39078765.505    -4350529.2142       1822.686          33.250  
G15  24465869.928    -3471019.398        4223.389          32.250  
G 2  21571041.633   -25730799.578         784.561          47.750  
C 5  39444604.194    -8206880.6782        368.574          35.250  
C12  21586620.219   -29888886.4382        831.523          46.500  
G19  23417014.954   -10821895.764       -3105.820          37.750  
G 6  22639849.627   -19045734.828       -1014.678          44.000  
G29  23814764.734    -8786270.725        3685.146          43.250  
C22  24217051.714   -21720471.5262      -2246.709          47.000  
G12  23351609.509   -13792369.872       -1770.830          39.750  
G30  25714657.648    -2096384.104        2006.035          31.750  
G 5  20538840.998   -30447138.738         200.361          47.250  
> 2020  6 29  9  2 44.0000000  0 28                     
C21  21857282.079   -18602212.8432        106.572          49.500  
C16  37952273.051   -22123055.9652       1844.258          40.500  
G17  24793543.630     3656945.616       -3178.682          33.250  
G 9  24771425.810   -10961896.745       -2627.402          34.500  
C 6  37372511.667   -22640330.4842       1676.855          40.250  
C11  24479962.693   -15099256.8892       3082.754          43.500  
G25  24010645.618    -8039960.691        -626.475          36.500  
C 8  37011386.945    -4221578.4362        735.352          45.250  
C 7  39909295.090    12739914.3602      -1102.803          32.000  
C10  39023779.790     6583123.6552      -1334.209          34.750  
C 3  36412038.578    -7890135.0152        334.814          42.500  
C13  37049072.108    -8434045.2532        707.207          45.750  
C 2  37384394.061    -8466732.9632        376.660          38.500  
C 1  37840547.526    -7519649.2372        349.502          41.250  
C 4  38789285.427    -7473848.0732        329.629          37.750  
G13  22578483.964    -9180500.361        3645.166          40.250  
C 9  39078415.419    -4352352.0282       1822.773          33.500  
G15  24465064.635    -3475242.908        4223.496          32.000  
G 2  21570892.159   -25731583.984         784.316          47.750  
C 5  39444533.573    -8207249.0682        368.369          35.500  
C12  21586460.432   -29889717.6222        831.006          46.500  
G19  23417605.884   -10818789.712       -3106.201          37.500  
G 6  22640042.761   -19044719.896       -1015.029          44.000  
G29  23814063.427    -8789955.635        3684.775          43.250  
C22  24217483.119   -21718224.6642      -2246.943          47.250  
G12  23351946.508   -13790598.776       -1771.299          39.750  
G30  25714276.064    -2098389.918        2005.762          32.000  
G 5  20538802.726   -30447338.780         199.883          47.250  
> 2020  6 29  9  2 45.0000000  0 28                     
C21  21857261.343   -18602319.1282        106.182          49.250  
C16  37951918.964   -22124900.1272       1844.160          40.500  
G17  24794148.694     3660124.492       -3178.877          33.250  
G 9  24771925.759   -10959269.179       -2627.598          34.500  
C 6  37372189.375   -22642007.2792       1676.826          40.000  
C11  24479370.651   -15102339.5652       3082.656          43.250  
G25  24010764.934    -8039333.845        -626.953          36.250  
C 8  37011245.838    -4222313.8222        735.449          45.250  
C 7  39909506.718    12741017.1042      -1102.734          32.250  
C10  39024035.942     6584457.8702      -1334.131          34.500  
C 3  36411974.383    -7890469.7822        334.863          42.500  
C13  37048936.175    -8434752.5482        707.334          45.750  
C 2  37384321.621    -8467109.6262        376.680          38.250  
C 1  37840480.351    -7519998.7072        349.492          41.250  
C 4  38789222.296    -7474177.6412        329.600          37.750  
G13  22577790.431    -9184145.338        3644.932          40.250  
C 9  39078065.258    -4354174.6582       1822.656          33.500  
G15  24464259.827    -3479466.336        4223.330          32.000  
G 2  21570743.029   -25732368.168         784.209          47.750  
C 5  39444462.860    -8207617.4512        368.447          35.500  
C12  21586300.989   -29890548.2912        830.586          46.250  
G19  23418196.909   -10815683.343       -3106.367          37.500  
G 6  22640235.687   -19043704.729       -1015.186          43.750  
G29  23813362.216    -8793640.306        3684.678          43.000  
C22  24217914.697   -21715977.5762      -2247.080          47.000  
G12  23352283.397   -13788827.315       -1771.475          39.500  
G30  25713894.437    -2100395.734        2005.908          32.000  
G 5  20538765.107   -30447538.371         199.512          47.000  
> 2020  6 29  9  2 46.0000000  0 28                     
C21  21857241.254   -18602424.9572        105.645          49.500  
C16  37951564.790   -22126744.1432       1843.906          40.500  
G17  24794753.610     3663303.498       -3179.102          33.000  
G 9  24772425.616   -10956641.263       -2628.018          34.500  
C 6  37371867.375   -22643683.9112       1676.562          40.250  
C11  24478778.587   -15105422.1122       3082.461          43.250  
G25  24010884.110    -8038706.517        -627.412          36.250  
C 8  37011104.683    -4223049.2912        735.469          45.250  
C 7  39909718.428    12742119.7892      -1102.598          32.000  
C10  39024291.994     6585792.0492      -1334.189          34.750  
C 3  36411910.170    -7890804.5202        334.668          42.500  
C13  37048800.312    -8435459.8892        707.305          45.750  
C 2  37384249.443    -8467486.2472        376.572          38.250  
C 1  37840413.473    -7520348.1612        349.346          41.250  
C 4  38789159.091    -7474507.1532        329.424          37.750  
G13  22577096.371    -9187790.059        3644.619          40.250  
C 9  39077715.137    -4355997.2282       1822.588          33.500  
G15  24463455.904    -3483689.724        4223.418          32.000  
G 2  21570594.044   -25733152.197         783.926          47.750  
C 5  39444391.999    -8207985.7792        368.223          35.500  
C12  21586141.638   -29891378.5092        830.059          46.500  
G19  23418787.975   -10812576.692       -3106.729          37.500  
G 6  22640428.852   -19042689.341       -1015.488          44.000  
G29  23812660.940    -8797324.732        3684.336          43.000  
C22  24218346.259   -21713730.3312      -2247.363          47.000  
G12  23352620.034   -13787055.542       -1771.934          39.000  
G30  25713512.796    -2102401.499        2005.801          32.000  
G 5  20538727.175   -30447737.554         199.004          47.250  
> 2020  6 29  9  2 47.0000000  0 28                     
C21  21857220.837   -18602530.4712        105.352          49.500  
C16  37951210.463   -22128588.2172       1844.023          40.500  
G17  24795358.666     3666482.512       -3179.102          33.000  
G 9  24772925.883   -10954013.184       -2628.057          34.500  
C 6  37371545.335   -22645360.5762       1676.602          40.250  
C11  24478186.710   -15108504.6792       3082.529          43.500  
G25  24011003.230    -8038078.838        -627.842          36.000  
C 8  37010963.450    -4223784.9022        735.625          45.250  
C 7  39909930.893    12743222.3602      -1102.480          32.250  
C10  39024548.019     6587126.1202      -1333.906          34.750  
C 3  36411845.853    -7891139.3612        334.814          42.500  
C13  37048664.646    -8436167.4152        707.578          45.750  
C 2  37384176.963    -8467862.9892        376.680          38.250  
C 1  37840346.360    -7520697.7372        349.570          41.000  
C 4  38789095.773    -7474836.8032        329.629          37.500  
G13  22576402.947    -9191434.662        3644.512          40.250  
C 9  39077365.177    -4357819.9002       1822.617          33.500  
G15  24462653.783    -3487913.199        4223.525          32.250  
G 2  21570444.809   -25733936.185         783.916          47.750  
C 5  39444321.378    -8208354.2012        368.369          35.750  
C12  21585982.283   -29892208.4092        829.727          46.500  
G19  23419379.149   -10809469.889       -3106.904          37.750  
G 6  22640621.965   -19041673.867       -1015.537          43.750  
G29  23811959.899    -8801009.084        3684.258          43.000  
C22  24218777.833   -21711483.0612      -2247.344          47.000  
G12  23352956.841   -13785283.572       -1772.002          39.000  
G30  25713131.086    -2104407.316        2005.703          31.750  
G 5  20538689.299   -30447936.482         198.799          47.250  
> 2020  6 29  9  2 48.0000000  0 28                     
C21  21857200.813   -18602635.5532        104.893          49.500  
C16  37950856.294   -22130432.1482       1843.799          40.500  
G17  24795963.691     3669661.709       -3179.336          33.000  
G 9  24773426.085   -10951384.775       -2628.496          34.750  
C 6  37371223.265   -22647037.1392       1676.455          40.250  
C11  24477594.642   -15111587.1232       3082.402          43.500  
G25  24011122.655    -8037450.703        -628.242          36.000  
C 8  37010821.920    -4224520.5822        735.645          45.250  
C 7  39910143.022    12744324.7772      -1102.549          32.000  
C10  39024804.123     6588460.1802      -1334.092          34.750  
C 3  36411781.405    -7891474.2042        334.785          42.500  
C13  37048528.857    -8436875.0212        707.588          45.750  
C 2  37384104.671    -8468239.7342        376.719          38.250  
C 1  37840279.115    -7521047.2762        349.482          41.250  
C 4  38789032.303    -7475166.4552        329.590          37.500  
G13  22575709.406    -9195079.027        3644.238          40.250  
C 9  39077015.192    -4359642.5552       1822.520          33.500  
G15  24461848.460    -3492136.560        4223.408          32.250  
G 2  21570295.531   -25734720.034         783.750          47.750  
C 5  39444250.561    -8208722.6162        368.311          35.500  
C12  21585822.884   -29893037.8922        829.277          46.500  
G19  23419970.598   -10806362.844       -3107.207          38.000  
G 6  22640815.043   -19040658.206       -1015.771          43.750  
G29  23811258.941    -8804693.235        3684.043          43.000  
C22  24219209.377   -21709235.6422      -2247.520          47.000  
G12  23353293.494   -13783511.324       -1772.432          39.000  
G30  25712749.532    -2106413.212        2005.889          31.500  
G 5  20538651.594   -30448135.022         198.369          47.250  
> 2020  6 29  9  2 49.0000000  0 28                     
C21  21857180.719   -18602740.2652        104.482          49.250  
C16  37950502.129   -22132276.0782       1843.828          40.500  
G17  24796568.507     3672840.962       -3179.365          32.750  
G 9  24773926.082   -10948756.057       -2628.867          34.500  
C 6  37370901.413   -22648713.6492       1676.357          40.250  
C11  24477002.958   -15114669.5462       3082.275          43.500  
G25  24011242.167    -8036822.176        -628.809          36.000  
C 8  37010680.421    -4225256.3892        735.684          45.000  
C 7  39910353.852    12745427.0822      -1102.471          31.750  
C10  39025060.187     6589794.1852      -1334.150          34.500  
C 3  36411717.175    -7891809.0962        334.785          42.500  
C13  37048392.810    -8437582.7812        707.705          45.750  
C 2  37384032.336    -8468616.4952        376.729          38.250  
C 1  37840211.923    -7521396.9002        349.502          41.250  
C 4  38788968.984    -7475496.1492        329.697          37.500  
G13  22575015.873    -9198723.241        3644.053          40.000  
C 9  39076665.140    -4361465.2502       1822.529          33.500  
G15  24461046.330    -3496360.047        4223.408          32.250  
G 2  21570146.398   -25735503.795         783.613          47.750  
C 5  39444179.827    -8209091.1292        368.428          35.500  
C12  21585663.659   -29893867.0052        828.867          46.500  
G19  23420562.029   -10803255.624       -3107.373          37.750  
G 6  22641008.408   -19039642.409       -1015.977          43.750  
G29  23810557.796    -8808377.254        3683.906          42.750  
C22  24219641.013   -21706988.1452      -2247.627          47.000  
G12  23353630.471   -13781738.822       -1772.646          38.750  
G30  25712367.552    -2108419.076        2005.830          31.000  
G 5  20538613.862   -30448333.247         198.027          47.000  
> 2020  6 29  9  2 50.0000000  0 28                     
C21  21857160.215   -18602844.5972        104.189          49.250  
C16  37950148.325   -22134119.9332       1843.818          40.500  
G17  24797173.249     3676020.315       -3179.424          33.000  
G 9  24774426.379   -10946127.103       -2629.131          34.750  
C 6  37370579.540   -22650390.0962       1676.426          40.250  
C11  24476411.033   -15117751.8872       3082.305          43.500  
G25  24011361.753    -8036193.231        -629.160          36.000  
C 8  37010539.170    -4225992.2872        735.898          45.250  
C 7  39910563.747    12746529.2782      -1102.109          32.000  
C10  39025316.365     6591128.1292      -1333.945          34.500  
C 3  36411653.037    -7892144.0412        334.922          42.500  
C13  37048256.712    -8438290.6242        707.832          45.750  
C 2  37383960.253    -8468993.2972        376.699          38.250  
C 1  37840144.714    -7521746.5492        349.629          41.250  
C 4  38788905.535    -7475825.8762        329.785          37.500  
G13  22574322.419    -9202367.244        3643.887          40.000  
C 9  39076315.071    -4363287.9562       1822.705          33.500  
G15  24460242.896    -3500583.466        4223.340          32.500  
G 2  21569997.338   -25736287.455         783.623          47.750  
C 5  39444109.031    -8209459.6602        368.584          35.500  
C12  21585504.565   -29894695.7342        828.613          46.500  
G19  23421153.391   -10800148.164       -3107.588          37.500  
G 6  22641201.648   -19038626.487       -1015.996          43.750  
G29  23809856.851    -8812061.117        3683.750          42.750  
C22  24220072.596   -21704740.5422      -2247.646          47.000  
G12  23353967.308   -13779966.082       -1772.832          38.500  
G30  25711985.749    -2110425.011        2005.996          31.000  
G 5  20538576.196   -30448531.125         197.773          47.000  
> 2020  6 29  9  2 51.0000000  0 28                     
C21  21857140.631   -18602948.4382        103.672          49.250  
C16  37949794.199   -22135963.6462       1843.730          40.500  
G17  24797778.387     3679199.877       -3179.609          33.000  
G 9  24774926.887   -10943497.799       -2629.385          34.500  
C 6  37370257.548   -22652066.3752       1676.201          40.250  
C11  24475818.938   -15120834.0712       3082.119          43.500  
G25  24011481.531    -8035563.806        -629.541          35.750  
C 8  37010398.006    -4226728.2132        735.898          45.250  
C 7  39910778.651    12747631.4572      -1102.188          32.000  
C10  39025572.530     6592462.1162      -1334.092          34.250  
C 3  36411588.807    -7892478.9092        334.814          42.500  
C13  37048120.696    -8438998.5212        707.881          45.750  
C 2  37383887.721    -8469370.0502        376.689          38.250  
C 1  37840077.648    -7522096.1602        349.570          41.250  
C 4  38788842.065    -7476155.5292        329.561          37.500  
G13  22573629.008    -9206010.964        3643.594          40.250  
C 9  39075964.728    -4365110.5472       1822.568          33.500  
G15  24459439.340    -3504806.812        4223.320          32.750  
G 2  21569848.117   -25737070.915         783.369          47.750  
C 5  39444038.340    -8209828.1332        368.457          35.500  
C12  21585345.594   -29895523.9612        828.066          46.500  
G19  23421744.866   -10797040.405       -3107.881          37.500  
G 6  22641395.114   -19037610.296       -1016.289          43.750  
G29  23809155.959    -8815744.719        3683.525          42.750  
C22  24220504.244   -21702492.7472      -2247.900          47.000  
G12  23354304.080   -13778192.970       -1773.203          38.250  
G30  25711603.956    -2112430.869        2005.752          31.250  
G 5  20538538.778   -30448728.558         197.246          47.250  
> 2020  6 29  9  2 52.0000000  0 28                     
C21  21857120.424   -18603051.7712        103.252          49.250  
C16  37949440.043   -22137807.1772       1843.574          40.500  
G17  24798383.474     3682379.692       -3179.873          33.000  
G 9  24775427.355   -10940868.063       -2629.951          34.500  
C 6  37369935.749   -22653742.4892       1676.094          40.000  
C11  24475226.949   -15123916.0822       3082.031          43.500  
G25  24011601.231    -8034933.801        -630.127          36.000  
C 8  37010256.834    -4227464.1142        735.986          45.000  
C 7  39910987.111    12748733.5872      -1102.148          31.750  
C10  39025828.717     6593796.1432      -1333.984          34.500  
C 3  36411524.490    -7892813.6902        334.863          42.500  
C13  37047984.864    -8439706.4312        707.988          45.750  
C 2  37383815.382    -8469746.7322        376.729          38.000  
C 1  37840010.678    -7522445.6552        349.541          41.250  
C 4  38788778.781    -7476485.1182        329.580          37.500  
G13  22572935.689    -9209654.379        3643.389          40.250  
C 9  39075614.602    -4366933.0362       1822.627          33.750  
G15  24458635.879    -3509030.044        4223.223          32.500  
G 2  21569699.192   -25737854.148         783.232          47.750  
C 5  39443967.662    -8210196.5072        368.506          35.250  
C12  21585186.544   -29896351.7002        827.686          46.500  
G19  23422336.385   -10793932.320       -3108.125          37.750  
G 6  22641588.537   -19036593.836       -1016.445          43.750  
G29  23808454.661    -8819428.045        3683.320          42.750  
C22  24220936.133   -21700244.7352      -2247.998          47.000  
G12  23354641.162   -13776419.506       -1773.457          38.000  
G30  25711222.097    -2114436.608        2005.850          31.750  
G 5  20538501.391   -30448925.535         196.904          47.250  
> 2020  6 29  9  2 53.0000000  0 28                     
C21  21857100.980   -18603154.6902        102.666          49.250  
C16  37949085.956   -22139650.6232       1843.330          40.750  
G17  24798988.804     3685559.578       -3180.029          33.250  
G 9  24775927.962   -10938238.027       -2630.293          34.750  
C 6  37369613.858   -22655418.4982       1675.850          40.000  
C11  24474635.220   -15126997.9922       3081.787          43.500  
G25  24011720.953    -8034303.369        -630.703          36.000  
C 8  37010115.479    -4228200.1102        735.879          45.250  
C 7  39911199.528    12749835.6622      -1102.197          31.750  
C10  39026085.187     6595130.1612      -1334.141          34.250  
C 3  36411460.247    -7893148.4842        334.688          42.500  
C13  37047848.983    -8440414.4472        707.910          45.750  
C 2  37383743.194    -8470123.3882        376.504          38.500  
C 1  37839943.670    -7522795.1912        349.414          41.250  
C 4  38788715.468    -7476814.7202        329.482          37.500  
G13  22572242.929    -9213297.563        3642.949          40.250  
C 9  39075264.712    -4368755.5322       1822.393          33.500  
G15  24457832.236    -3513253.319        4223.047          32.500  
G 2  21569550.189   -25738637.253         782.930          48.000  
C 5  39443896.780    -8210564.9032        368.252          35.500  
C12  21585027.638   -29897179.0172        827.061          46.250  
G19  23422927.694   -10790823.988       -3108.564          37.750  
G 6  22641781.597   -19035577.195       -1016.826          43.750  
G29  23807753.742    -8823111.190        3682.930          42.750  
C22  24221367.825   -21697996.5842      -2248.301          47.000  
G12  23354978.387   -13774645.730       -1773.965          38.000  
G30  25710840.356    -2116442.421        2005.547          31.750  
G 5  20538463.965   -30449122.127         196.328          47.250  
> 2020  6 29  9  2 54.0000000  0 28                     
C21  21857081.091   -18603257.2362        102.451          49.250  
C16  37948731.992   -22141494.0332       1843.408          40.500  
G17  24799594.065     3688739.580       -3180.020          33.750  
G 9  24776428.683   -10935607.718       -2630.361          34.750  
C 6  37369291.919   -22657094.4582       1676.016          40.250  
C11  24474043.270   -15130079.8732       3081.914          43.500  
G25  24011840.919    -8033672.575        -630.820          36.000  
C 8  37009973.944    -4228936.2362        736.172          45.250  
C 7  39911412.107    12750937.5722      -1102.002          31.750  
C10  39026341.356     6596464.1102      -1333.828          34.500  
C 3  36411395.886    -7893483.3132        334.873          42.500  
C13  37047713.212    -8441122.5822        708.213          45.750  
C 2  37383670.436    -8470500.1212        376.729          38.250  
C 1  37839876.691    -7523144.7742        349.648          41.250  
C 4  38788651.979    -7477144.3722        329.727          37.250  
G13  22571549.850    -9216940.562        3642.979          40.500  
C 9  39074914.831    -4370578.0592       1822.529          33.750  
G15  24457028.605    -3517476.540        4223.252          32.750  
G 2  21569401.247   -25739420.271         783.018          48.000  
C 5  39443826.137    -8210933.3252        368.486          35.500  
C12  21584868.754   -29898005.9622        826.855          46.250  
G19  23423519.248   -10787715.453       -3108.555          37.750  
G 6  22641975.089   -19034560.434       -1016.777          43.750  
G29  23807052.837    -8826794.193        3682.998          42.750  
C22  24221799.426   -21695748.3542      -2248.252          47.000  
G12  23355315.456   -13772871.760       -1774.043          38.000  
G30  25710458.515    -2118448.175        2005.781          31.750  
G 5  20538426.643   -30449318.408         196.211          47.000  
> 2020  6 29  9  2 55.0000000  0 28                     
C21  21857061.704   -18603359.3732        102.012          49.250  
C16  37948378.010   -22143337.3582       1843.291          40.500  
G17  24800199.060     3691919.676       -3180.195          33.500  
G 9  24776929.295   -10932977.106       -2630.684          34.750  
C 6  37368970.150   -22658770.3332       1675.830          40.250  
C11  24473451.463   -15133161.6482       3081.777          43.500  
G25  24011961.251    -8033041.271        -631.465          35.750  
C 8  37009832.471    -4229672.4442        736.221          45.250  
C 7  39911623.804    12752039.3472      -1101.719          31.500  
C10  39026597.656     6597798.0542      -1333.936          34.500  
C 3  36411331.521    -7893818.1792        334.883          42.500  
C13  37047577.074    -8441830.8212        708.271          45.750  
C 2  37383598.214    -8470876.8292        376.768          38.250  
C 1  37839809.399    -7523494.3642        349.561          41.250  
C 4  38788588.687    -7477474.0262        329.727          37.500  
G13  22570856.814    -9220583.354        3642.764          40.250  
C 9  39074564.793    -4372400.6122       1822.520          33.750  
G15  24456225.044    -3521699.809        4223.359          32.500  
G 2  21569252.266   -25740203.162         782.891          48.000  
C 5  39443755.673    -8211301.7702        368.408          35.500  
C12  21584710.013   -29898832.4982        826.426          46.250  
G19  23424110.806   -10784606.728       -3108.750          38.000  
G 6  22642168.726   -19033543.483       -1016.982          43.750  
G29  23806352.150    -8830477.027        3682.842          42.750  
C22  24222231.301   -21693499.9982      -2248.379          47.000  
G12  23355653.052   -13771097.454       -1774.414          38.000  
G30  25710076.726    -2120454.011        2005.889          32.000  
G 5  20538389.256   -30449514.314         195.820          47.000  
> 2020  6 29  9  2 56.0000000  0 28                     
C21  21857041.671   -18603461.1042        101.543          49.250  
C16  37948024.097   -22145180.6162       1843.203          40.500  
G17  24800804.408     3695099.961       -3180.439          33.500  
G 9  24777430.090   -10930346.190       -2631.074          34.750  
C 6  37368648.433   -22660446.1242       1675.693          40.000  
C11  24472859.661   -15136243.3422       3081.611          43.500  
G25  24012081.164    -8032409.593        -631.914          35.500  
C 8  37009691.102    -4230408.7362        736.270          45.000  
C 7  39911838.215    12753141.1282      -1101.670          31.500  
C10  39026853.786     6599131.9702      -1333.936          34.500  
C 3  36411267.060    -7894153.0492        334.844          42.500  
C13  37047441.150    -8442539.1372        708.311          45.750  
C 2  37383525.896    -8471253.5722        376.689          38.250  
C 1  37839742.368    -7523843.9872        349.600          41.250  
C 4  38788525.339    -7477803.7202        329.688          37.500  
G13  22570163.569    -9224225.935        3642.441          40.250  
C 9  39074214.680    -4374223.1002       1822.402          33.750  
G15  24455421.388    -3525923.008        4223.037          32.000  
G 2  21569103.324   -25740985.912         782.646          48.000  
C 5  39443684.960    -8211670.2252        368.408          35.500  
C12  21584551.273   -29899658.6202        825.947          46.250  
G19  23424702.534   -10781497.728       -3109.150          38.000  
G 6  22642362.318   -19032526.365       -1017.217          43.750  
G29  23805651.458    -8834159.665        3682.510          42.500  
C22  24222663.194   -21691251.5312      -2248.555          47.000  
G12  23355990.666   -13769322.918       -1774.668          38.000  
G30  25709695.068    -2122459.827        2005.869          32.500  
G 5  20538352.144   -30449709.862         195.381          47.250  
> 2020  6 29  9  2 57.0000000  0 28                     
C21  21857022.502   -18603562.4832        101.367          49.250  
C16  37947670.076   -22147023.8642       1843.340          40.500  
G17  24801409.298     3698280.209       -3180.244          33.500  
G 9  24777930.671   -10927715.092       -2631.123          34.500  
C 6  37368326.586   -22662121.8942       1675.791          40.000  
C11  24472267.741   -15139325.0272       3081.748          43.500  
G25  24012201.104    -8031777.549        -632.139          35.500  
C 8  37009549.520    -4231145.1752        736.543          45.250  
C 7  39912048.268    12754242.7012      -1101.396          31.750  
C10  39027110.134     6600465.7492      -1333.691          34.500  
C 3  36411202.908    -7894488.0042        335.088          42.500  
C13  37047305.156    -8443247.6222        708.613          45.750  
C 2  37383453.154    -8471630.4132        376.982          38.250  
C 1  37839675.085    -7524193.6742        349.736          41.000  
C 4  38788461.986    -7478133.4562        329.775          37.250  
G13  22569470.342    -9227868.364        3642.432          40.250  
C 9  39073864.755    -4376045.7162       1822.656          33.750  
G15  24454617.748    -3530146.292        4223.232          32.000  
G 2  21568954.548   -25741768.616         782.754          48.000  
C 5  39443614.309    -8212038.7802        368.574          35.500  
C12  21584392.659   -29900484.4042        825.732          46.250  
G19  23425293.987   -10778388.553       -3109.189          38.000  
G 6  22642555.776   -19031509.132       -1017.207          44.000  
G29  23804950.609    -8837842.193        3682.588          42.500  
C22  24223095.000   -21689002.9972      -2248.486          47.250  
G12  23356328.380   -13767548.152       -1774.727          38.250  
G30  25709313.628    -2124465.719        2005.996          33.000  
G 5  20538314.870   -30449905.111         195.225          47.250  
> 2020  6 29  9  2 58.0000000  0 28                     
C21  21857002.766   -18603663.5532        100.947          49.250  
C16  37947316.286   -22148867.1312       1843.311          40.500  
G17  24802014.502     3701460.532       -3180.244          33.500  
G 9  24778431.309   -10925083.775       -2631.475          34.500  
C 6  37368004.887   -22663797.7022       1675.752          40.000  
C11  24471675.820   -15142406.7302       3081.699          43.500  
G25  24012321.288    -8031145.117        -632.500          35.500  
C 8  37009408.047    -4231881.7922        736.641          45.000  
C 7  39912256.292    12755344.1102      -1101.465          31.500  
C10  39027366.146     6601799.4512      -1333.730          34.500  
C 3  36411138.460    -7894823.0592        335.059          42.500  
C13  37047168.966    -8443956.2862        708.682          45.750  
C 2  37383380.880    -8472007.3492        377.002          38.250  
C 1  37839607.840    -7524543.4782        349.834          41.000  
C 4  38788398.611    -7478463.3502        329.922          37.500  
G13  22568777.141    -9231510.691        3642.373          40.000  
C 9  39073514.852    -4377868.3822       1822.705          33.500  
G15  24453813.839    -3534369.652        4223.350          32.250  
G 2  21568805.527   -25742551.284         782.646          47.750  
C 5  39443543.321    -8212407.4612        368.770          35.500  
C12  21584234.137   -29901309.8852        825.371          46.250  
G19  23425885.899   -10775279.264       -3109.385          38.000  
G 6  22642749.356   -19030491.841       -1017.295          43.750  
G29  23804249.966    -8841524.635        3682.441          42.500  
C22  24223526.805   -21686754.4432      -2248.574          47.250  
G12  23356666.504   -13765773.200       -1775.020          38.500  
G30  25708932.005    -2126471.703        2005.986          33.000  
G 5  20538277.784   -30450100.100         194.902          47.250  
> 2020  6 29  9  2 59.0000000  0 28                     
C21  21856983.815   -18603764.2152        100.605          49.250  
C16  37946962.286   -22150710.2962       1843.174          40.500  
G17  24802619.863     3704641.007       -3180.430          33.750  
G 9  24778932.061   -10922452.132       -2631.611          34.500  
C 6  37367683.096   -22665473.3992       1675.752          40.000  
C11  24471084.219   -15145488.3472       3081.621          43.500  
G25  24012441.542    -8030512.311        -632.852          35.500  
C 8  37009266.552    -4232618.4852        736.738          45.000  
C 7  39912469.328    12756445.4072      -1101.191          31.250  
C10  39027622.381     6603133.0932      -1333.652          34.250  
C 3  36411074.026    -7895158.1432        335.137          42.500  
C13  37047032.679    -8444665.0962        708.906          45.750  
C 2  37383308.475    -8472384.3102        377.051          38.250  
C 1  37839540.626    -7524893.3112        349.922          41.250  
C 4  38788335.637    -7478793.2572        329.932          37.500  
G13  22568084.167    -9235152.785        3642.070          40.000  
C 9  39073164.976    -4379691.0642       1822.656          33.750  
G15  24453010.230    -3538592.974        4223.340          32.750  
G 2  21568656.563   -25743333.846         782.588          47.750  
C 5  39443472.552    -8212776.1312        368.633          35.250  
C12  21584075.711   -29902134.9462        825.039          46.250  
G19  23426477.631   -10772169.755       -3109.531          38.250  
G 6  22642943.079   -19029474.370       -1017.451          43.750  
G29  23803549.182    -8845206.905        3682.275          42.500  
C22  24223958.406   -21684505.7742      -2248.633          47.000  
G12  23357004.807   -13763997.996       -1775.264          38.750  
G30  25708550.469    -2128477.760        2006.016          33.000  
G 5  20538240.776   -30450294.738         194.590          47.250  
> 2020  6 29  9  3  0.0000000  0 28                     
C21  21856964.131   -18603864.4632        100.117          49.250  
C16  37946608.527   -22152553.4082       1843.018          40.500  
G17  24803225.071     3707821.567       -3180.674          33.750  
G 9  24779432.433   -10919820.200       -2632.139          34.250  
C 6  37367361.440   -22667149.0202       1675.625          40.000  
C11  24470492.578   -15148569.8682       3081.484          43.500  
G25  24012561.940    -8029879.028        -633.350          35.500  
C 8  37009125.017    -4233355.2732        736.807          45.000  
C 7  39912681.008    12757546.5682      -1101.318          31.500  
C10  39027878.336     6604466.7022      -1333.555          34.250  
C 3  36411009.669    -7895493.2112        335.098          42.500  
C13  37046896.559    -8445373.9692        708.916          45.750  
C 2  37383235.986    -8472761.2842        376.982          38.250  
C 1  37839473.583    -7525243.1582        349.902          41.250  
C 4  38788272.254    -7479123.1452        329.893          37.500  
G13  22567390.965    -9238794.639        3641.797          40.250  
C 9  39072814.859    -4381513.7212       1822.637          33.500  
G15  24452206.355    -3542816.328        4223.398          32.750  
G 2  21568507.543   -25744116.253         782.363          48.000  
C 5  39443401.734    -8213144.8322        368.750          35.250  
C12  21583917.468   -29902959.5882        824.492          46.250  
G19  23427069.577   -10769059.986       -3109.814          38.250  
G 6  22643136.759   -19028456.732       -1017.666          43.750  
G29  23802848.499    -8848888.982        3682.031          42.500  
C22  24224390.438   -21682256.9662      -2248.828          47.000  
G12  23357343.223   -13762222.479       -1775.596          39.000  
G30  25708168.833    -2130483.717        2005.938          32.750  
G 5  20538203.808   -30450489.001         194.150          47.250  
> 2020  6 29  9  3  1.0000000  0 28                     
C21  21856945.224   -18603964.2082         99.639          49.250  
C16  37946254.567   -22154396.3302       1842.930          40.500  
G17  24803830.520     3711002.359       -3180.830          33.750  
G 9  24779933.084   -10917187.920       -2632.324          34.500  
C 6  37367039.846   -22668824.4372       1675.420          40.250  
C11  24469900.841   -15151651.2092       3081.299          43.500  
G25  24012682.482    -8029245.205        -633.975          35.500  
C 8  37008983.775    -4234092.0552        736.846          45.000  
C 7  39912892.391    12758647.7242      -1101.055          31.250  
C10  39028134.519     6605800.3542      -1333.555          34.500  
C 3  36410945.335    -7895828.2292        335.029          42.500  
C13  37046760.521    -8446082.8792        708.926          45.750  
C 2  37383163.607    -8473138.1292        376.855          38.250  
C 1  37839406.347    -7525592.9232        349.785          41.000  
C 4  38788208.923    -7479452.9512        329.824          37.500  
G13  22566697.974    -9242436.225        3641.533          40.250  
C 9  39072464.855    -4383336.2762       1822.627          33.250  
G15  24451402.965    -3547039.520        4223.164          32.500  
G 2  21568358.727   -25744898.458         782.197          48.000  
C 5  39443330.996    -8213513.4352        368.594          35.250  
C12  21583759.147   -29903783.7372        824.033          46.250  
G19  23427661.384   -10765949.903       -3110.078          38.250  
G 6  22643330.526   -19027438.821       -1017.939          44.000  
G29  23802147.760    -8852570.795        3681.758          42.500  
C22  24224822.288   -21680007.9492      -2249.053          47.000  
G12  23357681.792   -13760446.609       -1775.938          39.250  
G30  25707787.279    -2132489.709        2005.947          32.250  
G 5  20538166.722   -30450682.817         193.721          47.000  
> 2020  6 29  9  3  2.0000000  0 28                     
C21  21856925.771   -18604063.5192         99.121          49.000  
C16  37945900.781   -22156239.1502       1842.734          40.500  
G17  24804435.711     3714183.291       -3180.986          33.750  
G 9  24780434.106   -10914555.221       -2632.998          34.500  
C 6  37366718.090   -22670499.7562       1675.205          40.250  
C11  24469308.986   -15154732.4222       3081.113          43.500  
G25  24012803.268    -8028610.935        -634.414          35.500  
C 8  37008842.215    -4234828.8902        736.787          45.000  
C 7  39913104.887    12759748.8512      -1101.123          31.250  
C10  39028390.404     6607134.0862      -1333.770          34.250  
C 3  36410880.930    -7896163.1992        334.922          42.500  
C13  37046624.370    -8446791.8272        708.906          45.750  
C 2  37383091.246    -8473515.0082        376.846          38.250  
C 1  37839339.268    -7525942.6592        349.688          41.000  
C 4  38788145.661    -7479782.7662        329.805          37.500  
G13  22566004.868    -9246077.533        3641.201          40.250  
C 9  39072114.926    -4385158.7962       1822.451          33.500  
G15  24450599.225    -3551262.717        4223.174          33.000  
G 2  21568209.929   -25745680.495         781.934          48.000  
C 5  39443260.226    -8213882.0302        368.535          35.500  
C12  21583600.943   -29904607.4312        823.506          46.250  
G19  23428253.439   -10762839.555       -3110.498          38.250  
G 6  22643524.193   -19026420.700       -1018.271          44.000  
G29  23801447.312    -8856252.372        3681.455          42.500  
C22  24225254.359   -21677758.7752      -2249.277          47.000  
G12  23358020.257   -13758670.442       -1776.328          39.500  
G30  25707405.534    -2134495.578        2005.801          32.750  
G 5  20538129.898   -30450876.230         193.242          47.000  
> 2020  6 29  9  3  3.0000000  0 28                     
C21  21856907.004   -18604162.2812         98.643          49.000  
C16  37945546.803   -22158081.7612       1842.627          40.500  
G17  24805041.177     3717364.540       -3181.338          33.750  
G 9  24780935.180   -10911922.179       -2633.135          34.500  
C 6  37366396.208   -22672174.8452       1675.117          40.000  
C11  24468717.280   -15157813.4222       3080.967          43.500  
G25  24012923.953    -8027976.086        -635.000          35.750  
C 8  37008700.628    -4235565.6692        736.797          45.000  
C 7  39913316.087    12760850.0042      -1101.094          31.000  
C10  39028646.525     6608467.8292      -1333.613          34.500  
C 3  36410816.766    -7896498.0722        334.912          42.500  
C13  37046488.067    -8447500.7512        708.975          45.750  
C 2  37383018.744    -8473891.7622        376.816          38.250  
C 1  37839272.041    -7526292.2822        349.590          41.250  
C 4  38788082.540    -7480112.4402        329.639          37.500  
G13  22565311.881    -9249718.497        3640.938          40.250  
C 9  39071765.110    -4386981.1882       1822.422          33.500  
G15  24449795.420    -3555485.720        4222.969          32.750  
G 2  21568061.236   -25746462.268         781.748          48.000  
C 5  39443189.387    -8214250.4892        368.477          35.500  
C12  21583442.735   -29905430.5872        823.047          46.250  
G19  23428845.504   -10759728.826       -3110.781          38.250  
G 6  22643718.161   -19025402.279       -1018.477          44.000  
G29  23800746.725    -8859933.657        3681.240          42.500  
C22  24225686.243   -21675509.3432      -2249.453          47.250  
G12  23358359.031   -13756893.865       -1776.641          39.750  
G30  25707023.824    -2136501.365        2005.791          33.000  
G 5  20538093.209   -30451069.141         192.793          47.000  
> 2020  6 29  9  3  4.0000000  0 28                     
C21  21856887.725   -18604260.6332         98.223          49.000  
C16  37945192.926   -22159924.2922       1842.500          40.500  
G17  24805646.529     3720545.837       -3181.455          33.250  
G 9  24781436.368   -10909288.808       -2633.447          34.250  
C 6  37366074.491   -22673849.8562       1674.951          40.250  
C11  24468125.713   -15160894.3542       3080.898          43.750  
G25  24013044.813    -8027340.841        -635.322          36.000  
C 8  37008559.102    -4236302.5542        736.875          45.250  
C 7  39913527.566    12761951.0592      -1101.123          31.000  
C10  39028902.642     6609801.6222      -1333.740          34.250  
C 3  36410752.196    -7896832.9602        334.912          42.500  
C13  37046351.946    -8448209.7762        709.043          45.750  
C 2  37382946.413    -8474268.5142        376.768          38.000  
C 1  37839205.028    -7526641.9332        349.639          41.250  
C 4  38788019.413    -7480442.1572        329.648          37.500  
G13  22564618.924    -9253359.245        3640.684          40.000  
C 9  39071415.225    -4388803.5532       1822.354          33.500  
G15  24448991.920    -3559708.753        4223.057          32.750  
G 2  21567912.329   -25747243.936         781.621          47.750  
C 5  39443118.683    -8214618.9772        368.477          35.500  
C12  21583284.553   -29906253.3392        822.617          46.250  
G19  23429437.310   -10756617.900       -3110.986          38.000  
G 6  22643911.837   -19024383.694       -1018.672          44.000  
G29  23800046.256    -8863614.751        3681.035          42.500  
C22  24226118.206   -21673259.8052      -2249.590          47.000  
G12  23358697.578   -13755117.021       -1776.934          40.000  
G30  25706642.214    -2138507.168        2005.752          32.750  
G 5  20538056.467   -30451261.695         192.422          47.000  
> 2020  6 29  9  3  5.0000000  0 28                     
C21  21856869.324   -18604358.7262         97.891          49.000  
C16  37944839.079   -22161766.8852       1842.432          40.500  
G17  24806251.759     3723727.146       -3181.436          33.750  
G 9  24781937.503   -10906655.239       -2633.809          34.500  
C 6  37365752.914   -22675524.9192       1674.941          40.000  
C11  24467533.902   -15163975.3122       3080.811          43.750  
G25  24013165.778    -8026705.243        -635.811          35.750  
C 8  37008417.590    -4237039.6452        737.031          45.250  
C 7  39913738.771    12763051.8022      -1100.664          30.750  
C10  39029158.720     6611135.1882      -1333.711          34.500  
C 3  36410687.979    -7897167.9942        334.951          42.500  
C13  37046215.769    -8448919.0342        709.229          45.750  
C 2  37382874.025    -8474645.4332        376.855          38.250  
C 1  37839137.915    -7526991.7432        349.756          41.250  
C 4  38787955.895    -7480772.0332        329.834          37.500  
G13  22563926.002    -9256999.939        3640.537          40.000  
C 9  39071065.496    -4390626.0662       1822.441          33.500  
G15  24448188.342    -3563931.902        4223.066          32.750  
G 2  21567763.653   -25748025.604         781.562          47.750  
C 5  39443047.800    -8214987.6222        368.623          35.500  
C12  21583126.746   -29907075.8132        822.266          46.250  
G19  23430029.278   -10753506.856       -3111.162          38.250  
G 6  22644105.591   -19023365.070       -1018.760          44.000  
G29  23799345.708    -8867295.807        3680.928          42.500  
C22  24226549.986   -21671010.2742      -2249.658          47.000  
G12  23359036.108   -13753340.047       -1777.129          39.750  
G30  25706260.577    -2140513.106        2005.840          32.750  
G 5  20538019.909   -30451454.037         192.158          47.250  
> 2020  6 29  9  3  6.0000000  0 28                     
C21  21856850.221   -18604456.3502         97.529          49.000  
C16  37944485.115   -22163609.3452       1842.441          40.500  
G17  24806857.282     3726908.620       -3181.514          33.750  
G 9  24782438.734   -10904021.383       -2634.033          34.750  
C 6  37365431.333   -22677199.8352       1674.893          40.250  
C11  24466942.331   -15167056.1552       3080.830          43.750  
G25  24013286.883    -8026069.157        -636.250          35.500  
C 8  37008275.968    -4237776.7602        737.158          45.000  
C 7  39913949.927    12764152.6182      -1100.566          30.750  
C10  39029414.588     6612468.8162      -1333.633          34.250  
C 3  36410623.570    -7897502.9912        335.020          42.500  
C13  37046079.566    -8449628.3112        709.336          45.750  
C 2  37382801.873    -8475022.3022        376.904          38.250  
C 1  37839070.845    -7527341.4992        349.775          41.000  
C 4  38787892.646    -7481101.8152        329.814          37.500  
G13  22563233.364    -9260640.328        3640.342          40.250  
C 9  39070715.493    -4392448.4752       1822.354          33.750  
G15  24447384.742    -3568154.935        4223.066          32.500  
G 2  21567614.986   -25748807.102         781.494          48.000  
C 5  39442977.048    -8215356.2172        368.691          35.500  
C12  21582968.975   -29907897.8252        821.914          46.250  
G19  23430621.259   -10750395.528       -3111.328          38.000  
G 6  22644299.633   -19022346.216       -1018.867          44.000  
G29  23798645.492    -8870976.623        3680.771          42.250  
C22  24226982.258   -21668760.5662      -2249.727          47.000  
G12  23359374.900   -13751562.716       -1777.422          39.750  
G30  25705879.002    -2142519.012        2005.898          32.750  
G 5  20537983.324   -30451645.956         191.855          47.000  
> 2020  6 29  9  3  7.0000000  0 28                     
C21  21856831.841   -18604553.6452         97.266          49.000  
C16  37944131.259   -22165451.8092       1842.539          40.500  
G17  24807462.752     3730090.129       -3181.475          34.250  
G 9  24782940.009   -10901387.249       -2634.111          34.750  
C 6  37365109.451   -22678874.7462       1674.941          40.250  
C11  24466351.009   -15170136.9852       3080.898          43.750  
G25  24013408.105    -8025432.759        -636.426          35.500  
C 8  37008134.242    -4238514.0562        737.422          45.000  
C 7  39914161.210    12765253.2112      -1100.488          30.750  
C10  39029670.796     6613802.3082      -1333.418          34.250  
C 3  36410559.161    -7897838.0662        335.195          42.500  
C13  37045943.223    -8450337.8022        709.619          45.750  
C 2  37382729.507    -8475399.2952        377.148          38.250  
C 1  37839003.461    -7527691.3652        349.971          41.000  
C 4  38787829.106    -7481431.7212        330.010          37.500  
G13  22562540.843    -9264280.626        3640.361          40.250  
C 9  39070365.441    -4394270.9942       1822.500          33.500  
G15  24446581.177    -3572378.026        4223.037          33.000  
G 2  21567466.118   -25749588.550         781.523          48.000  
C 5  39442906.279    -8215724.9152        368.838          35.500  
C12  21582811.059   -29908719.5302        821.670          46.250  
G19  23431213.590   -10747284.066       -3111.455          38.250  
G 6  22644493.653   -19021327.271       -1018.945          44.000  
G29  23797944.914    -8874657.355        3680.820          42.250  
C22  24227414.229   -21666510.8252      -2249.688          47.000  
G12  23359713.286   -13749785.230       -1777.461          39.750  
G30  25705497.649    -2144524.972        2006.074          32.750  
G 5  20537946.823   -30451837.604         191.660          47.000  
> 2020  6 29  9  3  8.0000000  0 28                     
C21  21856812.816   -18604650.3542         96.475          49.000  
C16  37943777.504   -22167294.0222       1842.090          40.500  
G17  24808068.292     3733271.945       -3182.002          34.000  
G 9  24783441.131   -10898752.709       -2634.648          34.500  
C 6  37364787.669   -22680549.4272       1674.541          40.250  
C11  24465759.451   -15173217.5442       3080.430          43.750  
G25  24013529.153    -8024795.754        -637.148          35.750  
C 8  37007992.690    -4239251.2472        737.119          45.000  
C 7  39914372.606    12766353.9082      -1100.830          30.750  
C10  39029927.018     6615135.9632      -1333.730          34.250  
C 3  36410494.910    -7898172.9732        334.766          42.500  
C13  37045807.015    -8451047.2202        709.336          45.750  
C 2  37382656.923    -8475776.0842        376.631          38.250  
C 1  37838936.338    -7528041.0482        349.580          41.250  
C 4  38787765.849    -7481761.4842        329.678          37.500  
G13  22561848.213    -9267920.501        3639.668          40.000  
C 9  39070015.451    -4396093.3282       1822.158          33.500  
G15  24445777.599    -3576601.015        4222.959          32.250  
G 2  21567317.508   -25750369.687         781.016          48.000  
C 5  39442835.361    -8216093.4032        368.379          35.500  
C12  21582653.318   -29909540.6252        820.840          46.250  
G19  23431805.850   -10744172.182       -3112.061          38.000  
G 6  22644687.617   -19020307.973       -1019.473          44.000  
G29  23797244.462    -8878337.734        3680.205          42.250  
C22  24227846.266   -21664260.7722      -2250.205          47.000  
G12  23360051.929   -13748007.269       -1778.154          39.750  
G30  25705116.057    -2146530.779        2005.703          32.500  
G 5  20537910.391   -30452028.691         190.869          47.000  
> 2020  6 29  9  3  9.0000000  0 28                     
C21  21856794.781   -18604746.7012         96.279          49.000  
C16  37943423.596   -22169136.1922       1842.207          40.500  
G17  24808673.754     3736453.851       -3181.934          34.000  
G 9  24783942.594   -10896117.841       -2634.932          34.500  
C 6  37364466.345   -22682224.0292       1674.668          40.250  
C11  24465167.692   -15176298.0762       3080.566          43.750  
G25  24013650.668    -8024158.335        -637.471          35.500  
C 8  37007851.226    -4239988.5882        737.402          45.000  
C 7  39914583.784    12767454.3922      -1100.322          30.750  
C10  39030182.991     6616469.4532      -1333.232          34.250  
C 3  36410430.619    -7898507.9612        335.029          42.500  
C13  37045670.686    -8451756.7792        709.609          45.750  
C 2  37382584.696    -8476152.9632        376.973          38.250  
C 1  37838869.203    -7528390.8112        349.756          41.250  
C 4  38787702.426    -7482091.2862        329.854          37.750  
G13  22561155.815    -9271560.190        3639.668          40.000  
C 9  39069665.374    -4397915.7012       1822.363          33.500  
G15  24444974.043    -3580823.954        4222.891          32.500  
G 2  21567168.775   -25751150.744         781.055          48.000  
C 5  39442764.706    -8216462.0012        368.613          35.750  
C12  21582495.620   -29910361.3732        820.664          46.000  
G19  23432398.215   -10741060.115       -3112.119          38.000  
G 6  22644881.733   -19019288.554       -1019.453          44.000  
G29  23796544.316    -8882017.968        3680.273          42.000  
C22  24228278.233   -21662010.6552      -2250.098          47.000  
G12  23360390.289   -13746229.083       -1778.252          39.750  
G30  25704734.316    -2148536.653        2005.840          32.500  
G 5  20537874.204   -30452219.471         190.742          47.000  
> 2020  6 29  9  3 10.0000000  0 28                     
C21  21856775.961   -18604842.6432         95.840          49.000  
C16  37943070.024   -22170978.2972       1842.061          40.250  
G17  24809279.041     3739635.866       -3182.080          33.750  
G 9  24784443.790   -10893482.706       -2635.312          34.750  
C 6  37364144.912   -22683898.5592       1674.502          40.250  
C11  24464576.265   -15179378.5432       3080.449          43.750  
G25  24013771.881    -8023520.471        -638.057          35.500  
C 8  37007709.556    -4240726.0142        737.461          45.000  
C 7  39914794.701    12768554.8002      -1100.225          30.500  
C10  39030439.143     6617802.9902      -1333.457          34.250  
C 3  36410366.384    -7898842.9572        335.010          42.500  
C13  37045534.282    -8452466.4452        709.697          45.750  
C 2  37382512.609    -8476529.8472        376.963          38.500  
C 1  37838802.164    -7528740.6182        349.814          41.250  
C 4  38787639.016    -7482421.1322        329.844          37.500  
G13  22560463.342    -9275199.708        3639.434          40.000  
C 9  39069315.514    -4399738.0772       1822.344          33.500  
G15  24444170.595    -3585046.931        4222.891          32.250  
G 2  21567020.291   -25751931.700         780.928          48.000  
C 5  39442693.853    -8216830.6192        368.574          35.750  
C12  21582338.127   -29911181.7162        820.225          46.250  
G19  23432990.458   -10737947.825       -3112.305          38.000  
G 6  22645075.871   -19018268.975       -1019.629          44.000  
G29  23795843.999    -8885698.046        3680.059          42.000  
C22  24228710.375   -21659760.4292      -2250.254          47.000  
G12  23360729.028   -13744450.642       -1778.545          39.750  
G30  25704352.789    -2150542.552        2006.025          32.250  
G 5  20537837.886   -30452409.905         190.342          47.000  
> 2020  6 29  9  3 11.0000000  0 28                     
C21  21856757.944   -18604938.2182         95.439          49.000  
C16  37942716.138   -22172820.3632       1841.992          40.250  
G17  24809884.642     3742817.944       -3182.100          33.500  
G 9  24784945.537   -10890847.373       -2635.400          34.500  
C 6  37363823.217   -22685573.0602       1674.473          40.000  
C11  24463984.497   -15182458.9502       3080.352          43.750  
G25  24013893.374    -8022882.212        -638.438          35.500  
C 8  37007568.078    -4241463.5792        737.568          45.000  
C 7  39915005.862    12769655.1062      -1100.146          30.500  
C10  39030695.364     6619136.4772      -1333.525          34.250  
C 3  36410302.098    -7899178.0132        335.059          42.500  
C13  37045398.209    -8453176.2332        709.805          45.750  
C 2  37382440.427    -8476906.7972        377.051          38.250  
C 1  37838734.906    -7529090.4642        349.893          41.000  
C 4  38787575.733    -7482751.0262        329.961          37.500  
G13  22559770.730    -9278839.022        3639.209          40.000  
C 9  39068965.480    -4401560.4912       1822.393          33.750  
G15  24443365.124    -3589269.886        4222.949          32.250  
G 2  21566871.581   -25752712.559         780.830          48.000  
C 5  39442622.905    -8217199.2932        368.643          35.500  
C12  21582180.709   -29912001.6742        819.824          46.250  
G19  23433582.618   -10734835.340       -3112.568          38.000  
G 6  22645270.149   -19017249.266       -1019.766          44.000  
G29  23795143.692    -8889377.958        3679.863          42.000  
C22  24229142.669   -21657510.1122      -2250.371          47.000  
G12  23361067.357   -13742671.962       -1778.770          39.750  
G30  25703970.703    -2152548.455        2005.996          32.750  
G 5  20537801.572   -30452600.018         190.029          47.000  
> 2020  6 29  9  3 12.0000000  0 28                     
C21  21856739.385   -18605033.2492         94.834          49.000  
C16  37942362.461   -22174662.2192       1841.797          40.250  
G17  24810489.964     3746000.314       -3182.490          33.500  
G 9  24785447.239   -10888211.542       -2635.908          34.500  
C 6  37363501.601   -22687247.3382       1674.180          40.250  
C11  24463392.970   -15185539.1432       3080.068          43.750  
G25  24014014.976    -8022243.476        -638.867          35.750  
C 8  37007426.418    -4242201.0832        737.461          45.000  
C 7  39915217.437    12770755.4722      -1100.547          30.500  
C10  39030951.359     6620470.0352      -1333.633          34.000  
C 3  36410237.606    -7899512.9632        334.893          42.500  
C13  37045261.696    -8453886.0222        709.746          45.750  
C 2  37382367.895    -8477283.6092        376.816          38.000  
C 1  37838667.483    -7529440.1722        349.648          41.250  
C 4  38787512.223    -7483080.7812        329.629          37.500  
G13  22559078.205    -9282477.998        3638.848          40.000  
C 9  39068615.363    -4403382.7382       1822.197          33.500  
G15  24442559.325    -3593492.735        4222.471          32.000  
G 2  21566723.228   -25753493.155         780.498          48.000  
C 5  39442551.979    -8217567.8442        368.496          35.750  
C12  21582023.277   -29912821.0942        819.229          46.250  
G19  23434175.022   -10731722.486       -3113.018          38.000  
G 6  22645464.413   -19016229.241       -1020.146          44.250  
G29  23794443.375    -8893057.564        3679.512          42.000  
C22  24229574.754   -21655259.5492      -2250.654          47.000  
G12  23361405.861   -13740892.859       -1779.326          39.750  
G30  25703588.897    -2154554.212        2005.713          32.500  
G 5  20537765.860   -30452789.620         189.443          47.000  
> 2020  6 29  9  3 13.0000000  0 28                     
C21  21856721.687   -18605127.8752         94.561          49.000  
C16  37942008.876   -22176503.9952       1841.787          40.500  
G17  24811095.691     3749182.766       -3182.539          33.500  
G 9  24785948.798   -10885575.450       -2636.123          34.500  
C 6  37363180.115   -22688921.5362       1674.229          40.250  
C11  24462801.499   -15188619.2302       3080.078          43.750  
G25  24014136.704    -8021604.188        -639.385          35.750  
C 8  37007284.587    -4242938.6942        737.666          45.000  
C 7  39915428.890    12771855.6562      -1100.020          30.500  
C10  39031207.310     6621803.5982      -1333.447          34.000  
C 3  36410173.258    -7899847.9262        335.029          42.500  
C13  37045125.453    -8454595.8852        709.893          45.750  
C 2  37382295.638    -8477660.4522        376.963          38.000  
C 1  37838600.356    -7529789.9272        349.736          41.250  
C 4  38787448.874    -7483410.5812        329.814          37.500  
G13  22558385.925    -9286116.771        3638.760          40.250  
C 9  39068265.369    -4405205.0102       1822.227          33.250  
G15  24441757.771    -3597715.579        4222.852          32.000  
G 2  21566574.635   -25754273.625         780.449          48.000  
C 5  39442481.209    -8217936.4112        368.545          35.500  
C12  21581866.012   -29913640.1022        818.906          46.250  
G19  23434767.662   -10728609.410       -3113.125          38.000  
G 6  22645658.621   -19015209.051       -1020.225          44.000  
G29  23793743.338    -8896736.990        3679.414          42.000  
C22  24230007.170   -21653008.8662      -2250.674          47.000  
G12  23361744.539   -13739113.500       -1779.424          39.500  
G30  25703207.544    -2156560.055        2005.762          32.750  
G 5  20537729.672   -30452978.876         189.160          47.000  
> 2020  6 29  9  3 14.0000000  0 28                     
C21  21856703.325   -18605222.1022         94.111          49.000  
C16  37941655.130   -22178345.7022       1841.670          40.250  
G17  24811701.288     3752365.327       -3182.568          33.500  
G 9  24786450.435   -10882939.063       -2636.445          34.500  
C 6  37362858.748   -22690595.6392       1674.102          40.250  
C11  24462210.055   -15191699.2332       3079.980          43.750  
G25  24014258.419    -8020964.549        -639.688          35.750  
C 8  37007142.799    -4243676.4082        737.744          45.000  
C 7  39915639.252    12772955.7652      -1100.039          30.250  
C10  39031463.379     6623137.0872      -1333.594          34.250  
C 3  36410109.107    -7900182.8842        334.990          42.500  
C13  37044989.233    -8455305.8562        710.029          45.750  
C 2  37382223.298    -8478037.2822        376.865          38.250  
C 1  37838533.025    -7530139.6972        349.805          41.250  
C 4  38787385.473    -7483740.3672        329.785          37.500  
G13  22557693.430    -9289755.294        3638.438          40.250  
C 9  39067915.470    -4407027.2662       1822.256          33.500  
G15  24440955.672    -3601938.459        4222.979          32.000  
G 2  21566426.386   -25755053.974         780.303          48.000  
C 5  39442410.497    -8218304.9822        368.506          35.750  
C12  21581708.759   -29914458.7152        818.496          46.250  
G19  23435359.980   -10725496.099       -3113.350          38.000  
G 6  22645852.702   -19014188.687       -1020.420          44.250  
G29  23793043.174    -8900416.244        3679.209          42.000  
C22  24230439.255   -21650758.0602      -2250.850          46.750  
G12  23362083.108   -13737333.863       -1779.746          39.500  
G30  25702826.012    -2158565.855        2005.898          32.750  
G 5  20537693.873   -30453167.784         188.779          47.000  
> 2020  6 29  9  3 15.0000000  0 28                     
C21  21856685.805   -18605315.8172         93.623          49.000  
C16  37941301.314   -22180187.2362       1841.523          40.250  
G17  24812307.238     3755548.143       -3182.832          33.500  
G 9  24786952.102   -10880302.236       -2637.119          34.250  
C 6  37362537.175   -22692269.5732       1673.984          40.250  
C11  24461618.623   -15194779.0812       3079.844          43.750  
G25  24014380.078    -8020324.344        -640.332          35.750  
C 8  37007001.173    -4244414.0682        737.666          45.000  
C 7  39915847.294    12774055.8682      -1100.000          30.250  
C10  39031719.312     6624470.6442      -1333.555          34.250  
C 3  36410044.594    -7900517.7662        334.932          42.500  
C13  37044852.759    -8456015.8282        710.010          45.750  
C 2  37382150.831    -8478414.0462        376.885          38.250  
C 1  37838465.719    -7530489.3712        349.717          41.250  
C 4  38787322.124    -7484070.1232        329.785          37.500  
G13  22557001.258    -9293393.516        3638.203          40.250  
C 9  39067565.371    -4408849.4082       1822.227          33.500  
G15  24440151.998    -3606161.097        4222.578          32.000  
G 2  21566278.016   -25755834.093         780.107          48.000  
C 5  39442339.793    -8218673.5092        368.604          35.500  
C12  21581551.725   -29915276.8132        817.998          46.250  
G19  23435952.297   -10722382.471       -3113.701          37.750  
G 6  22646046.914   -19013168.059       -1020.664          44.000  
G29  23792343.019    -8904095.196        3678.896          42.000  
C22  24230871.475   -21648507.0342      -2251.045          46.750  
G12  23362421.847   -13735553.855       -1780.059          39.500  
G30  25702444.271    -2160571.555        2005.625          32.250  
G 5  20537657.882   -30453356.238         188.359          47.000  
> 2020  6 29  9  3 16.0000000  0 28                     
C21  21856667.386   -18605409.3602         93.564          49.000  
C16  37940947.733   -22182028.9182       1841.797          40.250  
G17  24812912.704     3758730.838       -3182.510          33.500  
G 9  24787453.656   -10877665.397       -2636.865          34.500  
C 6  37362215.663   -22693943.6372       1674.209          40.250  
C11  24461026.934   -15197859.0632       3080.088          43.750  
G25  24014501.732    -8019683.925        -640.410          35.750  
C 8  37006859.621    -4245152.0622        738.174          45.000  
C 7  39916060.714    12775155.7252      -1099.590          30.250  
C10  39031975.211     6625803.9772      -1333.154          34.250  
C 3  36409980.272    -7900852.8882        335.264          42.500  
C13  37044716.481    -8456726.1422        710.459          45.750  
C 2  37382078.352    -8478791.0772        377.148          38.250  
C 1  37838398.601    -7530839.2892        350.107          41.250  
C 4  38787258.959    -7484400.0862        330.137          37.750  
G13  22556308.795    -9297031.768        3638.330          40.000  
C 9  39067215.437    -4410671.7842       1822.539          33.500  
G15  24439347.839    -3610384.054        4223.086          32.250  
G 2  21566129.532   -25756614.320         780.312          48.000  
C 5  39442268.692    -8219042.2303        368.896          35.750  
C12  21581394.917   -29916094.7412        817.920          46.250  
G19  23436545.015   -10719268.826       -3113.623          37.750  
G 6  22646241.196   -19012147.490       -1020.479          44.250  
G29  23791642.868    -8907774.220        3679.102          42.000  
C22  24231303.499   -21646256.1322      -2250.820          46.750  
G12  23362760.774   -13733773.804       -1780.039          39.500  
G30  25702062.465    -2162577.489        2005.918          31.750  
G 5  20537621.957   -30453544.558         188.340          47.000  
> 2020  6 29  9  3 17.0000000  0 28                     
C21  21856649.683   -18605502.5312         93.018          49.000  
C16  37940594.222   -22183870.5532       1841.514          40.250  
G17  24813518.383     3761913.619       -3182.881          33.500  
G 9  24787955.245   -10875028.340       -2637.119          34.250  
C 6  37361894.073   -22695617.6562       1673.926          40.000  
C11  24460435.477   -15200938.9892       3079.863          43.750  
G25  24014623.618    -8019043.143        -640.918          35.500  
C 8  37006717.987    -4245890.1682        738.105          45.000  
C 7  39916270.182    12776255.3582      -1099.727          30.500  
C10  39032231.066     6627137.1622      -1333.164          34.000  
C 3  36409916.129    -7901188.0692        335.127          42.500  
C13  37044579.999    -8457436.5832        710.381          45.750  
C 2  37382006.252    -8479168.1372        377.031          38.500  
C 1  37838331.365    -7531189.3012        350.010          41.250  
C 4  38787195.706    -7484730.1272        329.980          37.750  
G13  22555616.566    -9300669.824        3637.949          40.000  
C 9  39066865.473    -4412494.1932       1822.217          33.500  
G15  24438544.602    -3614607.007        4222.793          32.000  
G 2  21565981.153   -25757394.468         780.049          48.000  
C 5  39442197.818    -8219411.0502        368.779          35.500  
C12  21581237.856   -29916912.2962        817.383          46.250  
G19  23437137.345   -10716154.997       -3113.955          37.750  
G 6  22646435.378   -19011126.774       -1020.840          44.250  
G29  23790942.840    -8911453.096        3678.779          42.000  
C22  24231735.767   -21644005.1392      -2251.064          46.750  
G12  23363099.387   -13731993.560       -1780.332          39.500  
G30  25701680.345    -2164583.510        2006.074          32.000  
G 5  20537586.201   -30453732.557         187.852          47.000  
> 2020  6 29  9  3 18.0000000  0 28                     
C21  21856631.670   -18605595.2182         92.598          49.000  
C16  37940240.528   -22185712.0592       1841.504          40.500  
G17  24814124.172     3765096.622       -3183.125          33.500  
G 9  24788457.423   -10872390.813       -2637.549          34.250  
C 6  37361572.710   -22697291.5222       1673.857          40.250  
C11  24459844.311   -15204018.7632       3079.746          43.750  
G25  24014745.917    -8018401.847        -641.436          35.500  
C 8  37006576.147    -4246628.2832        738.184          45.000  
C 7  39916484.000    12777354.9872      -1099.580          31.000  
C10  39032487.122     6628470.4642      -1333.213          34.250  
C 3  36409851.808    -7901523.1972        335.195          42.500  
C13  37044443.639    -8458147.0442        710.498          45.750  
C 2  37381933.581    -8479545.1242        377.021          38.250  
C 1  37838264.221    -7531539.2172        349.951          41.250  
C 4  38787132.275    -7485060.0632        329.980          37.750  
G13  22554924.142    -9304307.602        3637.783          40.000  
C 9  39066515.631    -4414316.5012       1822.305          33.500  
G15  24437740.901    -3618829.827        4222.842          32.000  
G 2  21565832.774   -25758174.411         779.941          48.000  
C 5  39442127.157    -8219779.7802        368.652          35.500  
C12  21581080.796   -29917729.3512        816.963          46.250  
G19  23437729.889   -10713040.849       -3114.199          37.750  
G 6  22646629.586   -19010105.826       -1020.957          44.250  
G29  23790243.025    -8915131.697        3678.564          42.000  
C22  24232167.909   -21641753.9462      -2251.191          46.750  
G12  23363437.834   -13730212.900       -1780.703          39.250  
G30  25701298.346    -2166589.424        2005.859          31.500  
G 5  20537550.415   -30453920.109         187.471          47.000  
> 2020  6 29  9  3 19.0000000  0 28                     
C21  21856614.294   -18605687.4722         92.207          49.000  
C16  37939887.157   -22187553.4382       1841.475          40.500  
G17  24814729.673     3768279.733       -3182.998          33.250  
G 9  24788959.405   -10869753.010       -2637.852          34.250  
C 6  37361251.255   -22698965.2982       1673.848          40.250  
C11  24459252.845   -15207098.4412       3079.736          43.750  
G25  24014868.065    -8017760.083        -641.797          35.250  
C 8  37006434.329    -4247366.4642        738.281          45.000  
C 7  39916694.737    12778454.5172      -1099.561          31.000  
C10  39032743.165     6629803.7332      -1333.184          34.250  
C 3  36409787.321    -7901858.2982        335.146          42.500  
C13  37044307.073    -8458857.5992        710.654          45.750  
C 2  37381860.992    -8479922.1052        377.041          38.250  
C 1  37838197.012    -7531889.1292        349.980          41.250  
C 4  38787069.000    -7485390.0392        330.010          37.750  
G13  22554231.970    -9307945.133        3637.549          40.000  
C 9  39066165.942    -4416138.8092       1822.354          33.750  
G15  24436937.301    -3623052.661        4222.998          31.750  
G 2  21565684.167   -25758954.199         779.805          48.000  
C 5  39442056.292    -8220148.4942        368.730          35.500  
C12  21580923.909   -29918545.9972        816.592          46.250  
G19  23438322.590   -10709926.468       -3114.375          37.750  
G 6  22646823.772   -19009084.678       -1021.133          44.250  
G29  23789542.891    -8918810.113        3678.428          42.000  
C22  24232600.360   -21639502.6182      -2251.289          46.750  
G12  23363776.499   -13728431.987       -1780.918          39.000  
G30  25700916.841    -2168595.332        2006.084          31.500  
G 5  20537514.799   -30454107.270         187.139          47.000  
> 2020  6 29  9  3 20.0000000  0 28                     
C21  21856596.250   -18605779.4782         91.836          49.250  
C16  37939533.258   -22189394.9162       1841.387          40.500  
G17  24815335.322     3771462.817       -3183.154          33.250  
G 9  24789461.225   -10867115.075       -2638.047          34.250  
C 6  37360930.032   -22700639.1242       1673.750          40.250  
C11  24458661.439   -15210178.1722       3079.697          43.750  
G25  24014990.268    -8017118.044        -642.168          35.500  
C 8  37006292.546    -4248104.8902        738.418          45.000  
C 7  39916905.671    12779553.8272      -1099.326          31.000  
C10  39032999.107     6631136.8302      -1333.135          34.250  
C 3  36409722.868    -7902193.5882        335.273          42.500  
C13  37044170.647    -8459568.3932        710.791          45.750  
C 2  37381788.779    -8480299.2822        377.129          38.250  
C 1  37838129.955    -7532239.2382        350.107          41.000  
C 4  38787005.551    -7485720.1682        330.039          37.750  
G13  22553539.462    -9311582.612        3637.383          40.000  
C 9  39065815.960    -4417961.2382       1822.383          33.500  
G15  24436133.706    -3627275.622        4222.783          32.250  
G 2  21565535.762   -25759734.025         779.775          48.000  
C 5  39441985.431    -8220517.3862        368.779          35.500  
C12  21580767.250   -29919362.3752        816.240          46.250  
G19  23438915.204   -10706811.986       -3114.629          37.750  
G 6  22647018.220   -19008063.514       -1021.250          44.250  
G29  23788842.802    -8922488.500        3678.311          41.750  
C22  24233032.619   -21637251.3232      -2251.338          46.750  
G12  23364115.225   -13726650.962       -1781.113          39.250  
G30  25700535.091    -2170601.433        2006.064          31.750  
G 5  20537479.192   -30454294.234         186.826          47.000  
> 2020  6 29  9  3 21.0000000  0 28                     
C21  21856578.939   -18605870.9682         91.338          49.250  
C16  37939179.577   -22191236.2092       1841.299          40.500  
G17  24815941.272     3774646.109       -3183.398          33.500  
G 9  24789963.272   -10864476.703       -2638.574          34.250  
C 6  37360608.599   -22702312.7612       1673.594          40.250  
C11  24458070.099   -15213257.7162       3079.502          43.750  
G25  24015112.564    -8016475.457        -642.764          35.500  
C 8  37006150.833    -4248843.3102        738.428          45.000  
C 7  39917117.041    12780653.1162      -1099.268          31.250  
C10  39033255.311     6632470.0312      -1333.271          34.250  
C 3  36409658.590    -7902528.7672        335.137          42.500  
C13  37044033.921    -8460279.2002        710.791          45.750  
C 2  37381716.500    -8480676.3412        377.002          38.250  
C 1  37838062.868    -7532589.2492        350.000          41.250  
C 4  38786942.364    -7486050.2112        330.010          37.500  
G13  22552847.020    -9315219.747        3637.041          39.750  
C 9  39065465.961    -4419783.5802       1822.402          33.500  
G15  24435330.149    -3631498.445        4222.754          32.500  
G 2  21565387.348   -25760513.617         779.512          48.000  
C 5  39441914.636    -8220886.1852        368.779          35.250  
C12  21580610.421   -29920178.2262        815.703          46.250  
G19  23439507.896   -10703697.205       -3114.941          37.750  
G 6  22647212.624   -19007042.069       -1021.562          44.250  
G29  23788142.917    -8926166.587        3678.027          41.750  
C22  24233464.992   -21634999.7982      -2251.602          46.750  
G12  23364453.921   -13724869.538       -1781.494          39.250  
G30  25700153.141    -2172607.379        2005.908          31.500  
G 5  20537443.332   -30454480.729         186.367          47.000  
> 2020  6 29  9  3 22.0000000  0 28                     
C21  21856561.398   -18605962.0482         90.938          49.250  
C16  37938825.930   -22193077.3932       1841.152          40.250  
G17  24816546.921     3777829.547       -3183.379          33.750  
G 9  24790465.346   -10861838.095       -2638.691          34.250  
C 6  37360286.760   -22703986.2972       1673.496          40.000  
C11  24457478.668   -15216337.1632       3079.404          43.750  
G25  24015235.217    -8015832.424        -643.096          35.500  
C 8  37006008.963    -4249581.7822        738.496          45.000  
C 7  39917328.307    12781752.3172      -1099.141          31.250  
C10  39033511.520     6633803.1862      -1333.193          34.250  
C 3  36409594.059    -7902863.9502        335.146          42.500  
C13  37043897.512    -8460990.0882        710.889          45.750  
C 2  37381643.815    -8481053.4162        376.973          38.250  
C 1  37837995.575    -7532939.2472        350.000          41.250  
C 4  38786878.915    -7486380.2702        330.029          37.500  
G13  22552154.831    -9318856.665        3636.797          40.000  
C 9  39065115.892    -4421605.9202       1822.432          33.750  
G15  24434526.602    -3635721.260        4222.891          32.250  
G 2  21565239.073   -25761293.064         779.404          48.250  
C 5  39441843.687    -8221255.0072        368.857          35.500  
C12  21580454.054   -29920993.6762        815.303          46.250  
G19  23440100.536   -10700582.161       -3115.127          37.750  
G 6  22647406.832   -19006020.435       -1021.719          44.250  
G29  23787442.945    -8929844.473        3677.764          41.500  
C22  24233897.430   -21632748.1442      -2251.709          46.750  
G12  23364792.568   -13723087.852       -1781.797          39.000  
G30  25699771.343    -2174613.347        2005.967          31.500  
G 5  20537408.043   -30454666.854         185.996          46.750  
> 2020  6 29  9  3 23.0000000  0 28                     
C21  21856544.196   -18606052.4942         90.420          49.250  
C16  37938472.402   -22194918.2982       1841.016          40.500  
G17  24817152.771     3781013.321       -3183.711          33.500  
G 9  24790967.820   -10859198.908       -2639.248          34.000  
C 6  37359965.571   -22705659.5592       1673.350          40.000  
C11  24456887.494   -15219416.3002       3079.258          43.750  
G25  24015357.979    -8015188.766        -643.721          35.750  
C 8  37005867.057    -4250320.1572        738.506          45.000  
C 7  39917539.559    12782851.6912      -1099.160          31.500  
C10  39033767.623     6635136.4862      -1333.271          34.250  
C 3  36409529.904    -7903198.9452        335.049          42.500  
C13  37043761.034    -8461700.8422        710.938          45.500  
C 2  37381571.515    -8481430.3092        376.963          38.250  
C 1  37837928.523    -7533289.0782        349.951          41.250  
C 4  38786815.553    -7486710.1192        329.990          37.500  
G13  22551462.677    -9322493.140        3636.514          40.000  
C 9  39064766.190    -4423427.9822       1822.100          33.750  
G15  24433723.115    -3639943.844        4222.822          32.750  
G 2  21565090.987   -25762072.178         779.209          48.250  
C 5  39441773.045    -8221623.6472        368.799          35.500  
C12  21580297.508   -29921808.4812        814.795          46.250  
G19  23440693.263   -10697466.657       -3115.479          37.750  
G 6  22647601.476   -19004998.430       -1021.904          44.250  
G29  23786743.074    -8933521.980        3677.520          41.500  
C22  24234329.960   -21630496.1582      -2251.904          46.750  
G12  23365131.360   -13721305.663       -1782.158          38.750  
G30  25699389.367    -2176619.059        2006.025          31.500  
G 5  20537372.685   -30454852.400         185.537          47.000  
> 2020  6 29  9  3 24.0000000  0 28                     
C21  21856527.095   -18606142.4142         89.775          49.250  
C16  37938119.031   -22196759.0032       1840.645          40.500  
G17  24817758.655     3784197.361       -3184.141          33.250  
G 9  24791470.007   -10856559.291       -2639.736          34.250  
C 6  37359644.487   -22707332.5892       1672.939          40.000  
C11  24456296.167   -15222495.2342       3078.867          43.750  
G25  24015480.794    -8014544.568        -644.258          35.250  
C 8  37005725.279    -4251058.4502        738.281          45.000  
C 7  39917751.051    12783951.0132      -1099.355          31.750  
C10  39034023.806     6636469.8622      -1333.379          34.250  
C 3  36409465.718    -7903533.8202        334.844          42.500  
C13  37043624.517    -8462411.6102        710.781          45.500  
C 2  37381499.380    -8481807.0712        376.699          38.500  
C 1  37837861.361    -7533638.7772        349.688          41.250  
C 4  38786752.261    -7487039.8582        329.658          37.500  
G13  22550770.558    -9326129.286        3636.055          39.750  
C 9  39064416.195    -4425249.9682       1822.031          33.750  
G15  24432919.847    -3644166.254        4222.275          32.750  
G 2  21564942.826   -25762851.034         778.789          48.250  
C 5  39441702.153    -8221992.1192        368.496          35.250  
C12  21580141.206   -29922622.7622        814.131          46.250  
G19  23441286.174   -10694350.824       -3115.898          37.750  
G 6  22647795.950   -19003976.116       -1022.363          44.250  
G29  23786043.298    -8937199.182        3677.119          41.500  
C22  24234762.590   -21628243.9342      -2252.285          46.750  
G12  23365470.082   -13719523.070       -1782.725          38.750  
G30  25699007.870    -2178624.731        2005.586          31.750  
G 5  20537337.680   -30455037.463         184.922          47.000  
> 2020  6 29  9  3 25.0000000  0 28                     
C21  21856509.697   -18606231.9822         89.551          49.250  
C16  37937765.633   -22198599.6792       1840.752          40.500  
G17  24818364.784     3787381.435       -3184.082          33.500  
G 9  24791972.299   -10853919.516       -2639.736          34.250  
C 6  37359323.011   -22709005.5942       1672.998          40.000  
C11  24455704.962   -15225574.1482       3078.955          43.750  
G25  24015603.535    -8013899.943        -644.609          35.750  
C 8  37005583.395    -4251796.9052        738.555          45.000  
C 7  39917962.413    12785050.2342      -1099.141          31.500  
C10  39034279.813     6637803.2032      -1333.232          34.250  
C 3  36409401.444    -7903868.7902        335.049          42.500  
C13  37043487.982    -8463122.4942        710.996          45.500  
C 2  37381427.114    -8482183.9192        376.875          38.250  
C 1  37837793.999    -7533988.5572        349.824          41.250  
C 4  38786689.079    -7487369.6732        329.883          37.500  
G13  22550078.626    -9329765.285        3636.025          39.750  
C 9  39064066.231    -4427071.9752       1822.227          33.750  
G15  24432116.290    -3648388.701        4222.617          32.500  
G 2  21564794.747   -25763629.828         778.848          48.250  
C 5  39441631.475    -8222360.7302        368.594          35.250  
C12  21579984.852   -29923436.6942        813.887          46.250  
G19  23441879.097   -10691234.810       -3116.045          37.750  
G 6  22647990.690   -19002953.694       -1022.373          44.250  
G29  23785343.248    -8940876.259        3677.100          41.500  
C22  24235195.063   -21625991.6422      -2252.246          46.750  
G12  23365809.031   -13717740.258       -1782.900          38.250  
G30  25698626.303    -2180630.412        2005.664          31.750  
G 5  20537302.386   -30455222.228         184.727          47.000  
> 2020  6 29  9  3 26.0000000  0 28                     
C21  21856492.871   -18606321.2282         89.180          49.250  
C16  37937412.188   -22200440.3692       1840.723          40.500  
G17  24818970.582     3790565.556       -3184.180          33.250  
G 9  24792474.695   -10851279.474       -2640.078          34.250  
C 6  37359001.565   -22710678.6062       1672.998          40.000  
C11  24455113.653   -15228653.0482       3078.916          43.750  
G25  24015726.380    -8013254.989        -645.078          36.000  
C 8  37005441.652    -4252535.5112        738.662          45.000  
C 7  39918173.508    12786149.2252      -1099.033          31.500  
C10  39034535.830     6639136.4162      -1333.193          34.250  
C 3  36409336.996    -7904203.8342        335.059          42.500  
C13  37043351.351    -8463833.5792        711.123          45.500  
C 2  37381354.565    -8482560.8562        376.963          38.250  
C 1  37837726.689    -7534338.4292        349.873          41.250  
C 4  38786625.712    -7487699.5752        329.941          37.500  
G13  22549386.769    -9333401.105        3635.771          39.750  
C 9  39063716.503    -4428894.0742       1822.266          34.000  
G15  24431312.751    -3652611.289        4222.588          32.250  
G 2  21564646.530   -25764408.579         778.750          48.250  
C 5  39441560.662    -8222729.3752        368.594          35.250  
C12  21579828.703   -29924250.3042        813.506          46.250  
G19  23442472.152   -10688118.640       -3116.240          37.750  
G 6  22648185.107   -19001931.168       -1022.568          44.000  
G29  23784643.651    -8944553.231        3676.914          41.250  
C22  24235627.681   -21623739.3052      -2252.344          46.500  
G12  23366148.075   -13715957.300       -1782.969          38.500  
G30  25698244.619    -2182636.196        2005.811          32.000  
G 5  20537267.399   -30455406.712         184.404          47.000  
> 2020  6 29  9  3 27.0000000  0 28                     
C21  21856475.381   -18606409.9862         88.555          49.250  
C16  37937058.956   -22202280.9052       1840.469          40.500  
G17  24819576.327     3793749.846       -3184.326          33.000  
G 9  24792977.187   -10848639.065       -2640.566          34.250  
C 6  37358680.424   -22712351.4472       1672.744          40.250  
C11  24454522.379   -15231731.7972       3078.633          43.750  
G25  24015849.107    -8012609.519        -645.654          36.000  
C 8  37005299.786    -4253274.1622        738.633          45.000  
C 7  39918384.516    12787248.2122      -1098.916          31.750  
C10  39034791.711     6640469.6712      -1333.379          34.250  
C 3  36409272.648    -7904538.8382        334.922          42.500  
C13  37043214.724    -8464544.6732        711.045          45.750  
C 2  37381281.872    -8482937.7442        376.846          38.500  
C 1  37837659.449    -7534688.2742        349.775          41.250  
C 4  38786562.242    -7488029.4262        329.805          37.500  
G13  22548694.475    -9337036.663        3635.381          39.500  
C 9  39063366.469    -4430716.0842       1822.061          34.000  
G15  24430509.282    -3656833.719        4222.432          32.500  
G 2  21564498.412   -25765187.129         778.457          48.250  
C 5  39441489.980    -8223097.9742        368.516          35.500  
C12  21579672.519   -29925063.4192        812.949          46.250  
G19  23443065.271   -10685002.184       -3116.582          38.000  
G 6  22648379.642   -19000908.406       -1022.891          44.250  
G29  23783943.749    -8948229.946        3676.562          41.250  
C22  24236060.180   -21621486.7932      -2252.598          46.750  
G12  23366486.915   -13714173.942       -1783.486          38.500  
G30  25697863.013    -2184641.910        2005.625          32.000  
G 5  20537232.407   -30455590.768         183.877          47.000  
> 2020  6 29  9  3 28.0000000  0 28                     
C21  21856458.869   -18606498.4572         88.379          49.250  
C16  37936705.441   -22204121.4682       1840.547          40.500  
G17  24820182.321     3796934.163       -3184.316          33.250  
G 9  24793479.771   -10845998.488       -2640.625          34.250  
C 6  37358359.231   -22714024.3112       1672.871          40.000  
C11  24453930.903   -15234810.5722       3078.770          43.750  
G25  24015972.096    -8011963.740        -645.830          35.750  
C 8  37005157.850    -4254012.9802        738.848          45.000  
C 7  39918595.664    12788347.0162      -1098.770          31.750  
C10  39035047.811     6641802.7822      -1333.164          34.250  
C 3  36409208.353    -7904873.9302        335.117          42.500  
C13  37043078.006    -8465255.9662        711.357          45.750  
C 2  37381209.654    -8483314.7372        377.061          38.250  
C 1  37837592.427    -7535038.2222        349.951          41.250  
C 4  38786498.657    -7488359.4002        330.010          37.750  
G13  22548002.604    -9340672.102        3635.371          39.500  
C 9  39063016.535    -4432538.1802       1822.119          33.500  
G15  24429705.661    -3661056.254        4222.568          32.750  
G 2  21564350.308   -25765965.660         778.525          48.250  
C 5  39441419.176    -8223466.7452        368.857          35.500  
C12  21579516.532   -29925876.2272        812.715          46.250  
G19  23443658.444   -10681885.591       -3116.621          37.750  
G 6  22648574.129   -18999885.584       -1022.861          44.000  
G29  23783243.961    -8951906.596        3676.611          41.250  
C22  24236492.727   -21619234.2562      -2252.549          46.500  
G12  23366825.881   -13712390.445       -1783.564          38.500  
G30  25697481.421    -2186647.675        2005.664          32.000  
G 5  20537197.506   -30455774.569         183.730          47.000  
> 2020  6 29  9  3 29.0000000  0 28                     
C21  21856441.493   -18606586.4322         87.881          49.250  
C16  37936351.791   -22205961.8692       1840.342          40.500  
G17  24820788.306     3800118.652       -3184.434          33.500  
G 9  24793982.590   -10843357.488       -2641.025          34.250  
C 6  37358037.802   -22715697.0122       1672.656          40.000  
C11  24453339.590   -15237889.1892       3078.613          43.750  
G25  24016095.221    -8011317.440        -646.436          35.750  
C 8  37005015.849    -4254751.8052        738.867          45.000  
C 7  39918806.580    12789445.7732      -1098.711          31.750  
C10  39035303.984     6643135.9432      -1333.213          34.250  
C 3  36409143.879    -7905209.0002        335.117          42.500  
C13  37042941.314    -8465967.3002        711.406          45.750  
C 2  37381137.362    -8483691.6792        377.012          38.250  
C 1  37837525.401    -7535388.1112        349.883          41.250  
C 4  38786435.269    -7488689.3242        329.893          37.750  
G13  22547310.673    -9344307.266        3635.117          39.500  
C 9  39062666.484    -4434360.1902       1822.051          33.750  
G15  24428902.161    -3665278.704        4222.373          32.500  
G 2  21564202.312   -25766743.984         778.320          48.250  
C 5  39441348.537    -8223835.3962        368.691          35.500  
C12  21579360.549   -29926688.5522        812.227          46.250  
G19  23444251.677   -10678768.692       -3116.953          37.750  
G 6  22648768.869   -18998862.488       -1023.115          44.000  
G29  23782544.530    -8955582.977        3676.309          41.250  
C22  24236925.161   -21616981.5292      -2252.734          46.500  
G12  23367165.131   -13710606.589       -1783.936          38.500  
G30  25697099.745    -2188653.465        2005.791          32.000  
G 5  20537162.728   -30455957.930         183.281          47.000  
> 2020  6 29  9  3 30.0000000  0 28                     
C21  21856425.168   -18606673.9872         87.451          49.250  
C16  37935998.267   -22207802.1972       1840.352          40.500  
G17  24821394.229     3803303.335       -3184.619          33.500  
G 9  24794485.256   -10840716.235       -2641.377          34.250  
C 6  37357716.391   -22717369.6052       1672.637          40.000  
C11  24452748.298   -15240967.6762       3078.496          43.750  
G25  24016218.594    -8010670.736        -646.680          36.250  
C 8  37004873.691    -4255490.7192        738.984          45.000  
C 7  39919017.667    12790544.4682      -1098.799          32.000  
C10  39035559.835     6644469.0762      -1332.988          34.250  
C 3  36409079.435    -7905544.0362        335.127          42.500  
C13  37042805.002    -8466678.7272        711.514          45.500  
C 2  37381064.800    -8484068.6112        376.963          38.250  
C 1  37837458.183    -7535738.0152        349.951          41.250  
C 4  38786371.759    -7489019.2532        330.049          37.500  
G13  22546618.802    -9347942.180        3634.961          39.500  
C 9  39062316.476    -4436182.1702       1821.895          33.750  
G15  24428098.884    -3669501.144        4222.490          32.750  
G 2  21564054.038   -25767522.165         778.193          48.250  
C 5  39441277.633    -8224204.0752        368.662          35.250  
C12  21579204.614   -29927500.4362        811.836          46.250  
G19  23444844.692   -10675651.560       -3117.109          37.750  
G 6  22648963.596   -18997839.247       -1023.223          44.000  
G29  23781844.889    -8959259.160        3676.230          41.250  
C22  24237357.913   -21614728.6662      -2252.852          46.500  
G12  23367504.472   -13708822.444       -1784.209          38.250  
G30  25696718.249    -2190659.165        2005.693          32.000  
G 5  20537127.849   -30456140.921         182.920          47.000  
> 2020  6 29  9  3 31.0000000  0 28                     
C21  21856408.023   -18606761.0752         86.953          49.250  
C16  37935644.860   -22209642.3682       1840.166          40.500  
G17  24822000.415     3806488.202       -3184.873          33.250  
G 9  24794987.871   -10838074.614       -2641.670          34.250  
C 6  37357395.303   -22719042.0812       1672.451          40.000  
C11  24452157.311   -15244046.0282       3078.330          43.750  
G25  24016341.906    -8010023.470        -647.412          36.000  
C 8  37004731.942    -4256229.6412        738.916          45.000  
C 7  39919228.648    12791643.0922      -1098.633          31.750  
C10  39035815.764     6645802.2302      -1333.125          34.250  
C 3  36409015.227    -7905879.0372        335.039          42.500  
C13  37042668.533    -8467390.1842        711.465          45.750  
C 2  37380992.242    -8484445.5112        376.963          38.250  
C 1  37837390.903    -7536087.8692        349.883          41.250  
C 4  38786308.428    -7489349.1102        329.873          37.250  
G13  22545927.302    -9351576.799        3634.609          39.250  
C 9  39061966.569    -4438004.1322       1821.982          33.750  
G15  24427295.332    -3673723.461        4222.412          32.750  
G 2  21563906.095   -25768300.157         777.959          48.250  
C 5  39441206.759    -8224572.7082        368.672          35.000  
C12  21579048.923   -29928311.8662        811.279          46.250  
G19  23445437.807   -10672534.142       -3117.510          37.750  
G 6  22649158.485   -18996815.744       -1023.545          44.250  
G29  23781145.567    -8962935.094        3675.928          41.250  
C22  24237790.526   -21612475.6172      -2253.086          46.500  
G12  23367844.053   -13707037.991       -1784.541          38.500  
G30  25696336.577    -2192664.871        2005.654          32.000  
G 5  20537093.001   -30456323.491         182.471          47.000  
> 2020  6 29  9  3 32.0000000  0 28                     
C21  21856391.939   -18606847.8092         86.592          49.250  
C16  37935291.607   -22211482.5242       1840.078          40.500  
G17  24822606.540     3809673.130       -3184.961          33.500  
G 9  24795490.629   -10835432.736       -2641.982          34.250  
C 6  37357074.079   -22720714.4882       1672.305          40.000  
C11  24451566.320   -15247124.3582       3078.252          43.750  
G25  24016465.327    -8009375.872        -647.734          36.000  
C 8  37004589.880    -4256968.7092        739.062          44.750  
C 7  39919439.822    12792741.5722      -1098.477          31.750  
C10  39036071.724     6647135.3372      -1333.105          34.500  
C 3  36408950.687    -7906214.0872        335.000          42.500  
C13  37042531.867    -8468101.7702        711.582          45.500  
C 2  37380919.897    -8484822.4422        376.855          38.250  
C 1  37837323.781    -7536437.7812        349.893          41.250  
C 4  38786245.027    -7489679.0402        329.941          37.500  
G13  22545235.606    -9355211.267        3634.434          39.250  
C 9  39061616.832    -4439826.1002       1821.904          33.500  
G15  24426491.998    -3677945.847        4222.314          32.500  
G 2  21563758.026   -25769078.076         777.871          48.250  
C 5  39441135.955    -8224941.4132        368.740          35.250  
C12  21578893.228   -29929122.9342        810.918          46.250  
G19  23446031.185   -10669416.508       -3117.705          37.750  
G 6  22649353.565   -18995792.121       -1023.721          44.250  
G29  23780446.145    -8966610.901        3675.713          41.000  
C22  24238223.187   -21610222.5082      -2253.203          46.500  
G12  23368183.621   -13705253.289       -1784.805          38.750  
G30  25695955.779    -2194670.573        2005.625          32.250  
G 5  20537058.450   -30456505.745         182.129          47.000  
> 2020  6 29  9  3 33.0000000  0 28                     
C21  21856375.287   -18606934.0712         86.172          49.250  
C16  37934938.301   -22213322.5362       1840.059          40.500  
G17  24823212.686     3812858.271       -3185.205          33.500  
G 9  24795993.409   -10832790.479       -2642.402          34.250  
C 6  37356752.794   -22722386.7822       1672.354          40.000  
C11  24450975.216   -15250202.5222       3078.213          43.750  
G25  24016588.721    -8008727.743        -648.232          36.500  
C 8  37004447.792    -4257707.8082        739.189          45.000  
C 7  39919650.586    12793840.0332      -1098.457          31.750  
C10  39036327.631     6648468.4592      -1332.988          34.250  
C 3  36408886.588    -7906549.1102        335.068          42.500  
C13  37042395.101    -8468813.4272        711.748          45.500  
C 2  37380847.837    -8485199.3482        376.953          38.250  
C 1  37837256.602    -7536787.6652        350.000          41.250  
C 4  38786181.753    -7490008.9512        330.029          37.500  
G13  22544543.871    -9358845.465        3634.180          39.500  
C 9  39061266.981    -4441648.0072       1821.953          33.500  
G15  24425688.978    -3682168.166        4222.295          32.250  
G 2  21563609.939   -25769855.810         777.744          48.250  
C 5  39441065.102    -8225310.0682        368.730          35.250  
C12  21578737.637   -29929933.5362        810.537          46.250  
G19  23446624.418   -10666298.631       -3117.900          37.750  
G 6  22649548.170   -18994768.281       -1023.809          44.250  
G29  23779746.793    -8970286.462        3675.547          41.000  
C22  24238656.074   -21607969.2202      -2253.271          46.500  
G12  23368523.896   -13703468.283       -1785.049          38.750  
G30  25695573.117    -2196676.245        2005.713          32.250  
G 5  20537023.973   -30456687.587         181.777          47.000  
> 2020  6 29  9  3 34.0000000  0 28                     
C21  21856358.591   -18607020.0272         85.732          49.250  
C16  37934584.681   -22215162.5672       1839.912          40.500  
G17  24823818.854     3816043.385       -3185.322          33.750  
G 9  24796496.193   -10830148.039       -2642.637          34.000  
C 6  37356431.632   -22724059.0722       1672.217          40.000  
C11  24450384.234   -15253280.7032       3078.057          43.750  
G25  24016712.483    -8008079.296        -648.682          36.500  
C 8  37004305.847    -4258447.0892        739.209          45.000  
C 7  39919861.563    12794938.3002      -1098.408          31.750  
C10  39036583.539     6649801.4462      -1333.174          34.250  
C 3  36408822.271    -7906884.2392        335.059          42.500  
C13  37042258.535    -8469525.2482        711.748          45.500  
C 2  37380775.340    -8485576.3422        376.885          38.250  
C 1  37837189.384    -7537137.6312        349.834          41.000  
C 4  38786118.635    -7490338.9472        330.000          37.500  
G13  22543852.445    -9362479.484        3633.857          39.500  
C 9  39060917.025    -4443470.0162       1821.924          33.500  
G15  24424885.841    -3686390.504        4222.334          32.500  
G 2  21563462.004   -25770633.495         777.568          48.250  
C 5  39440994.158    -8225678.8132        368.662          35.250  
C12  21578582.007   -29930743.8032        810.049          46.250  
G19  23447217.738   -10663180.594       -3118.184          37.750  
G 6  22649743.049   -18993744.337       -1024.053          44.000  
G29  23779047.345    -8973961.935        3675.293          41.000  
C22  24239088.696   -21605715.8972      -2253.467          46.500  
G12  23368864.066   -13701683.075       -1785.352          39.000  
G30  25695189.575    -2198681.989        2005.625          32.000  
G 5  20536989.190   -30456869.149         181.367          47.000  
> 2020  6 29  9  3 35.0000000  0 28                     
C21  21856342.424   -18607105.5652         85.371          49.250  
C16  37934231.502   -22217002.4932       1839.834          40.500  
G17  24824424.704     3819228.629       -3185.342          34.000  
G 9  24796999.213   -10827505.340       -2642.939          34.250  
C 6  37356110.556   -22725731.2412       1672.158          40.000  
C11  24449793.134   -15256358.7782       3077.988          43.750  
G25  24016836.371    -8007430.399        -649.043          36.750  
C 8  37004164.034    -4259186.4482        739.355          45.000  
C 7  39920072.432    12796036.4272      -1098.184          31.500  
C10  39036839.555     6651134.4072      -1332.998          34.250  
C 3  36408757.714    -7907219.3732        335.078          42.500  
C13  37042121.682    -8470237.1592        711.904          45.500  
C 2  37380702.664    -8485953.3662        377.012          38.250  
C 1  37837122.052    -7537487.6442        349.990          41.250  
C 4  38786055.247    -7490668.9492        329.971          37.500  
G13  22543160.911    -9366113.312        3633.613          39.750  
C 9  39060567.061    -4445291.9902       1821.973          33.500  
G15  24424083.074    -3690612.871        4222.393          32.500  
G 2  21563313.931   -25771411.066         777.500          48.250  
C 5  39440923.372    -8226047.5772        368.730          35.250  
C12  21578426.539   -29931553.6632        809.697          46.250  
G19  23447811.190   -10660062.320       -3118.418          37.750  
G 6  22649937.894   -18992720.216       -1024.229          44.000  
G29  23778347.944    -8977637.219        3675.176          41.250  
C22  24239521.452   -21603462.4532      -2253.506          46.500  
G12  23369204.328   -13699897.598       -1785.566          39.250  
G30  25694809.016    -2200687.782        2005.654          31.750  
G 5  20536954.735   -30457050.361         181.045          47.000  
> 2020  6 29  9  3 36.0000000  0 28                     
C21  21856325.907   -18607190.6552         84.932          49.250  
C16  37933878.087   -22218842.3202       1839.795          40.500  
G17  24825030.724     3822414.061       -3185.605          33.250  
G 9  24797502.220   -10824862.289       -2642.998          34.250  
C 6  37355789.560   -22727403.2922       1671.943          40.000  
C11  24449202.126   -15259436.7472       3077.900          43.750  
G25  24016959.940    -8006781.080        -649.570          37.000  
C 8  37004021.880    -4259925.8432        739.395          45.000  
C 7  39920283.370    12797134.5582      -1098.125          31.750  
C10  39037095.668     6652467.3762      -1333.047          34.250  
C 3  36408693.336    -7907554.4732        335.088          42.500  
C13  37041984.855    -8470949.1422        711.973          45.500  
C 2  37380630.272    -8486330.3432        377.012          38.000  
C 1  37837054.638    -7537837.5982        349.922          41.250  
C 4  38785991.816    -7490998.9162        329.893          37.500  
G13  22542469.389    -9369746.893        3633.496          39.500  
C 9  39060217.128    -4447113.9032       1821.758          33.500  
G15  24423279.762    -3694835.142        4222.246          32.500  
G 2  21563165.905   -25772188.462         777.344          48.250  
C 5  39440852.615    -8226416.2832        368.740          35.250  
C12  21578271.184   -29932363.0812        809.287          46.250  
G19  23448404.680   -10656943.778       -3118.633          37.750  
G 6  22650132.516   -18991695.891       -1024.434          44.000  
G29  23777648.609    -8981312.268        3674.951          41.250  
C22  24239954.122   -21601208.8542      -2253.662          46.750  
G12  23369544.481   -13698111.801       -1785.908          39.000  
G30  25694427.236    -2202693.484        2005.479          32.000  
G 5  20536920.305   -30457231.156         180.625          47.000  
> 2020  6 29  9  3 37.0000000  0 28                     
C21  21856309.975   -18607275.4462         84.717          49.250  
C16  37933524.829   -22220682.1812       1839.893          40.500  
G17  24825637.128     3825599.485       -3185.381          33.500  
G 9  24798005.044   -10822219.008       -2643.398          33.750  
C 6  37355468.301   -22729075.4002       1672.100          40.000  
C11  24448610.969   -15262514.7212       3078.018          43.500  
G25  24017083.658    -8006131.356        -649.971          37.000  
C 8  37003879.971    -4260665.4572        739.697          45.000  
C 7  39920494.247    12798232.4592      -1097.871          32.000  
C10  39037351.457     6653800.2092      -1332.695          34.250  
C 3  36408628.844    -7907889.6952        335.273          42.500  
C13  37041848.198    -8471661.3562        712.266          45.500  
C 2  37380558.011    -8486707.4512        377.158          38.250  
C 1  37836987.363    -7538187.7012        350.156          41.250  
C 4  38785928.345    -7491329.0522        330.225          37.500  
G13  22541778.103    -9373380.365        3633.506          39.750  
C 9  39059867.294    -4448935.9492       1822.070          33.250  
G15  24422474.888    -3699057.558        4222.373          32.500  
G 2  21563018.119   -25772965.843         777.373          48.250  
C 5  39440781.767    -8226785.1612        368.887          35.000  
C12  21578115.585   -29933172.1962        809.043          46.250  
G19  23448997.883   -10653825.120       -3118.633          37.750  
G 6  22650327.387   -18990671.513       -1024.385          44.000  
G29  23776949.205    -8984987.279        3675.068          41.250  
C22  24240387.114   -21598955.2362      -2253.623          46.500  
G12  23369884.568   -13696325.847       -1785.947          39.250  
G30  25694045.534    -2204699.345        2005.840          32.500  
G 5  20536885.880   -30457411.724         180.527          47.000  
> 2020  6 29  9  3 38.0000000  0 28                     
C21  21856293.423   -18607359.7802         84.092          49.500  
C16  37933171.436   -22222521.9142       1839.629          40.500  
G17  24826243.566     3828785.034       -3185.713          33.750  
G 9  24798508.046   -10819575.419       -2643.857          34.000  
C 6  37355147.405   -22730747.3572       1671.865          39.750  
C11  24448019.773   -15265592.5552       3077.676          43.500  
G25  24017207.297    -8005481.216        -650.449          36.750  
C 8  37003737.917    -4261405.0832        739.521          44.750  
C 7  39920705.050    12799330.3292      -1098.008          32.000  
C10  39037607.308     6655133.0672      -1332.900          34.250  
C 3  36408564.601    -7908224.8972        335.088          42.500  
C13  37041711.292    -8472373.6402        712.178          45.500  
C 2  37380485.631    -8487084.5392        377.002          38.250  
C 1  37836920.241    -7538537.7702        349.961          41.250  
C 4  38785865.053    -7491659.1252        329.951          37.500  
G13  22541086.913    -9377013.555        3633.027          39.750  
C 9  39059517.370    -4450757.9072       1821.836          33.250  
G15  24421670.555    -3703279.872        4222.207          32.500  
G 2  21562869.971   -25773743.050         777.061          48.250  
C 5  39440710.763    -8227154.0022        368.799          35.250  
C12  21577960.295   -29933980.8542        808.418          46.250  
G19  23449591.561   -10650706.216       -3119.053          37.750  
G 6  22650522.263   -18989646.911       -1024.746          44.000  
G29  23776249.564    -8988662.023        3674.590          41.250  
C22  24240819.888   -21596701.4732      -2253.887          46.500  
G12  23370224.813   -13694539.612       -1786.445          39.250  
G30  25693664.007    -2206705.150        2005.635          32.500  
G 5  20536851.634   -30457591.884         179.961          47.000  
> 2020  6 29  9  3 39.0000000  0 28                     
C21  21856277.557   -18607443.6572         83.857          49.500  
C16  37932818.196   -22224361.5012       1839.668          40.500  
G17  24826849.962     3831970.801       -3185.605          34.000  
G 9  24799011.210   -10816931.490       -2643.867          33.750  
C 6  37354826.321   -22732419.1502       1671.875          39.750  
C11  24447428.555   -15268670.2642       3077.764          43.500  
G25  24017330.967    -8004830.564        -650.625          36.750  
C 8  37003595.964    -4262144.7302        739.775          44.750  
C 7  39920916.006    12800428.1312      -1097.725          31.750  
C10  39037862.980     6656465.9622      -1332.969          34.250  
C 3  36408500.267    -7908560.0402        335.283          42.500  
C13  37041574.544    -8473085.9382        712.412          45.500  
C 2  37380413.187    -8487461.5742        377.168          38.250  
C 1  37836853.083    -7538887.8002        350.195          41.250  
C 4  38785801.870    -7491989.1652        330.166          37.500  
G13  22540395.614    -9380646.438        3632.891          39.750  
C 9  39059167.432    -4452579.8522       1822.061          33.500  
G15  24420869.032    -3707502.115        4222.217          32.750  
G 2  21562722.137   -25774520.068         777.080          48.250  
C 5  39440639.792    -8227522.7842        368.936          35.500  
C12  21577805.015   -29934789.0392        808.174          46.250  
G19  23450185.000   -10647586.955       -3119.219          37.750  
G 6  22650717.391   -18988622.052       -1024.795          44.000  
G29  23775550.321    -8992336.525        3674.590          41.250  
C22  24241252.632   -21594447.5132      -2253.877          46.500  
G12  23370565.018   -13692752.989       -1786.553          39.500  
G30  25693282.571    -2208710.898        2005.938          32.750  
G 5  20536817.532   -30457771.613         179.746          47.000  
> 2020  6 29  9  3 40.0000000  0 28                     
C21  21856261.180   -18607527.1202         83.311          49.250  
C16  37932464.990   -22226201.0272       1839.453          40.500  
G17  24827456.165     3835156.674       -3186.045          33.750  
G 9  24799514.274   -10814287.278       -2644.268          34.000  
C 6  37354505.263   -22734090.8842       1671.660          39.750  
C11  24446837.451   -15271747.8802       3077.529          43.750  
G25  24017454.998    -8004179.455        -651.328          36.750  
C 8  37003454.024    -4262884.4632        739.746          45.000  
C 7  39921126.717    12801525.8352      -1097.871          31.750  
C10  39038119.049     6657798.7852      -1332.764          34.000  
C 3  36408436.072    -7908895.2012        335.059          42.500  
C13  37041437.642    -8473798.3432        712.393          45.500  
C 2  37380340.777    -8487838.6212        376.953          38.250  
C 1  37836786.005    -7539237.8372        349.980          41.250  
C 4  38785738.391    -7492319.2142        329.961          37.250  
G13  22539704.432    -9384279.135        3632.539          39.750  
C 9  39058817.350    -4454401.7592       1821.797          33.500  
G15  24420064.625    -3711724.344        4222.168          32.750  
G 2  21562574.155   -25775296.965         776.797          48.250  
C 5  39440568.866    -8227891.5682        368.818          35.500  
C12  21577649.860   -29935596.8102        807.607          46.250  
G19  23450778.769   -10644467.510       -3119.512          37.750  
G 6  22650912.380   -18987597.038       -1025.117          44.000  
G29  23774851.191    -8996010.860        3674.209          41.000  
C22  24241685.689   -21592193.4292      -2254.160          46.500  
G12  23370905.205   -13690966.137       -1786.943          39.500  
G30  25692900.979    -2210716.624        2005.645          33.000  
G 5  20536783.517   -30457950.992         179.229          47.000  
> 2020  6 29  9  3 41.0000000  0 28                     
C21  21856245.461   -18607610.1252         82.861          49.250  
C16  37932111.789   -22228040.4122       1839.375          40.500  
G17  24828062.608     3838342.714       -3186.104          34.000  
G 9  24800017.879   -10811642.681       -2644.678          34.000  
C 6  37354184.284   -22735762.4732       1671.562          39.750  
C11  24446246.412   -15274825.3442       3077.422          43.500  
G25  24017579.078    -8003527.903        -651.709          37.000  
C 8  37003312.197    -4263624.2342        739.766          45.000  
C 7  39921337.407    12802623.5042      -1097.578          31.750  
C10  39038375.013     6659131.6352      -1332.852          34.000  
C 3  36408371.584    -7909230.3432        335.107          42.500  
C13  37041300.889    -8474510.7962        712.432          45.500  
C 2  37380268.354    -8488215.6752        377.041          38.250  
C 1  37836718.974    -7539587.8572        350.010          41.250  
C 4  38785674.837    -7492649.2502        330.088          37.500  
G13  22539013.343    -9387911.565        3632.285          39.750  
C 9  39058467.198    -4456223.6712       1821.934          33.250  
G15  24419260.946    -3715946.493        4222.109          32.500  
G 2  21562426.360   -25776073.667         776.621          48.250  
C 5  39440498.053    -8228260.3332        368.760          35.750  
C12  21577494.885   -29936404.1192        807.178          46.250  
G19  23451372.613   -10641347.760       -3119.863          37.750  
G 6  22651107.434   -18986571.808       -1025.352          44.000  
G29  23774152.022    -8999684.944        3674.004          41.000  
C22  24242118.577   -21589939.1892      -2254.297          46.500  
G12  23371245.916   -13689178.955       -1787.246          39.750  
G30  25692519.416    -2212722.322        2005.654          33.250  
G 5  20536749.472   -30458129.949         178.818          47.000  
> 2020  6 29  9  3 42.0000000  0 28                     
C21  21856229.678   -18607692.5632         82.412          49.250  
C16  37931758.483   -22229879.5562       1839.199          40.500  
G17  24828668.994     3841529.017       -3186.182          34.000  
G 9  24800521.104   -10808997.620       -2645.176          34.000  
C 6  37353863.304   -22737433.8342       1671.455          40.000  
C11  24445655.535   -15277902.5742       3077.256          43.500  
G25  24017703.158    -8002875.747        -652.285          36.750  
C 8  37003170.056    -4264363.9422        739.824          45.000  
C 7  39921548.280    12803721.2222      -1097.646          32.000  
C10  39038631.008     6660464.6472      -1332.920          34.000  
C 3  36408307.507    -7909565.3272        335.098          42.500  
C13  37041164.141    -8475223.1862        712.510          45.500  
C 2  37380195.892    -8488592.5382        377.012          38.250  
C 1  37836651.760    -7539937.7232        349.941          41.250  
C 4  38785611.401    -7492979.1142        330.127          37.250  
G13  22538322.319    -9391543.607        3632.031          40.000  
C 9  39058117.247    -4458045.2932       1821.729          33.250  
G15  24418457.643    -3720168.498        4222.295          32.750  
G 2  21562278.614   -25776850.086         776.455          48.250  
C 5  39440427.301    -8228628.9622        368.643          35.750  
C12  21577339.944   -29937210.8572        806.729          46.250  
G19  23451966.375   -10638227.660       -3120.117          37.750  
G 6  22651302.641   -18985546.250       -1025.508          44.000  
G29  23773452.822    -9003358.695        3673.838          41.000  
C22  24242551.665   -21587684.6672      -2254.453          46.750  
G12  23371586.287   -13687391.341       -1787.607          39.750  
G30  25692137.732    -2214727.843        2005.625          33.500  
G 5  20536715.501   -30458308.395         178.418          46.750  
> 2020  6 29  9  3 43.0000000  0 28                     
C21  21856213.506   -18607774.6682         82.002          49.500  
C16  37931405.513   -22231718.6982       1839.180          40.500  
G17  24829275.354     3844715.413       -3186.387          34.000  
G 9  24801024.826   -10806352.391       -2645.283          34.000  
C 6  37353542.508   -22739105.1572       1671.348          40.000  
C11  24445064.518   -15280979.7972       3077.227          43.500  
G25  24017827.587    -8002223.243        -652.598          36.750  
C 8  37003027.767    -4265103.7862        739.873          45.000  
C 7  39921758.952    12804818.7812      -1097.500          32.250  
C10  39038887.081     6661797.5112      -1332.803          34.250  
C 3  36408243.129    -7909900.3872        335.088          42.500  
C13  37041027.300    -8475935.7432        712.627          45.750  
C 2  37380123.456    -8488969.5082        377.041          38.250  
C 1  37836584.542    -7540287.6752        350.039          41.250  
C 4  38785548.148    -7493309.0552        330.000          37.250  
G13  22537631.294    -9395175.499        3631.836          40.250  
C 9  39057767.492    -4459867.0842       1821.943          33.250  
G15  24417654.178    -3724390.489        4222.041          33.000  
G 2  21562130.688   -25777626.454         776.348          48.250  
C 5  39440356.632    -8228997.6562        368.672          35.500  
C12  21577185.130   -29938017.2522        806.289          46.250  
G19  23452560.201   -10635107.404       -3120.273          37.750  
G 6  22651497.691   -18984520.565       -1025.693          44.000  
G29  23772753.400    -9007032.332        3673.613          40.750  
C22  24242984.540   -21585430.0902      -2254.600          46.750  
G12  23371926.715   -13685603.518       -1787.822          39.750  
G30  25691756.480    -2216733.464        2005.615          33.750  
G 5  20536681.547   -30458486.559         178.096          47.000  
> 2020  6 29  9  3 44.0000000  0 28                     
C21  21856198.198   -18607856.2622         81.523          49.500  
C16  37931052.269   -22233557.6372       1839.014          40.750  
G17  24829881.522     3847901.988       -3186.650          34.250  
G 9  24801528.129   -10803706.693       -2645.713          34.000  
C 6  37353221.477   -22740776.2912       1671.182          40.000  
C11  24444473.418   -15284056.8012       3077.021          43.500  
G25  24017952.124    -8001570.187        -653.145          36.750  
C 8  37002885.788    -4265843.6192        739.902          45.000  
C 7  39921969.903    12805916.3642      -1097.373          32.000  
C10  39039143.211     6663130.5282      -1333.027          34.000  
C 3  36408178.607    -7910235.3532        335.000          42.500  
C13  37040890.390    -8476648.2842        712.598          45.750  
C 2  37380051.112    -8489346.3532        376.836          38.250  
C 1  37836517.359    -7540637.5512        349.902          41.250  
C 4  38785484.721    -7493638.9032        329.795          37.500  
G13  22536940.226    -9398807.055        3631.543          40.250  
C 9  39057417.733    -4461688.6592       1821.523          33.250  
G15  24416850.735    -3728612.396        4221.963          33.000  
G 2  21561983.212   -25778402.575         776.113          48.000  
C 5  39440285.924    -8229366.2702        368.672          35.500  
C12  21577030.539   -29938823.1342        805.801          46.250  
G19  23453154.049   -10631986.769       -3120.645          38.000  
G 6  22651692.701   -18983494.611       -1025.977          44.000  
G29  23772054.532    -9010705.647        3673.291          40.750  
C22  24243417.405   -21583175.2972      -2254.795          46.750  
G12  23372267.483   -13683815.323       -1788.232          39.750  
G30  25691374.800    -2218738.953        2005.596          33.750  
G 5  20536647.606   -30458664.240         177.646          47.000  
> 2020  6 29  9  3 45.0000000  0 28                     
C21  21856182.300   -18607937.5002         81.045          49.250  
C16  37930698.998   -22235396.5562       1838.828          40.750  
G17  24830487.896     3851088.668       -3186.797          34.250  
G 9  24802031.655   -10801060.783       -2646.025          34.000  
C 6  37352900.502   -22742447.4142       1671.025          40.000  
C11  24443882.584   -15287133.7842       3076.885          43.500  
G25  24018076.662    -8000916.771        -653.662          36.750  
C 8  37002743.599    -4266583.6102        739.932          45.000  
C 7  39922180.754    12807013.7602      -1097.432          32.250  
C10  39039399.184     6664463.3942      -1333.057          34.000  
C 3  36408114.499    -7910570.3952        334.971          42.500  
C13  37040753.725    -8477360.9622        712.559          45.500  
C 2  37379978.716    -8489723.2822        376.875          38.250  
C 1  37836450.411    -7540987.4612        349.834          41.250  
C 4  38785421.399    -7493968.8562        329.971          37.500  
G13  22536249.115    -9402438.463        3631.270          40.000  
C 9  39057067.839    -4463510.3902       1821.602          33.250  
G15  24416047.249    -3732834.305        4221.826          33.000  
G 2  21561835.714   -25779178.625         775.928          48.000  
C 5  39440215.272    -8229734.9192        368.477          35.750  
C12  21576875.825   -29939628.6482        805.283          46.250  
G19  23453747.998   -10628865.988       -3120.938          38.000  
G 6  22651887.856   -18982468.548       -1026.191          44.000  
G29  23771355.673    -9014378.868        3673.008          40.750  
C22  24243850.585   -21580920.4352      -2254.980          46.750  
G12  23372608.137   -13682026.915       -1788.584          39.750  
G30  25690993.329    -2220744.518        2005.527          34.000  
G 5  20536613.840   -30458841.635         177.207          47.000  
> 2020  6 29  9  3 46.0000000  0 28                     
C21  21856167.053   -18608018.2292         80.586          49.250  
C16  37930345.844   -22237235.3142       1838.711          40.750  
G17  24831094.618     3854275.542       -3186.982          34.250  
G 9  24802535.286   -10798414.521       -2646.357          34.000  
C 6  37352579.400   -22744118.3142       1670.869          40.000  
C11  24443291.737   -15290210.5602       3076.738          43.500  
G25  24018201.113    -8000262.786        -654.141          36.500  
C 8  37002601.528    -4267323.5652        739.971          45.000  
C 7  39922391.649    12808111.2302      -1097.451          32.250  
C10  39039654.986     6665796.3792      -1333.145          34.000  
C 3  36408050.151    -7910905.3512        334.951          42.500  
C13  37040616.705    -8478073.6582        712.734          45.500  
C 2  37379906.123    -8490100.1162        376.826          38.250  
C 1  37836383.166    -7541337.3112        349.824          41.250  
C 4  38785357.937    -7494298.7062        329.824          37.500  
G13  22535558.317    -9406069.537        3630.977          40.000  
C 9  39056717.875    -4465331.9462       1821.582          33.250  
G15  24415243.867    -3737056.128        4221.777          33.000  
G 2  21561687.937   -25779954.454         775.781          48.000  
C 5  39440144.486    -8230103.5322        368.594          35.500  
C12  21576721.277   -29940433.6552        804.834          46.250  
G19  23454341.999   -10625744.865       -3121.182          38.000  
G 6  22652083.255   -18981442.187       -1026.436          44.000  
G29  23770656.748    -9018051.785        3672.822          40.750  
C22  24244283.739   -21578665.3592      -2255.137          46.750  
G12  23372948.770   -13680238.123       -1788.887          39.750  
G30  25690612.082    -2222749.937        2005.381          34.500  
G 5  20536580.009   -30459018.557         176.777          47.000  
> 2020  6 29  9  3 47.0000000  0 28                     
C21  21856151.444   -18608098.5952         80.244          49.250  
C16  37929992.875   -22239074.0352       1838.691          40.750  
G17  24831701.166     3857462.482       -3186.953          34.500  
G 9  24803039.170   -10795767.961       -2646.582          34.000  
C 6  37352258.600   -22745789.1892       1670.840          39.750  
C11  24442701.078   -15293287.3002       3076.670          43.500  
G25  24018325.607    -7999608.408        -654.492          36.750  
C 8  37002459.370    -4268063.6652        740.127          45.000  
C 7  39922602.268    12809208.5042      -1097.207          32.250  
C10  39039911.051     6667129.2262      -1332.812          34.250  
C 3  36407985.791    -7911240.3622        335.020          42.500  
C13  37040479.865    -8478786.4952        712.832          45.500  
C 2  37379833.578    -8490477.0232        376.826          38.250  
C 1  37836315.857    -7541687.2222        349.922          41.250  
C 4  38785294.488    -7494628.6112        329.834          37.500  
G13  22534867.498    -9409700.426        3630.840          39.750  
C 9  39056367.928    -4467153.5672       1821.738          33.250  
G15  24414440.446    -3741277.993        4221.924          33.000  
G 2  21561540.225   -25780730.190         775.684          48.250  
C 5  39440073.856    -8230472.1872        368.623          35.500  
C12  21576566.686   -29941238.3002        804.502          46.250  
G19  23454936.044   -10622623.564       -3121.377          38.000  
G 6  22652278.597   -18980415.720       -1026.504          44.000  
G29  23769958.032    -9021724.566        3672.695          40.750  
C22  24244716.949   -21576410.2122      -2255.176          46.750  
G12  23373289.162   -13678449.114       -1789.111          39.500  
G30  25690230.537    -2224755.447        2005.557          34.500  
G 5  20536546.491   -30459195.166         176.475          46.750  
> 2020  6 29  9  3 48.0000000  0 28                     
C21  21856136.014   -18608178.3642         79.697          49.250  
C16  37929639.656   -22240912.4882       1838.496          40.750  
G17  24832307.687     3860649.785       -3187.363          34.250  
G 9  24803542.940   -10793120.943       -2647.051          34.000  
C 6  37351937.734   -22747459.8092       1670.742          39.750  
C11  24442110.292   -15296363.7782       3076.543          43.500  
G25  24018450.228    -7998953.432        -655.088          36.750  
C 8  37002317.221    -4268803.6542        740.049          45.000  
C 7  39922813.106    12810305.8542      -1097.441          32.500  
C10  39040166.980     6668462.2702      -1333.008          34.000  
C 3  36407921.365    -7911575.1932        334.893          42.500  
C13  37040343.047    -8479499.2642        712.803          45.500  
C 2  37379761.421    -8490853.7352        376.787          38.250  
C 1  37836248.599    -7542036.9642        349.805          41.250  
C 4  38785231.139    -7494958.3592        329.814          37.500  
G13  22534176.806    -9413330.925        3630.439          39.750  
C 9  39056017.942    -4468974.9702       1821.494          33.250  
G15  24413637.260    -3745499.594        4221.670          33.000  
G 2  21561392.827   -25781505.616         775.430          48.000  
C 5  39440003.065    -8230840.6622        368.613          35.750  
C12  21576412.230   -29942042.3412        803.965          46.250  
G19  23455529.971   -10619501.838       -3121.738          38.000  
G 6  22652474.091   -18979388.875       -1026.865          44.000  
G29  23769259.046    -9025396.961        3672.344          40.500  
C22  24245150.160   -21574154.7512      -2255.459          46.750  
G12  23373629.555   -13676659.667       -1789.463          39.500  
G30  25689849.154    -2226760.771        2005.303          34.750  
G 5  20536513.030   -30459371.232         175.986          47.000  
> 2020  6 29  9  3 49.0000000  0 28                     
C21  21856120.919   -18608257.8532         79.443          49.250  
C16  37929286.634   -22242750.9782       1838.545          40.750  
G17  24832914.375     3863837.024       -3187.168          34.000  
G 9  24804046.497   -10790473.722       -2647.314          34.000  
C 6  37351617.051   -22749130.4382       1670.693          39.750  
C11  24441519.576   -15299440.2722       3076.572          43.500  
G25  24018575.014    -7998298.138        -655.273          36.750  
C 8  37002174.962    -4269543.8682        740.371          45.000  
C 7  39923023.914    12811402.9602      -1097.139          32.500  
C10  39040422.931     6669795.1502      -1332.793          34.000  
C 3  36407856.921    -7911910.1722        335.059          42.500  
C13  37040206.180    -8480212.2392        713.105          45.500  
C 2  37379689.426    -8491230.6002        376.982          38.250  
C 1  37836181.582    -7542386.8492        350.000          41.250  
C 4  38785167.843    -7495288.2262        329.980          37.500  
G13  22533485.668    -9416961.340        3630.479          39.750  
C 9  39055667.948    -4470796.5032       1821.768          33.500  
G15  24412833.965    -3749721.356        4221.924          33.000  
G 2  21561245.312   -25782281.035         775.459          48.000  
C 5  39439932.286    -8231209.2752        368.721          35.500  
C12  21576257.822   -29942846.1082        803.730          46.250  
G19  23456123.845   -10616380.029       -3121.846          38.250  
G 6  22652669.416   -18978361.991       -1026.816          44.000  
G29  23768560.204    -9029069.325        3672.441          40.500  
C22  24245583.052   -21571899.3012      -2255.410          46.750  
G12  23373969.930   -13674870.053       -1789.609          39.000  
G30  25689467.683    -2228766.202        2005.527          35.000  
G 5  20536479.561   -30459547.079         175.840          47.000  
> 2020  6 29  9  3 50.0000000  0 28                     
C21  21856105.306   -18608337.1462         79.277          49.250  
C16  37928933.542   -22244589.6072       1838.730          40.750  
G17  24833520.874     3867024.173       -3187.139          34.000  
G 9  24804550.241   -10787826.452       -2647.266          34.250  
C 6  37351296.233   -22750801.2012       1670.820          39.750  
C11  24440928.567   -15302516.9082       3076.670          43.500  
G25  24018700.028    -7997642.639        -655.645          36.750  
C 8  37002032.656    -4270284.3562        740.547          44.750  
C 7  39923234.211    12812499.7752      -1096.709          32.500  
C10  39040678.738     6671127.8202      -1332.539          33.750  
C 3  36407792.643    -7912245.3672        335.254          42.500  
C13  37040069.227    -8480925.5242        713.447          45.500  
C 2  37379617.391    -8491607.6632        377.148          38.500  
C 1  37836114.228    -7542736.9742        350.186          41.250  
C 4  38785104.594    -7495618.3452        330.205          37.500  
G13  22532794.722    -9420591.723        3630.518          39.750  
C 9  39055318.215    -4472618.2492       1821.777          33.500  
G15  24412030.326    -3753943.303        4221.963          32.500  
G 2  21561097.783   -25783056.542         775.557          48.000  
C 5  39439861.330    -8231578.1022        368.896          35.500  
C12  21576103.627   -29943649.6592        803.525          46.250  
G19  23456718.030   -10613258.191       -3121.797          38.250  
G 6  22652865.033   -18977335.135       -1026.816          44.000  
G29  23767861.153    -9032741.686        3672.422          40.500  
C22  24246016.310   -21569643.9392      -2255.312          46.750  
G12  23374310.083   -13673080.376       -1789.658          39.000  
G30  25689086.387    -2230771.889        2005.820          35.000  
G 5  20536446.248   -30459722.759         175.664          47.000  
> 2020  6 29  9  3 51.0000000  0 28                     
C21  21856090.508   -18608416.1232         78.896          49.250  
C16  37928580.484   -22246428.2192       1838.613          40.750  
G17  24834127.331     3870211.383       -3187.139          33.750  
G 9  24805054.107   -10785178.951       -2647.559          34.000  
C 6  37350975.415   -22752471.9712       1670.820          39.750  
C11  24440337.751   -15305593.5322       3076.621          43.500  
G25  24018824.596    -7996986.797        -655.947          37.000  
C 8  37001890.441    -4271025.0082        740.703          44.750  
C 7  39923444.944    12813596.4042      -1096.523          32.750  
C10  39040934.515     6672460.3382      -1332.451          34.000  
C 3  36407728.160    -7912580.6782        335.352          42.500  
C13  37039932.173    -8481639.0012        713.535          45.500  
C 2  37379544.916    -8491984.8752        377.197          38.250  
C 1  37836046.971    -7543087.1742        350.254          41.250  
C 4  38785041.106    -7495948.5392        330.225          37.500  
G13  22532103.881    -9424221.983        3630.293          39.500  
C 9  39054968.399    -4474440.0552       1821.816          33.500  
G15  24411226.944    -3758165.300        4222.168          32.750  
G 2  21560950.032   -25783832.005         775.430          48.000  
C 5  39439790.517    -8231947.0492        369.023          35.250  
C12  21575949.254   -29944452.8872        803.135          46.250  
G19  23457312.087   -10610136.206       -3122.041          38.250  
G 6  22653060.480   -18976308.198       -1026.992          44.000  
G29  23767162.254    -9036413.947        3672.197          40.500  
C22  24246449.320   -21567388.5542      -2255.391          46.750  
G12  23374649.991   -13671290.536       -1789.854          38.500  
G30  25688704.843    -2232777.610        2005.830          35.000  
G 5  20536412.709   -30459898.179         175.361          47.000  
> 2020  6 29  9  3 52.0000000  0 28                     
C21  21856075.104   -18608494.6642         78.379          49.250  
C16  37928227.501   -22248266.7582       1838.477          40.750  
G17  24834733.822     3873398.716       -3187.432          33.750  
G 9  24805557.934   -10782531.154       -2647.881          34.250  
C 6  37350654.646   -22754142.6232       1670.586          39.750  
C11  24439746.847   -15308670.0362       3076.426          43.500  
G25  24018949.631    -7996330.521        -656.514          37.000  
C 8  37001748.278    -4271765.7452        740.742          44.750  
C 7  39923655.694    12814692.9632      -1096.504          33.000  
C10  39041190.566     6673792.8702      -1332.676          33.750  
C 3  36407663.642    -7912915.9632        335.254          42.500  
C13  37039795.079    -8482352.5432        713.516          45.500  
C 2  37379472.241    -8492362.0562        377.090          38.250  
C 1  37835979.639    -7543437.3642        350.156          41.250  
C 4  38784977.688    -7496278.7222        330.195          37.500  
G13  22531412.892    -9427851.957        3629.854          39.750  
C 9  39054618.675    -4476261.8292       1821.807          33.500  
G15  24410423.467    -3762387.265        4222.002          32.500  
G 2  21560802.596   -25784607.316         775.234          48.000  
C 5  39439719.629    -8232315.9472        368.848          35.250  
C12  21575795.164   -29945255.6742        802.646          46.250  
G19  23457906.481   -10607013.978       -3122.354          38.250  
G 6  22653255.975   -18975281.061       -1027.256          44.000  
G29  23766463.124    -9040086.000        3671.914          40.500  
C22  24246882.447   -21565133.0152      -2255.625          46.750  
G12  23374989.974   -13669500.389       -1790.205          38.250  
G30  25688323.481    -2234783.339        2005.713          35.000  
G 5  20536379.396   -30460073.202         174.863          46.750  
> 2020  6 29  9  3 53.0000000  0 28                     
C21  21856060.022   -18608572.7672         77.949          49.250  
C16  37927874.514   -22250105.1812       1838.359          40.750  
G17  24835340.265     3876586.216       -3187.598          33.750  
G 9  24806061.635   -10779882.987       -2648.369          34.000  
C 6  37350333.596   -22755813.1452       1670.420          39.750  
C11  24439156.319   -15311746.4302       3076.328          43.500  
G25  24019074.754    -7995673.768        -656.895          37.000  
C 8  37001606.076    -4272506.5282        740.811          44.750  
C 7  39923866.550    12815789.4782      -1096.621          33.000  
C10  39041446.208     6675125.3382      -1332.471          34.000  
C 3  36407599.207    -7913251.2432        335.283          42.500  
C13  37039657.969    -8483066.1722        713.643          45.500  
C 2  37379399.696    -8492739.2152        377.129          38.250  
C 1  37835912.181    -7543787.5622        350.156          41.250  
C 4  38784914.230    -7496608.9072        330.195          37.500  
G13  22530722.269    -9431481.717        3629.629          39.750  
C 9  39054268.767    -4478083.5802       1821.738          33.500  
G15  24409619.897    -3766609.154        4221.855          32.500  
G 2  21560654.980   -25785382.471         775.068          48.000  
C 5  39439648.651    -8232684.8472        368.818          35.500  
C12  21575640.965   -29946058.0242        802.217          46.250  
G19  23458500.678   -10603891.484       -3122.637          38.250  
G 6  22653451.312   -18974253.730       -1027.432          44.000  
G29  23765764.256    -9043757.855        3671.777          40.500  
C22  24247315.688   -21562877.3332      -2255.752          46.750  
G12  23375330.105   -13667709.927       -1790.547          38.000  
G30  25687942.011    -2236789.032        2005.664          35.000  
G 5  20536346.184   -30460247.825         174.453          46.750  
> 2020  6 29  9  3 54.0000000  0 28                     
C21  21856045.425   -18608650.3442         77.539          49.250  
C16  37927521.710   -22251943.3932       1838.301          40.750  
G17  24835946.677     3879773.929       -3187.783          33.500  
G 9  24806565.440   -10777234.464       -2648.662          34.500  
C 6  37350012.748   -22757483.4852       1670.410          39.750  
C11  24438565.564   -15314822.6252       3076.250          43.500  
G25  24019199.911    -7995016.446        -657.344          37.000  
C 8  37001463.687    -4273247.2692        740.859          44.750  
C 7  39924077.440    12816885.9942      -1096.436          33.000  
C10  39041702.237     6676457.9692      -1332.490          34.000  
C 3  36407534.881    -7913586.3902        335.225          42.500  
C13  37039521.067    -8483779.8032        713.721          45.500  
C 2  37379327.290    -8493116.2452        377.080          38.250  
C 1  37835845.024    -7544137.6432        350.166          41.250  
C 4  38784850.790    -7496938.9842        330.195          37.500  
G13  22530031.471    -9435111.131        3629.434          40.000  
C 9  39053919.061    -4479905.1492       1821.611          33.500  
G15  24408816.716    -3770830.946        4221.982          32.750  
G 2  21560507.421   -25786157.380         774.941          48.000  
C 5  39439577.977    -8233053.7112        368.975          35.750  
C12  21575486.766   -29946859.8412        801.797          46.250  
G19  23459094.998   -10600768.640       -3122.920          38.000  
G 6  22653646.899   -18973226.102       -1027.588          44.000  
G29  23765065.571    -9047429.376        3671.533          40.500  
C22  24247748.916   -21560621.4062      -2255.889          46.750  
G12  23375670.192   -13665919.093       -1790.830          38.000  
G30  25687560.627    -2238794.621        2005.723          35.000  
G 5  20536313.077   -30460421.954         174.111          47.000  
> 2020  6 29  9  3 55.0000000  0 28                     
C21  21856030.091   -18608727.5932         77.207          49.250  
C16  37927168.596   -22253781.6282       1838.301          40.750  
G17  24836553.111     3882961.699       -3187.842          33.250  
G 9  24807069.442   -10774585.731       -2648.809          34.500  
C 6  37349692.026   -22759153.8282       1670.352          40.000  
C11  24437974.922   -15317898.7952       3076.211          43.500  
G25  24019325.081    -7994358.773        -657.715          37.000  
C 8  37001321.664    -4273988.1872        741.025          44.750  
C 7  39924288.138    12817982.3232      -1096.240          32.750  
C10  39041958.105     6677790.4342      -1332.373          34.000  
C 3  36407470.324    -7913921.6622        335.371          42.500  
C13  37039384.122    -8484493.5682        713.828          45.500  
C 2  37379254.702    -8493493.4122        377.236          38.250  
C 1  37835777.644    -7544487.8392        350.254          41.250  
C 4  38784787.489    -7497269.1582        330.215          37.500  
G13  22529340.949    -9438740.419        3629.316          40.000  
C 9  39053568.970    -4481726.8942       1821.875          33.250  
G15  24408013.338    -3775052.764        4221.865          32.750  
G 2  21560359.884   -25786932.237         774.893          48.000  
C 5  39439506.981    -8233422.6242        369.004          35.750  
C12  21575332.895   -29947661.3082        801.406          46.250  
G19  23459689.300   -10597645.686       -3122.881          38.000  
G 6  22653842.455   -18972198.369       -1027.725          44.000  
G29  23764367.179    -9051100.816        3671.445          40.500  
C22  24248182.144   -21558365.4582      -2255.918          46.750  
G12  23376010.650   -13664128.084       -1790.898          37.750  
G30  25687178.769    -2240800.279        2005.654          35.000  
G 5  20536279.956   -30460595.806         173.828          47.000  
> 2020  6 29  9  3 56.0000000  0 28                     
C21  21856015.769   -18608804.4932         76.768          49.250  
C16  37926815.652   -22255619.8122       1838.184          40.750  
G17  24837159.856     3886149.505       -3187.920          33.250  
G 9  24807573.526   -10771936.738       -2649.199          34.500  
C 6  37349371.213   -22760824.1182       1670.195          39.750  
C11  24437384.297   -15320974.9372       3076.123          43.500  
G25  24019450.553    -7993700.745        -658.232          37.250  
C 8  37001179.475    -4274729.2482        741.064          44.750  
C 7  39924498.605    12819078.4942      -1096.250          32.750  
C10  39042213.952     6679122.8642      -1332.520          34.000  
C 3  36407406.142    -7914256.9882        335.283          42.500  
C13  37039246.920    -8485207.4842        713.877          45.500  
C 2  37379182.449    -8493870.6222        377.148          38.250  
C 1  37835710.282    -7544838.0852        350.225          41.250  
C 4  38784724.023    -7497599.3822        330.117          37.500  
G13  22528650.461    -9442369.518        3628.994          40.000  
C 9  39053219.246    -4483548.6142       1821.768          33.500  
G15  24407209.983    -3779274.635        4221.738          32.750  
G 2  21560212.586   -25787707.018         774.736          48.000  
C 5  39439436.055    -8233791.5792        368.916          35.750  
C12  21575179.106   -29948462.4292        800.967          46.250  
G19  23460283.628   -10594522.517       -3123.252          38.250  
G 6  22654037.962   -18971170.536       -1027.930          44.000  
G29  23763668.633    -9054772.116        3671.182          40.500  
C22  24248615.454   -21556109.4362      -2256.104          46.750  
G12  23376351.161   -13662336.818       -1791.318          37.750  
G30  25686797.028    -2242805.989        2005.566          34.750  
G 5  20536246.666   -30460769.361         173.408          47.000  
> 2020  6 29  9  3 57.0000000  0 28                     
C21  21856000.726   -18608880.9572         76.387          49.250  
C16  37926462.643   -22257457.9072       1838.086          40.750  
G17  24837766.451     3889337.465       -3187.959          33.250  
G 9  24808077.947   -10769287.442       -2649.307          34.500  
C 6  37349050.556   -22762494.2982       1670.205          39.750  
C11  24436793.455   -15324050.9712       3076.074          43.500  
G25  24019575.906    -7993042.263        -658.506          37.500  
C 8  37001037.103    -4275470.3562        741.182          44.750  
C 7  39924708.981    12820174.6062      -1096.006          33.000  
C10  39042469.807     6680455.2862      -1332.412          34.000  
C 3  36407341.777    -7914592.2912        335.371          42.500  
C13  37039109.674    -8485921.5002        714.131          45.500  
C 2  37379109.970    -8494247.8452        377.266          38.250  
C 1  37835643.007    -7545188.3232        350.293          41.250  
C 4  38784660.587    -7497929.6172        330.293          37.500  
G13  22527960.305    -9445998.371        3628.857          40.000  
C 9  39052869.434    -4485370.3022       1821.738          33.500  
G15  24406406.732    -3783496.441        4221.875          32.750  
G 2  21560065.049   -25788481.651         774.639          48.000  
C 5  39439365.093    -8234160.5562        369.160          35.500  
C12  21575025.252   -29949263.1202        800.615          46.250  
G19  23460878.122   -10591399.105       -3123.398          38.000  
G 6  22654233.156   -18970142.498       -1028.027          44.000  
G29  23762970.031    -9058443.220        3671.133          40.500  
C22  24249048.743   -21553853.2762      -2256.133          46.750  
G12  23376691.955   -13660545.295       -1791.592          38.000  
G30  25686415.457    -2244811.711        2005.830          34.750  
G 5  20536213.746   -30460942.536         173.135          47.000  
> 2020  6 29  9  3 58.0000000  0 28                     
C21  21855986.077   -18608957.0342         75.977          49.250  
C16  37926109.695   -22259295.9152       1837.998          40.750  
G17  24838373.300     3892525.531       -3188.135          33.500  
G 9  24808582.075   -10766637.845       -2649.580          34.250  
C 6  37348729.847   -22764164.4152       1670.117          39.750  
C11  24436202.830   -15327126.9262       3076.016          43.500  
G25  24019701.526    -7992383.368        -658.945          37.250  
C 8  37000894.736    -4276211.5472        741.260          44.750  
C 7  39924919.649    12821270.6052      -1095.898          33.250  
C10  39042725.797     6681787.6362      -1332.236          33.750  
C 3  36407277.264    -7914927.6462        335.449          42.500  
C13  37038972.515    -8486635.6182        714.209          45.500  
C 2  37379037.595    -8494625.0712        377.393          38.250  
C 1  37835575.649    -7545538.5902        350.322          41.250  
C 4  38784597.299    -7498259.9022        330.312          37.250  
G13  22527270.066    -9449627.028        3628.652          40.000  
C 9  39052519.658    -4487192.0282       1821.777          33.750  
G15  24405603.341    -3787718.316        4222.012          32.750  
G 2  21559917.630   -25789256.152         774.521          48.000  
C 5  39439294.420    -8234529.5102        369.062          35.500  
C12  21574871.746   -29950063.3912        800.215          46.250  
G19  23461472.437   -10588275.483       -3123.574          38.250  
G 6  22654429.052   -18969114.282       -1028.223          44.000  
G29  23762271.678    -9062114.139        3670.928          40.500  
C22  24249482.024   -21551597.0122      -2256.240          46.750  
G12  23377032.714   -13658753.499       -1791.875          38.000  
G30  25686034.004    -2246817.404        2005.771          34.750  
G 5  20536181.018   -30461115.364         172.803          47.000  
> 2020  6 29  9  3 59.0000000  0 28                     
C21  21855971.925   -18609032.6252         75.488          49.250  
C16  37925756.821   -22261133.7962       1837.881          40.750  
G17  24838980.158     3895713.788       -3188.359          33.750  
G 9  24809086.412   -10763987.903       -2649.922          34.500  
C 6  37348409.099   -22765834.3552       1669.961          40.000  
C11  24435612.158   -15330202.7082       3075.762          43.500  
G25  24019826.945    -7991723.954        -659.502          37.250  
C 8  37000752.241    -4276952.7602        741.289          44.750  
C 7  39925130.504    12822366.5652      -1095.840          33.250  
C10  39042981.412     6683120.0152      -1332.324          33.750  
C 3  36407212.938    -7915262.9212        335.332          42.500  
C13  37038835.379    -8487349.7532        714.219          45.500  
C 2  37378965.264    -8495002.2292        377.266          38.250  
C 1  37835508.461    -7545888.8182        350.234          41.250  
C 4  38784533.793    -7498590.1082        330.264          37.500  
G13  22526579.648    -9453255.383        3628.311          40.250  
C 9  39052169.746    -4489013.6442       1821.719          33.500  
G15  24404800.007    -3791940.009        4221.797          32.750  
G 2  21559770.188   -25790030.464         774.297          48.000  
C 5  39439223.686    -8234898.4522        369.023          35.500  
C12  21574718.141   -29950863.1892        799.697          46.250  
G19  23462067.023   -10585151.556       -3124.014          38.500  
G 6  22654624.918   -18968085.832       -1028.467          44.000  
G29  23761573.098    -9065784.793        3670.605          40.250  
C22  24249915.439   -21549340.5572      -2256.465          46.750  
G12  23377373.582   -13656961.369       -1792.217          38.250  
G30  25685652.455    -2248823.051        2005.684          34.750  
G 5  20536148.164   -30461287.765         172.324          47.000  
> 2020  6 29  9  4  0.0000000  0 28                     
C21  21855956.922   -18609107.8572         75.127          49.250  
C16  37925403.838   -22262971.6412       1837.842          40.750  
G17  24839586.845     3898902.142       -3188.418          33.750  
G 9  24809590.907   -10761337.722       -2650.127          34.500  
C 6  37348088.526   -22767504.2652       1669.902          39.750  
C11  24435021.346   -15333278.4522       3075.742          43.500  
G25  24019952.792    -7991064.138        -659.932          37.250  
C 8  37000609.704    -4277694.0852        741.367          44.750  
C 7  39925341.023    12823462.3972      -1095.693          33.000  
C10  39043237.507     6684452.3372      -1332.246          34.000  
C 3  36407148.673    -7915598.2632        335.391          42.500  
C13  37038698.080    -8488064.0612        714.355          45.500  
C 2  37378893.029    -8495379.4402        377.188          38.500  
C 1  37835441.391    -7546239.0882        350.342          41.250  
C 4  38784470.392    -7498920.3652        330.225          37.500  
G13  22525889.257    -9456883.562        3628.154          40.250  
C 9  39051819.930    -4490835.2602       1821.650          33.750  
G15  24403996.704    -3796161.770        4221.924          32.500  
G 2  21559622.895   -25790804.690         774.209          48.000  
C 5  39439153.008    -8235267.4422        368.975          35.500  
C12  21574564.880   -29951662.6192        799.326          46.250  
G19  23462661.443   -10582027.446       -3124.180          38.250  
G 6  22654820.478   -18967057.259       -1028.594          44.000  
G29  23760874.522    -9069455.304        3670.459          40.250  
C22  24250348.741   -21547084.0132      -2256.562          46.750  
G12  23377714.734   -13655169.038       -1792.373          38.250  
G30  25685270.627    -2250828.741        2005.771          34.750  
G 5  20536115.362   -30461459.859         172.012          47.000  
