     3.02           OBSERVATION DATA    M: Mixed            RINEX VERSION / TYPE
RTKCONV 2.4.3 b33                       20200629 085147 UTC PGM / RUN BY / DATE 
log: D:\Documents\测试数据\单个方向水平移动天线位置\base_2  COMMENT             
format: u-blox                                              COMMENT             
                                                            MARKER NAME         
                                                            MARKER NUMBER       
                                                            MARKER TYPE         
                                                            OBSERVER / AGENCY   
                                                            REC # / TYPE / VERS 
                                                            ANT # / TYPE        
 -2191132.3079  5198841.0324  2965376.2915                  APPROX POSITION XYZ 
        0.0000        0.0000        0.0000                  ANTENNA: DELTA H/E/N
G    4 C1C L1C D1C S1C                                      SYS / # / OBS TYPES 
C    4 C1I L1I D1I S1I                                      SYS / # / OBS TYPES 
  2020     6    29     8    13   16.0000000     GPS         TIME OF FIRST OBS   
  2020     6    29     8    38   11.0000000     GPS         TIME OF LAST OBS    
G                                                           SYS / PHASE SHIFT   
C                                                           SYS / PHASE SHIFT   
  0                                                         GLONASS SLOT / FRQ #
 C1C    0.000 C1P    0.000 C2C    0.000 C2P    0.000        GLONASS COD/PHS/BIS 
                                                            END OF HEADER       
> 2020  6 29  8 13 16.0000000  0 23                     
C21  22003839.547   -16277953.5352       1489.814          48.000  
C16  38765382.110   -16327899.1812       2032.900          38.250  
G17  22879236.587    -4827329.069       -2430.801          39.500  
G 9  23324053.369   -16992462.845       -1318.105          42.250  
C 6  38098277.971   -17299981.2532       1896.543          37.000  
C11  25966908.359    -5795255.3512       3105.771          38.500  
G25  23787919.550    -7634969.537         967.881          38.250  
C 8  37062401.440    -2394827.1812        486.699          44.750  
C 7  38928212.944     9192300.9652      -1253.955          33.500  
C10  37970051.930     2657205.8862      -1275.088          36.750  
C 3  36304503.011    -6888999.0222        342.939          42.500  
C13  37078520.856    -6719597.5152        449.854          44.750  
C 2  37300448.895    -7342754.2632        383.535          38.250  
C 1  37738745.595    -6488658.5612        348.291          41.250  
C 4  38677278.107    -6496003.8022        332.539          38.250  
G 2  21796472.349   -22970730.524        1026.768          47.750  
C 5  39355324.465    -7110688.8622        373.369          35.750  
C12  22069730.082   -25812106.5742       1826.523          47.000  
G19  21633562.744   -18618559.543       -2050.381          43.250  
G 6  21900761.757   -21354235.248        -577.139          46.500  
C22  22816082.648   -27454582.2252      -1503.467          50.000  
G12  22385470.094   -17294024.687        -444.941          43.000  
G 5  20705656.215   -27995101.601        1507.363          45.000  
> 2020  6 29  8 13 17.0000000  0 23                     
C21  22003553.220   -16279442.9592       1489.219          48.000  
C16  38764991.831   -16329931.9942       2032.715          38.250  
G17  22879699.331    -4824897.954       -2431.260          39.750  
G 9  23324304.045   -16991144.317       -1318.779          42.250  
C 6  38097913.846   -17301877.6762       1896.309          37.000  
C11  25966311.836    -5798361.1522       3105.762          38.500  
G25  23787735.324    -7635936.945         967.188          38.000  
C 8  37062307.967    -2395313.9222        486.689          44.750  
C 7  38928453.596     9193554.8372      -1253.887          33.750  
C10  37970296.831     2658481.1502      -1275.264          36.750  
C 3  36304437.355    -6889341.8902        342.803          42.500  
C13  37078434.560    -6720047.3712        449.785          44.750  
C 2  37300375.346    -7343137.7692        383.447          38.250  
C 1  37738678.773    -6489006.7912        348.174          41.500  
C 4  38677214.296    -6496336.2662        332.334          38.250  
G 2  21796277.016   -22971757.234        1026.650          47.750  
C 5  39355252.522    -7111062.2542        373.281          35.750  
C12  22069379.332   -25813932.8822       1826.191          47.000  
G19  21633952.805   -18616508.847       -2050.898          43.250  
G 6  21900871.706   -21353658.016        -577.324          46.500  
C22  22816371.431   -27453078.4482      -1503.955          50.000  
G12  22385554.981   -17293579.317        -445.605          43.000  
G 5  20705369.347   -27996608.548        1506.738          45.250  
> 2020  6 29  8 13 18.0000000  0 23                     
C21  22003267.328   -16280931.7832       1488.633          47.750  
C16  38764601.775   -16331964.6592       2032.695          38.250  
G17  22880161.993    -4822466.378       -2431.748          39.500  
G 9  23324555.193   -16989825.145       -1319.395          42.250  
C 6  38097549.604   -17303773.9272       1896.230          37.000  
C11  25965715.493    -5801466.9182       3105.752          38.500  
G25  23787551.106    -7636903.643         966.514          38.000  
C 8  37062214.674    -2395800.6302        486.729          44.750  
C 7  38928694.357     9194808.8222      -1253.945          33.750  
C10  37970541.579     2659756.6192      -1275.488          36.750  
C 3  36304371.362    -6889684.6552        342.695          42.500  
C13  37078348.308    -6720497.1682        449.795          44.750  
C 2  37300301.654    -7343521.1282        383.301          38.500  
C 1  37738611.887    -6489354.9122        348.076          41.250  
C 4  38677150.367    -6496668.6252        332.334          38.250  
G 2  21796081.526   -22972783.780        1026.484          47.750  
C 5  39355180.767    -7111435.4842        373.174          35.750  
C12  22069028.574   -25815758.8292       1825.830          46.750  
G19  21634343.227   -18614457.584       -2051.465          43.250  
G 6  21900981.450   -21353080.536        -577.578          46.500  
C22  22816660.477   -27451574.2022      -1504.395          50.000  
G12  22385639.815   -17293133.248        -446.270          42.750  
G 5  20705082.805   -27998114.894        1506.191          45.250  
> 2020  6 29  8 13 19.0000000  0 23                     
C21  22002981.590   -16282420.1392       1488.311          47.750  
C16  38764211.292   -16333997.2982       2032.744          38.250  
G17  22880624.856    -4820034.454       -2431.885          39.750  
G 9  23324806.507   -16988505.428       -1319.785          42.250  
C 6  38097185.361   -17305670.1292       1896.299          37.000  
C11  25965118.896    -5804572.7632       3105.986          38.500  
G25  23787366.810    -7637869.769         966.094          37.500  
C 8  37062121.137    -2396287.4372        486.953          44.750  
C 7  38928935.235     9196062.7782      -1253.779          33.750  
C10  37970786.550     2661032.0862      -1275.430          36.750  
C 3  36304305.597    -6890027.4172        342.900          42.500  
C13  37078262.056    -6720947.0942        450.059          44.750  
C 2  37300228.119    -7343904.5182        383.467          38.500  
C 1  37738544.965    -6489703.0222        348.232          41.250  
C 4  38677086.490    -6497000.9962        332.500          38.250  
G 2  21795886.118   -22973810.310        1026.631          47.500  
C 5  39355109.199    -7111808.7612        373.340          36.000  
C12  22068678.056   -25817584.5412       1825.762          46.750  
G19  21634733.876   -18612405.896       -2051.670          43.250  
G 6  21901091.204   -21352502.976        -577.471          46.500  
C22  22816949.247   -27450069.5922      -1504.580          50.000  
G12  22385724.575   -17292686.615        -446.621          42.750  
G 5  20704796.343   -27999620.767        1505.859          45.250  
> 2020  6 29  8 13 20.0000000  0 23                     
C21  22002695.755   -16283908.0082       1487.773          47.750  
C16  38763820.865   -16336029.9122       2032.676          38.000  
G17  22881087.505    -4817602.169       -2432.295          39.750  
G 9  23325057.476   -16987185.132       -1320.400          42.250  
C 6  38096821.214   -17307566.2952       1896.172          37.000  
C11  25964522.513    -5807678.6612       3105.977          38.500  
G25  23787183.125    -7638835.297         965.371          37.500  
C 8  37062027.809    -2396774.3432        486.982          44.500  
C 7  38929176.039     9197316.7312      -1253.828          33.750  
C10  37971031.468     2662307.6672      -1275.586          36.750  
C 3  36304239.927    -6890370.1702        342.812          42.500  
C13  37078175.494    -6721397.1072        450.039          44.750  
C 2  37300154.466    -7344287.8442        383.428          38.250  
C 1  37738478.057    -6490051.1292        348.164          41.250  
C 4  38677022.574    -6497333.3412        332.363          38.000  
G 2  21795690.806   -22974836.781        1026.504          47.500  
C 5  39355037.618    -7112181.9962        373.359          36.000  
C12  22068327.499   -25819409.9972       1825.410          47.000  
G19  21635124.626   -18610353.741       -2052.236          43.250  
G 6  21901201.009   -21351925.279        -577.676          46.500  
C22  22817238.293   -27448564.6042      -1505.039          50.000  
G12  22385809.505   -17292239.390        -447.295          42.500  
G 5  20704510.150   -28001126.148        1505.283          45.250  
> 2020  6 29  8 13 21.0000000  0 23                     
C21  22002410.073   -16285395.5072       1487.432          47.750  
C16  38763430.355   -16338062.5872       2032.695          38.000  
G17  22881550.542    -4815169.662       -2432.490          39.750  
G 9  23325308.654   -16985864.427       -1320.820          42.000  
C 6  38096457.194   -17309462.5432       1896.270          37.000  
C11  25963926.095    -5810784.7342       3106.221          38.250  
G25  23786999.605    -7639800.366         964.902          37.500  
C 8  37061934.319    -2397261.4492        487.217          44.750  
C 7  38929416.957     9198570.5432      -1253.789          33.750  
C10  37971276.286     2663583.1512      -1275.498          36.500  
C 3  36304173.983    -6890713.0252        342.871          42.500  
C13  37078088.958    -6721847.2962        450.273          44.750  
C 2  37300080.931    -7344671.3232        383.486          38.250  
C 1  37738411.288    -6490399.3682        348.320          41.250  
C 4  38676958.624    -6497665.8062        332.559          38.000  
G 2  21795495.582   -22975863.336        1026.602          47.750  
C 5  39354965.728    -7112555.4002        373.506          35.750  
C12  22067976.985   -25821235.3452       1825.342          46.750  
G19  21635515.358   -18608301.261       -2052.549          43.500  
G 6  21901310.705   -21351347.576        -577.666          46.500  
C22  22817527.421   -27447059.3712      -1505.283          50.000  
G12  22385894.357   -17291791.692        -447.803          42.500  
G 5  20704223.862   -28002631.165        1504.951          45.250  
> 2020  6 29  8 13 22.0000000  0 23                     
C21  22002124.422   -16286882.5492       1486.934          47.750  
C16  38763040.020   -16340095.2632       2032.686          38.250  
G17  22882013.523    -4812736.807       -2432.920          39.750  
G 9  23325560.182   -16984543.190       -1321.387          42.000  
C 6  38096092.973   -17311358.7372       1896.230          37.000  
C11  25963329.738    -5813890.9132       3106.201          38.500  
G25  23786816.011    -7640764.867         964.414          37.500  
C 8  37061840.563    -2397748.6672        487.314          44.750  
C 7  38929657.713     9199824.2992      -1253.623          34.000  
C10  37971521.226     2664858.6582      -1275.459          36.500  
C 3  36304108.135    -6891055.9142        342.930          42.500  
C13  37078002.405    -6722297.5992        450.342          44.750  
C 2  37300007.064    -7345054.8292        383.525          38.250  
C 1  37738344.405    -6490747.6152        348.301          41.250  
C 4  38676894.738    -6497998.2902        332.588          37.750  
G 2  21795299.956   -22976889.873        1026.582          47.500  
C 5  39354893.955    -7112928.7572        373.428          35.750  
C12  22067626.432   -25823060.4742       1825.117          47.000  
G19  21635905.964   -18606248.364       -2052.979          43.250  
G 6  21901420.747   -21350769.814        -577.725          46.500  
C22  22817816.602   -27445553.7972      -1505.645          50.000  
G12  22385979.479   -17291343.462        -448.369          42.500  
G 5  20703937.299   -28004135.714        1504.453          45.250  
> 2020  6 29  8 13 23.0000000  0 23                     
C21  22001839.120   -16288369.0822       1486.416          47.750  
C16  38762649.615   -16342127.8582       2032.500          38.000  
G17  22882476.368    -4810303.577       -2433.311          39.750  
G 9  23325811.705   -16983221.388       -1321.982          42.000  
C 6  38095728.774   -17313254.8942       1896.162          36.750  
C11  25962733.281    -5816997.1182       3106.260          38.250  
G25  23786632.453    -7641728.743         963.701          37.500  
C 8  37061747.035    -2398235.9472        487.344          44.500  
C 7  38929898.383     9201078.1212      -1253.643          34.000  
C10  37971766.279     2666134.2812      -1275.615          36.500  
C 3  36304042.461    -6891398.7612        342.861          42.500  
C13  37077915.909    -6722747.9482        450.400          44.750  
C 2  37299933.350    -7345438.2872        383.486          38.250  
C 1  37738277.532    -6491095.8432        348.262          41.250  
C 4  38676830.871    -6498330.7362        332.432          38.000  
G 2  21795104.593   -22977916.342        1026.484          47.500  
C 5  39354822.069    -7113302.1002        373.369          35.750  
C12  22067275.708   -25824885.3302       1824.795          47.000  
G19  21636296.556   -18604194.988       -2053.486          43.250  
G 6  21901530.709   -21350191.887        -577.939          46.250  
C22  22818105.717   -27444047.8302      -1506.064          50.000  
G12  22386065.085   -17290894.611        -448.994          42.500  
G 5  20703651.085   -28005639.759        1503.906          45.250  
> 2020  6 29  8 13 24.0000000  0 23                     
C21  22001553.595   -16289855.0742       1485.781          47.750  
C16  38762259.332   -16344160.3912       2032.471          38.250  
G17  22882939.514    -4807869.952       -2433.818          39.750  
G 9  23326063.363   -16981898.977       -1322.656          42.000  
C 6  38095364.753   -17315150.9082       1896.006          36.750  
C11  25962136.793    -5820103.3432       3106.191          38.500  
G25  23786449.016    -7642691.999         963.027          37.750  
C 8  37061653.301    -2398723.2652        487.295          44.750  
C 7  38930138.990     9202331.9282      -1253.945          34.000  
C10  37972011.053     2667409.9662      -1275.781          36.500  
C 3  36303976.704    -6891741.5592        342.744          42.500  
C13  37077829.557    -6723198.3342        450.322          44.750  
C 2  37299859.736    -7345821.6822        383.340          38.500  
C 1  37738210.628    -6491443.9862        348.145          41.250  
C 4  38676767.138    -6498663.1292        332.334          38.000  
G 2  21794909.107   -22978942.727        1026.318          47.750  
C 5  39354750.462    -7113675.4082        373.184          36.000  
C12  22066925.513   -25826709.8982       1824.424          47.000  
G19  21636686.996   -18602141.116       -2054.033          43.500  
G 6  21901640.624   -21349613.806        -578.145          46.250  
C22  22818395.028   -27442541.4402      -1506.533          50.000  
G12  22386150.605   -17290445.124        -449.707          42.500  
G 5  20703365.028   -28007143.269        1503.330          45.250  
> 2020  6 29  8 13 25.0000000  0 23                     
C21  22001268.196   -16291340.4552       1485.332          47.750  
C16  38761869.132   -16346192.7512       2032.412          38.250  
G17  22883402.839    -4805435.835       -2434.121          39.750  
G 9  23326315.196   -16980575.890       -1323.105          42.000  
C 6  38095000.498   -17317046.7562       1895.898          36.750  
C11  25961540.262    -5823209.5222       3106.318          38.500  
G25  23786265.653    -7643654.527         962.510          37.500  
C 8  37061559.641    -2399210.5382        487.402          44.750  
C 7  38930379.878     9203585.8792      -1253.965          34.000  
C10  37972256.024     2668685.8552      -1275.781          36.500  
C 3  36303910.869    -6892084.1952        342.715          42.500  
C13  37077742.938    -6723648.6582        450.420          44.750  
C 2  37299786.092    -7346204.9592        383.398          38.500  
C 1  37738143.942    -6491792.0132        348.086          41.500  
C 4  38676703.384    -6498995.3682        332.314          38.250  
G 2  21794713.983   -22979968.929        1026.270          47.500  
C 5  39354678.877    -7114048.5532        373.223          36.000  
C12  22066575.370   -25828534.0902       1824.180          46.750  
G19  21637078.047   -18600086.671       -2054.492          43.500  
G 6  21901750.403   -21349035.471        -578.271          46.250  
C22  22818684.379   -27441034.5552      -1506.914          50.000  
G12  22386236.250   -17289994.942        -450.264          42.500  
G 5  20703079.049   -28008646.154        1502.822          45.000  
> 2020  6 29  8 13 26.0000000  0 23                     
C21  22000983.165   -16292825.6212       1484.951          47.750  
C16  38761478.662   -16348225.3412       2032.490          38.250  
G17  22883866.334    -4803001.627       -2434.385          39.750  
G 9  23326567.046   -16979252.508       -1323.623          41.750  
C 6  38094636.185   -17318942.8212       1895.977          36.750  
C11  25960943.700    -5826315.9982       3106.416          38.500  
G25  23786082.413    -7644616.736         961.904          37.250  
C 8  37061465.981    -2399698.1902        487.598          44.750  
C 7  38930620.625     9204839.5132      -1253.701          33.750  
C10  37972501.138     2669961.5452      -1275.723          36.500  
C 3  36303845.073    -6892427.1112        342.871          42.500  
C13  37077656.559    -6724099.3282        450.615          44.750  
C 2  37299712.652    -7346588.4892        383.477          38.250  
C 1  37738077.216    -6492140.3022        348.193          41.250  
C 4  38676639.385    -6499327.9002        332.441          38.250  
G 2  21794518.645   -22980995.369        1026.348          47.500  
C 5  39354607.183    -7114421.9962        373.369          36.000  
C12  22066225.066   -25830358.3042       1824.023          46.750  
G19  21637469.172   -18598032.040       -2054.854          43.250  
G 6  21901860.566   -21348457.289        -578.311          46.250  
C22  22818973.730   -27439527.5682      -1507.148          50.000  
G12  22386322.053   -17289544.441        -450.771          42.500  
G 5  20702793.088   -28010148.829        1502.451          45.250  
> 2020  6 29  8 13 27.0000000  0 23                     
C21  22000697.993   -16294310.2332       1484.541          47.750  
C16  38761088.213   -16350257.8332       2032.520          38.250  
G17  22884329.546    -4800566.993       -2434.648          39.750  
G 9  23326818.936   -16977928.519       -1324.092          42.000  
C 6  38094272.322   -17320838.7742       1896.055          36.750  
C11  25960347.151    -5829422.4922       3106.611          38.500  
G25  23785899.604    -7645578.294         961.406          37.250  
C 8  37061372.317    -2400185.8512        487.744          44.750  
C 7  38930861.377     9206093.2392      -1253.604          34.000  
C10  37972746.074     2671237.3602      -1275.752          36.500  
C 3  36303779.263    -6892769.9352        342.861          42.500  
C13  37077569.884    -6724549.9922        450.771          44.750  
C 2  37299639.239    -7346971.9392        383.555          38.500  
C 1  37738010.295    -6492488.5212        348.262          41.250  
C 4  38676575.674    -6499660.3192        332.529          38.250  
G 2  21794323.338   -22982021.701        1026.377          47.500  
C 5  39354535.406    -7114795.3212        373.486          36.000  
C12  22065874.757   -25832182.2132       1823.887          46.750  
G19  21637860.048   -18595976.917       -2055.156          43.250  
G 6  21901970.660   -21347878.928        -578.350          46.250  
C22  22819263.347   -27438020.1472      -1507.471          50.250  
G12  22386407.978   -17289093.306        -451.230          42.500  
G 5  20702507.463   -28011650.941        1502.061          45.500  
> 2020  6 29  8 13 28.0000000  0 23                     
C21  22000412.573   -16295794.4622       1484.131          47.750  
C16  38760698.035   -16352290.3992       2032.607          38.250  
G17  22884792.876    -4798132.125       -2434.941          39.750  
G 9  23327071.092   -16976604.081       -1324.502          42.000  
C 6  38093907.918   -17322734.7782       1896.064          37.000  
C11  25959750.655    -5832529.1362       3106.768          38.750  
G25  23785716.931    -7646539.369         960.967          37.250  
C 8  37061278.684    -2400673.7052        487.959          44.500  
C 7  38931102.059     9207346.8022      -1253.545          34.000  
C10  37972990.996     2672513.1112      -1275.664          36.500  
C 3  36303713.354    -6893112.8782        342.979          42.500  
C13  37077483.309    -6725000.8612        450.986          44.750  
C 2  37299565.791    -7347355.4832        383.525          38.500  
C 1  37737943.273    -6492836.8432        348.389          41.250  
C 4  38676511.911    -6499992.8672        332.578          38.250  
G 2  21794127.991   -22983048.089        1026.426          47.500  
C 5  39354463.607    -7115168.7572        373.535          35.750  
C12  22065524.501   -25834005.9802       1823.730          46.750  
G19  21638251.173   -18593921.423       -2055.596          43.250  
G 6  21902080.871   -21347300.565        -578.340          46.250  
C22  22819552.815   -27436512.4692      -1507.725          50.000  
G12  22386493.929   -17288641.679        -451.729          42.500  
G 5  20702221.803   -28013152.671        1501.631          45.500  
> 2020  6 29  8 13 29.0000000  0 23                     
C21  22000127.938   -16297278.1122       1483.516          47.750  
C16  38760307.608   -16354322.8182       2032.402          38.250  
G17  22885256.380    -4795696.797       -2435.459          39.750  
G 9  23327323.238   -16975279.002       -1325.234          41.750  
C 6  38093543.823   -17324630.6672       1895.908          36.750  
C11  25959154.111    -5835635.7602       3106.709          38.500  
G25  23785534.014    -7647499.772         960.254          37.250  
C 8  37061185.068    -2401161.5342        487.852          44.500  
C 7  38931342.890     9208600.4942      -1253.662          34.000  
C10  37973235.849     2673789.0562      -1276.006          36.500  
C 3  36303647.366    -6893455.7012        342.783          42.500  
C13  37077396.752    -6725451.7082        450.859          44.750  
C 2  37299491.916    -7347738.9352        383.389          38.250  
C 1  37737876.456    -6493185.0532        348.184          41.250  
C 4  38676448.170    -6500325.2932        332.432          38.250  
G 2  21793932.514   -22984074.332        1026.221          47.500  
C 5  39354391.974    -7115542.1132        373.340          35.750  
C12  22065174.515   -25835829.3902       1823.320          46.750  
G19  21638642.446   -18591865.405       -2056.221          43.250  
G 6  21902191.012   -21346721.976        -578.633          46.250  
C22  22819842.345   -27435004.3222      -1508.281          50.250  
G12  22386580.133   -17288189.385        -452.471          42.500  
G 5  20701936.243   -28014653.835        1501.025          45.500  
> 2020  6 29  8 13 30.0000000  0 23                     
C21  21999843.194   -16298761.2252       1482.959          47.750  
C16  38759917.264   -16356355.1542       2032.363          38.000  
G17  22885719.617    -4793261.077       -2435.801          39.750  
G 9  23327575.381   -16973953.322       -1325.781          41.750  
C 6  38093179.916   -17326526.3932       1895.664          36.750  
C11  25958557.697    -5838742.4012       3106.641          38.750  
G25  23785351.371    -7648459.510         959.541          37.500  
C 8  37061091.251    -2401649.3972        487.871          44.500  
C 7  38931583.607     9209854.1762      -1253.594          34.250  
C10  37973480.959     2675065.0962      -1276.084          36.500  
C 3  36303581.570    -6893798.4692        342.764          42.500  
C13  37077310.164    -6725902.5952        450.928          44.750  
C 2  37299418.333    -7348122.3152        383.379          38.250  
C 1  37737809.521    -6493533.2272        348.184          41.250  
C 4  38676384.224    -6500657.6962        332.422          38.250  
G 2  21793737.303   -22985100.489        1026.133          47.500  
C 5  39354320.388    -7115915.3902        373.330          35.750  
C12  22064824.184   -25837652.5102       1823.047          47.000  
G19  21639033.885   -18589808.880       -2056.680          43.250  
G 6  21902301.101   -21346143.217        -578.799          46.250  
C22  22820132.088   -27433495.7542      -1508.672          50.250  
G12  22386666.228   -17287736.456        -453.086          42.500  
G 5  20701650.980   -28016154.438        1500.439          45.500  
> 2020  6 29  8 13 31.0000000  0 23                     
C21  21999558.481   -16300243.8512       1482.529          47.750  
C16  38759526.933   -16358387.4222       2032.314          38.250  
G17  22886183.217    -4790824.980       -2436.162          39.750  
G 9  23327827.650   -16972627.053       -1326.328          41.750  
C 6  38092815.822   -17328422.1432       1895.830          36.750  
C11  25957960.869    -5841849.0582       3106.768          38.750  
G25  23785168.737    -7649418.670         958.984          37.250  
C 8  37060997.504    -2402137.3212        488.027          44.500  
C 7  38931824.507     9211107.9092      -1253.701          34.250  
C10  37973726.004     2676341.1712      -1276.025          36.750  
C 3  36303515.874    -6894141.2262        342.764          42.500  
C13  37077223.742    -6726353.5412        451.045          45.000  
C 2  37299344.745    -7348505.6912        383.467          38.500  
C 1  37737742.713    -6493881.3532        348.145          41.500  
C 4  38676320.299    -6500990.0372        332.344          38.250  
G 2  21793541.882   -22986126.591        1026.152          47.500  
C 5  39354248.655    -7116288.6152        373.301          35.750  
C12  22064474.237   -25839475.3942       1822.861          47.000  
G19  21639425.538   -18587751.904       -2057.012          43.250  
G 6  21902411.203   -21345564.334        -578.877          46.250  
C22  22820422.107   -27431986.8092      -1509.004          50.250  
G12  22386752.493   -17287282.915        -453.682          42.250  
G 5  20701365.290   -28017654.560        1500.029          45.250  
> 2020  6 29  8 13 32.0000000  0 23                     
C21  21999273.876   -16301725.9412       1481.982          47.750  
C16  38759136.755   -16360419.6222       2032.266          38.250  
G17  22886646.883    -4788388.511       -2436.514          39.750  
G 9  23328080.111   -16971300.211       -1327.002          41.750  
C 6  38092451.758   -17330317.7272       1895.537          36.750  
C11  25957364.224    -5844955.7792       3106.768          38.750  
G25  23784986.025    -7650377.165         958.242          37.500  
C 8  37060903.866    -2402625.3472        488.076          44.500  
C 7  38932065.346     9212361.6162      -1253.623          34.250  
C10  37973971.053     2677617.3792      -1276.221          36.750  
C 3  36303450.052    -6894483.9142        342.695          42.500  
C13  37077137.071    -6726804.5302        451.035          44.750  
C 2  37299271.048    -7348889.0222        383.389          38.500  
C 1  37737675.966    -6494229.4642        348.105          41.250  
C 4  38676256.575    -6501322.3752        332.402          38.250  
G 2  21793346.745   -22987152.612        1026.035          47.500  
C 5  39354177.122    -7116661.8342        373.223          35.750  
C12  22064124.160   -25841297.9792       1822.510          47.000  
G19  21639817.086   -18585694.425       -2057.598          43.500  
G 6  21902521.432   -21344985.294        -579.053          46.250  
C22  22820711.929   -27430477.4592      -1509.414          50.250  
G12  22386838.933   -17286828.792        -454.258          42.250  
G 5  20701079.987   -28019154.155        1499.482          45.250  
> 2020  6 29  8 13 33.0000000  0 23                     
C21  21998989.434   -16303207.5232       1481.436          47.750  
C16  38758746.346   -16362451.8002       2032.168          38.250  
G17  22887110.696    -4785951.649       -2436.914          39.750  
G 9  23328332.467   -16969972.812       -1327.529          41.750  
C 6  38092087.746   -17332213.2592       1895.537          36.750  
C11  25956767.409    -5848062.5222       3106.768          38.750  
G25  23784803.866    -7651335.077         957.842          37.500  
C 8  37060810.189    -2403113.3922        488.096          44.500  
C 7  38932306.015     9213615.3632      -1253.652          34.000  
C10  37974216.063     2678893.6452      -1276.279          36.500  
C 3  36303384.238    -6894826.5922        342.686          42.500  
C13  37077050.535    -6727255.5722        451.064          44.750  
C 2  37299197.609    -7349272.2972        383.223          38.250  
C 1  37737609.097    -6494577.5302        348.086          41.250  
C 4  38676192.777    -6501654.6612        332.334          38.250  
G 2  21793151.490   -22988178.573        1025.977          47.500  
C 5  39354105.454    -7117035.0342        373.242          36.000  
C12  22063774.261   -25843120.3032       1822.275          46.750  
G19  21640208.708   -18583636.492       -2058.037          43.500  
G 6  21902631.552   -21344406.128        -579.150          46.250  
C22  22821001.999   -27428967.7162      -1509.854          50.250  
G12  22386925.377   -17286374.026        -454.912          42.250  
G 5  20700794.480   -28020653.253        1498.975          45.250  
> 2020  6 29  8 13 34.0000000  0 23                     
C21  21998705.021   -16304688.6312       1480.889          48.000  
C16  38758356.102   -16364483.9142       2032.070          38.250  
G17  22887574.514    -4783514.434       -2437.373          39.750  
G 9  23328585.064   -16968644.861       -1328.164          41.750  
C 6  38091723.469   -17334108.7822       1895.400          36.750  
C11  25956170.699    -5851169.3372       3106.738          38.750  
G25  23784621.729    -7652292.389         957.002          37.500  
C 8  37060716.486    -2403601.5622        488.145          44.750  
C 7  38932546.854     9214869.0752      -1253.799          34.000  
C10  37974461.042     2680169.9792      -1276.396          36.500  
C 3  36303318.050    -6895169.2552        342.588          42.500  
C13  37076963.904    -6727706.7202        451.074          44.750  
C 2  37299123.886    -7349655.5932        383.203          38.250  
C 1  37737542.276    -6494925.6202        348.057          41.250  
C 4  38676128.901    -6501986.9402        332.227          38.250  
G 2  21792956.279   -22989204.481        1025.820          47.500  
C 5  39354033.921    -7117408.2362        373.125          35.750  
C12  22063424.253   -25844942.3782       1821.924          47.000  
G19  21640600.469   -18581578.113       -2058.584          43.500  
G 6  21902741.855   -21343826.836        -579.365          46.250  
C22  22821291.773   -27427457.6092      -1510.283          50.250  
G12  22387011.720   -17285918.711        -455.557          42.250  
G 5  20700509.278   -28022151.845        1498.359          45.250  
> 2020  6 29  8 13 35.0000000  0 23                     
C21  21998420.748   -16306169.2062       1480.430          48.000  
C16  38757966.007   -16366515.9362       2032.061          38.250  
G17  22888038.075    -4781076.823       -2437.744          39.750  
G 9  23328837.904   -16967316.310       -1328.672          41.750  
C 6  38091359.492   -17336004.1782       1895.371          36.500  
C11  25955574.521    -5854276.2092       3106.875          38.750  
G25  23784439.505    -7653249.101         956.572          37.500  
C 8  37060622.730    -2404089.7692        488.301          44.500  
C 7  38932787.807     9216122.8472      -1253.779          34.250  
C10  37974706.309     2681446.4082      -1276.504          36.500  
C 3  36303252.402    -6895511.8702        342.637          42.500  
C13  37076877.215    -6728157.9032        451.230          44.750  
C 2  37299050.229    -7350038.8172        383.203          38.250  
C 1  37737475.420    -6495273.6312        348.018          41.250  
C 4  38676065.059    -6502319.1812        332.236          38.250  
G 2  21792761.133   -22990230.320        1025.820          47.500  
C 5  39353962.236    -7117781.3492        373.164          35.750  
C12  22063074.333   -25846764.1772       1821.729          47.000  
G19  21640992.318   -18579519.240       -2058.994          43.500  
G 6  21902851.778   -21343247.376        -579.482          46.250  
C22  22821581.861   -27425947.0922      -1510.625          50.250  
G12  22387098.500   -17285462.761        -456.084          42.250  
G 5  20700224.050   -28023649.909        1497.910          45.250  
> 2020  6 29  8 13 36.0000000  0 23                     
C21  21998136.541   -16307649.3042       1480.029          48.000  
C16  38757575.615   -16368547.9542       2032.119          38.250  
G17  22888501.684    -4778638.862       -2438.037          39.750  
G 9  23329090.688   -16965987.228       -1329.131          41.750  
C 6  38090995.459   -17337899.5462       1895.469          36.750  
C11  25954977.972    -5857383.1212       3107.012          38.750  
G25  23784257.801    -7654205.208         956.074          37.500  
C 8  37060528.905    -2404578.0682        488.398          44.500  
C 7  38933028.699     9217376.5422      -1253.721          34.000  
C10  37974951.297     2682722.9102      -1276.426          36.500  
C 3  36303186.392    -6895854.4872        342.695          42.500  
C13  37076790.475    -6728609.1852        451.377          44.750  
C 2  37298976.650    -7350422.0612        383.271          38.500  
C 1  37737408.585    -6495621.6552        348.135          41.250  
C 4  38676001.383    -6502651.4142        332.305          38.250  
G 2  21792566.053   -22991256.130        1025.879          47.500  
C 5  39353890.533    -7118154.4842        373.271          36.000  
C12  22062724.609   -25848585.7182       1821.553          47.000  
G19  21641384.320   -18577459.923       -2059.395          43.500  
G 6  21902962.059   -21342667.808        -579.580          46.250  
C22  22821872.128   -27424436.2222      -1510.908          50.250  
G12  22387185.381   -17285006.236        -456.602          42.250  
G 5  20699939.070   -28025147.506        1497.520          45.250  
> 2020  6 29  8 13 37.0000000  0 23                     
C21  21997852.233   -16309129.1562       1479.727          48.000  
C16  38757185.398   -16370580.1472       2032.188          38.250  
G17  22888965.716    -4776200.773       -2438.242          39.750  
G 9  23329343.681   -16964657.803       -1329.541          41.750  
C 6  38090631.247   -17339795.0722       1895.557          36.500  
C11  25954381.123    -5860490.3152       3107.314          38.750  
G25  23784075.891    -7655160.966         955.557          37.500  
C 8  37060435.118    -2405066.7012        488.682          44.500  
C 7  38933269.328     9218630.0502      -1253.525          34.000  
C10  37975196.368     2683999.2192      -1276.279          36.750  
C 3  36303120.649    -6896197.3262        342.871          42.500  
C13  37076703.743    -6729060.7602        451.631          44.750  
C 2  37298903.250    -7350805.5372        383.516          38.250  
C 1  37737341.637    -6495969.8962        348.281          41.250  
C 4  38675937.385    -6502983.8602        332.471          38.000  
G 2  21792370.706   -22992282.114        1026.016          47.500  
C 5  39353818.708    -7118527.8412        373.408          35.750  
C12  22062374.684   -25850407.2542       1821.475          47.000  
G19  21641776.296   -18575400.399       -2059.619          43.500  
G 6  21903072.327   -21342088.373        -579.453          46.000  
C22  22822162.290   -27422925.2052      -1511.084          50.250  
G12  22387272.335   -17284549.357        -457.012          42.250  
G 5  20699654.230   -28026644.834        1497.217          45.500  
> 2020  6 29  8 13 38.0000000  0 23                     
C21  21997568.384   -16310608.2882       1478.975          48.000  
C16  38756795.364   -16372612.0732       2031.846          38.250  
G17  22889429.695    -4773762.122       -2438.740          39.750  
G 9  23329596.731   -16963327.622       -1330.342          41.750  
C 6  38090267.104   -17341690.3282       1895.312          36.500  
C11  25953784.417    -5863597.3672       3107.080          38.500  
G25  23783894.330    -7656115.916         954.795          37.750  
C 8  37060341.367    -2405555.1822        488.486          44.500  
C 7  38933510.024     9219883.7002      -1253.633          34.000  
C10  37975441.696     2685275.8502      -1276.719          36.500  
C 3  36303054.935    -6896539.9252        342.578          42.500  
C13  37076617.085    -6729512.2012        451.494          44.750  
C 2  37298829.798    -7351188.7602        383.232          38.250  
C 1  37737274.781    -6496317.9162        348.018          41.250  
C 4  38675873.595    -6503316.0952        332.168          38.250  
G 2  21792175.342   -22993307.838        1025.684          47.500  
C 5  39353747.114    -7118900.9952        373.125          35.750  
C12  22062025.012   -25852228.3312       1821.006          47.000  
G19  21642168.293   -18573340.212       -2060.342          43.500  
G 6  21903182.355   -21341508.594        -579.805          46.000  
C22  22822452.378   -27421413.6072      -1511.709          50.250  
G12  22387359.342   -17284091.699        -457.861          42.250  
G 5  20699369.504   -28028141.468        1496.484          45.500  
> 2020  6 29  8 13 39.0000000  0 23                     
C21  21997284.438   -16312086.8852       1478.428          48.000  
C16  38756405.181   -16374643.9332       2031.826          38.500  
G17  22889894.024    -4771323.060       -2439.229          39.750  
G 9  23329849.930   -16961996.822       -1330.967          41.750  
C 6  38089903.097   -17343585.4782       1895.166          36.500  
C11  25953187.781    -5866704.4202       3107.051          38.750  
G25  23783712.599    -7657070.199         954.082          37.750  
C 8  37060247.651    -2406043.6842        488.525          44.750  
C 7  38933750.902     9221137.4622      -1253.740          34.000  
C10  37975686.902     2686552.5592      -1276.768          36.500  
C 3  36302989.222    -6896882.4702        342.520          42.500  
C13  37076530.248    -6729963.6532        451.426          44.750  
C 2  37298756.127    -7351571.9472        383.135          38.250  
C 1  37737207.703    -6496665.8822        347.949          41.250  
C 4  38675809.741    -6503648.2712        332.148          38.250  
G 2  21791980.057   -22994333.465        1025.576          47.500  
C 5  39353675.376    -7119274.0292        373.057          35.750  
C12  22061675.366   -25854049.1042       1820.684          47.000  
G19  21642560.316   -18571279.509       -2060.879          43.500  
G 6  21903292.736   -21340928.631        -580.010          46.000  
C22  22822742.689   -27419901.5772      -1512.188          50.250  
G12  22387446.414   -17283633.367        -458.535          42.250  
G 5  20699084.913   -28029637.551        1495.938          45.500  
> 2020  6 29  8 13 40.0000000  0 23                     
C21  21997000.641   -16313564.8572       1477.881          48.000  
C16  38756015.047   -16376675.5932       2031.689          38.500  
G17  22890358.300    -4768883.516       -2439.609          39.750  
G 9  23330103.206   -16960665.360       -1331.543          41.750  
C 6  38089539.107   -17345480.4682       1895.068          36.750  
C11  25952591.284    -5869811.4082       3107.109          38.750  
G25  23783531.353    -7658023.796         953.506          37.750  
C 8  37060153.703    -2406532.1362        488.535          44.500  
C 7  38933991.798     9222391.3232      -1253.643          34.000  
C10  37975931.977     2687829.4842      -1276.934          36.500  
C 3  36302923.688    -6897224.8502        342.402          42.500  
C13  37076443.630    -6730415.0122        451.396          45.000  
C 2  37298682.426    -7351954.9452        383.037          38.250  
C 1  37737141.025    -6497013.7202        347.910          41.250  
C 4  38675746.117    -6503980.2872        332.100          38.500  
G 2  21791785.016   -22995358.907        1025.498          47.500  
C 5  39353603.786    -7119646.9692        372.988          36.000  
C12  22061325.900   -25855869.5092       1820.391          47.000  
G19  21642952.698   -18569218.240       -2061.357          43.500  
G 6  21903403.366   -21340348.428        -580.176          46.000  
C22  22823033.148   -27418389.0522      -1512.598          50.250  
G12  22387533.744   -17283174.358        -459.111          42.250  
G 5  20698800.125   -28031132.998        1495.322          45.500  
> 2020  6 29  8 13 41.0000000  0 23                     
C21  21996716.822   -16315042.5192       1477.520          48.000  
C16  38755624.943   -16378707.3962       2031.777          38.250  
G17  22890822.707    -4766443.763       -2439.814          39.750  
G 9  23330356.867   -16959333.508       -1331.963          41.750  
C 6  38089175.035   -17347375.5642       1895.078          36.750  
C11  25951994.674    -5872918.6222       3107.246          38.750  
G25  23783350.014    -7658976.947         952.959          38.000  
C 8  37060059.921    -2407020.8482        488.721          44.500  
C 7  38934232.367     9223644.9572      -1253.506          34.000  
C10  37976177.096     2689106.2612      -1276.768          36.500  
C 3  36302857.857    -6897567.4362        342.568          42.500  
C13  37076356.924    -6730866.6722        451.650          45.000  
C 2  37298608.708    -7352338.1202        383.057          38.250  
C 1  37737074.470    -6497361.6982        348.027          41.250  
C 4  38675682.393    -6504312.4812        332.158          38.500  
G 2  21791589.888   -22996384.486        1025.576          47.500  
C 5  39353532.214    -7120020.0352        373.008          36.000  
C12  22060976.429   -25857689.8112       1820.234          47.000  
G19  21643345.009   -18567156.690       -2061.680          43.750  
G 6  21903513.843   -21339768.268        -580.166          46.000  
C22  22823323.860   -27416876.3272      -1512.832          50.250  
G12  22387621.165   -17282714.922        -459.648          42.250  
G 5  20698515.399   -28032628.143        1495.010          45.500  
> 2020  6 29  8 13 42.0000000  0 23                     
C21  21996433.138   -16316519.7552       1477.090          48.000  
C16  38755234.555   -16380739.2562       2031.855          38.250  
G17  22891287.122    -4764003.753       -2440.137          40.000  
G 9  23330610.694   -16958001.167       -1332.520          41.750  
C 6  38088811.032   -17349270.6802       1895.127          36.500  
C11  25951398.012    -5876025.9642       3107.363          38.750  
G25  23783168.654    -7659929.575         952.402          38.000  
C 8  37059965.904    -2407509.7422        488.887          44.500  
C 7  38934473.184     9224898.5582      -1253.633          34.250  
C10  37976422.564     2690383.0262      -1276.738          36.500  
C 3  36302792.157    -6897910.0352        342.588          42.500  
C13  37076270.144    -6731318.4682        451.826          44.750  
C 2  37298535.330    -7352721.3982        383.252          38.250  
C 1  37737007.549    -6497709.7432        348.066          41.250  
C 4  38675618.648    -6504644.7342        332.275          38.250  
G 2  21791394.720   -22997410.088        1025.576          47.500  
C 5  39353460.634    -7120393.1972        373.115          36.000  
C12  22060626.949   -25859509.9532       1820.068          47.000  
G19  21643737.268   -18565094.752       -2062.100          43.500  
G 6  21903624.002   -21339188.073        -580.234          46.000  
C22  22823614.371   -27415363.3082      -1513.145          50.250  
G12  22387708.298   -17282254.986        -460.117          42.000  
G 5  20698230.890   -28034122.864        1494.580          45.250  
> 2020  6 29  8 13 43.0000000  0 23                     
C21  21996149.624   -16317996.5122       1476.641          48.000  
C16  38754844.468   -16382771.0332       2031.787          38.250  
G17  22891751.551    -4761563.367       -2440.479          40.000  
G 9  23330864.141   -16956668.264       -1333.047          41.750  
C 6  38088446.994   -17351165.7062       1895.010          36.500  
C11  25950801.114    -5879133.3542       3107.432          38.500  
G25  23782987.905    -7660881.613         951.875          38.000  
C 8  37059871.908    -2407998.7062        489.004          44.500  
C 7  38934713.993     9226152.1712      -1253.477          34.000  
C10  37976667.810     2691659.8922      -1276.934          36.500  
C 3  36302726.221    -6898252.6412        342.627          42.500  
C13  37076183.539    -6731770.3292        451.914          45.000  
C 2  37298461.760    -7353104.6242        383.301          38.250  
C 1  37736940.810    -6498057.7672        348.057          41.250  
C 4  38675555.011    -6504976.9512        332.285          38.250  
G 2  21791199.535   -22998435.631        1025.576          47.500  
C 5  39353389.096    -7120766.3122        373.125          35.750  
C12  22060277.456   -25861329.8362       1819.863          47.000  
G19  21644129.789   -18563032.365       -2062.471          43.500  
G 6  21903734.519   -21338607.732        -580.342          46.000  
C22  22823905.070   -27413849.9032      -1513.477          50.250  
G12  22387796.003   -17281794.442        -460.684          42.000  
G 5  20697946.574   -28035617.090        1494.131          45.250  
> 2020  6 29  8 13 44.0000000  0 23                     
C21  21995866.150   -16319472.8192       1476.211          48.000  
C16  38754454.264   -16384802.8442       2031.855          38.250  
G17  22892216.006    -4759122.683       -2440.762          40.000  
G 9  23331117.893   -16955334.862       -1333.535          41.750  
C 6  38088083.052   -17353060.7582       1895.068          36.500  
C11  25950204.313    -5882240.8652       3107.529          38.500  
G25  23782806.929    -7661833.103         951.348          38.250  
C 8  37059777.900    -2408487.7882        489.111          44.500  
C 7  38934954.640     9227405.6792      -1253.408          34.000  
C10  37976913.138     2692936.7332      -1276.758          36.750  
C 3  36302660.425    -6898595.2842        342.695          42.500  
C13  37076096.737    -6732222.3362        452.021          45.000  
C 2  37298388.163    -7353487.9072        383.242          38.500  
C 1  37736874.107    -6498405.8592        348.057          41.250  
C 4  38675491.082    -6505309.2532        332.344          38.250  
G 2  21791004.468   -22999461.182        1025.576          47.500  
C 5  39353317.476    -7121139.4912        373.154          36.000  
C12  22059928.146   -25863149.5182       1819.648          47.000  
G19  21644522.244   -18560969.573       -2062.900          43.500  
G 6  21903844.896   -21338027.336        -580.400          46.000  
C22  22824195.577   -27412336.1882      -1513.799          50.250  
G12  22387883.782   -17281333.370        -461.221          42.000  
G 5  20697662.397   -28037110.883        1493.662          45.250  
> 2020  6 29  8 13 45.0000000  0 23                     
C21  21995582.793   -16320948.5852       1475.498          48.000  
C16  38754064.029   -16386834.5632       2031.680          38.250  
G17  22892680.754    -4756681.590       -2441.309          40.000  
G 9  23331371.789   -16954000.865       -1334.277          41.750  
C 6  38087719.255   -17354955.6922       1894.814          36.500  
C11  25949607.432    -5885348.3772       3107.441          38.500  
G25  23782625.931    -7662783.959         950.518          38.250  
C 8  37059684.109    -2408976.9012        489.033          44.500  
C 7  38935195.326     9228659.2492      -1253.643          34.000  
C10  37977158.422     2694213.7412      -1277.158          36.500  
C 3  36302594.655    -6898937.8692        342.500          42.500  
C13  37076009.939    -6732674.3862        451.973          45.000  
C 2  37298314.620    -7353871.0992        383.125          38.250  
C 1  37736807.281    -6498753.8752        347.891          41.500  
C 4  38675427.284    -6505641.4562        332.070          38.250  
G 2  21790809.169   -23000486.637        1025.332          47.250  
C 5  39353245.948    -7121512.5962        372.959          36.000  
C12  22059578.666   -25864968.8962       1819.180          47.000  
G19  21644914.931   -18558906.275       -2063.555          43.500  
G 6  21903955.412   -21337446.763        -580.732          46.000  
C22  22824486.489   -27410822.0462      -1514.346          50.250  
G12  22387971.570   -17280871.667        -461.992          42.000  
G 5  20697378.491   -28038604.137        1493.018          45.250  
> 2020  6 29  8 13 46.0000000  0 23                     
C21  21995299.332   -16322423.9432       1475.283          48.000  
C16  38753673.712   -16388866.2952       2031.816          38.250  
G17  22893145.243    -4754240.194       -2441.416          40.000  
G 9  23331625.585   -16952666.367       -1334.590          41.750  
C 6  38087355.457   -17356850.6902       1895.117          36.750  
C11  25949010.744    -5888456.0222       3107.783          38.750  
G25  23782445.111    -7663734.305         950.195          38.250  
C 8  37059590.022    -2409466.1832        489.355          44.500  
C 7  38935436.104     9229912.7032      -1253.301          34.000  
C10  37977403.746     2695490.6962      -1276.934          36.500  
C 3  36302528.920    -6899280.4892        342.666          42.500  
C13  37075922.976    -6733126.5312        452.217          45.000  
C 2  37298241.045    -7354254.3682        383.359          38.250  
C 1  37736740.429    -6499101.9492        348.105          41.250  
C 4  38675363.233    -6505973.7492        332.354          38.250  
G 2  21790614.220   -23001512.104        1025.518          47.500  
C 5  39353174.223    -7121885.7742        373.223          36.000  
C12  22059229.369   -25866788.0922       1819.209          47.000  
G19  21645307.622   -18556842.594       -2063.760          43.500  
G 6  21904065.755   -21336866.147        -580.576          46.000  
C22  22824777.367   -27409307.5962      -1514.502          50.250  
G12  22388059.423   -17280409.443        -462.324          42.000  
G 5  20697094.353   -28040096.951        1492.744          45.500  
> 2020  6 29  8 13 47.0000000  0 23                     
C21  21995016.154   -16323898.8052       1474.824          48.000  
C16  38753283.455   -16390897.9802       2031.826          38.250  
G17  22893610.034    -4751798.456       -2441.748          40.000  
G 9  23331879.979   -16951331.335       -1335.127          41.750  
C 6  38086991.528   -17358745.5712       1895.000          36.750  
C11  25948414.104    -5891563.7262       3107.832          38.500  
G25  23782264.680    -7664684.039         949.639          38.500  
C 8  37059496.057    -2409955.5472        489.473          44.500  
C 7  38935676.795     9231166.1842      -1253.271          34.000  
C10  37977648.883     2696767.7452      -1277.080          36.500  
C 3  36302463.107    -6899623.1212        342.734          42.500  
C13  37075836.253    -6733578.7942        452.373          45.000  
C 2  37298167.540    -7354637.6412        383.379          38.250  
C 1  37736673.634    -6499450.0312        348.203          41.250  
C 4  38675299.370    -6506305.9992        332.412          38.250  
G 2  21790419.091   -23002537.532        1025.508          47.500  
C 5  39353102.607    -7122258.9142        373.242          36.000  
C12  22058880.064   -25868607.0422       1818.965          47.000  
G19  21645700.317   -18554778.475       -2064.150          43.500  
G 6  21904176.306   -21336285.403        -580.664          46.000  
C22  22825068.258   -27407792.7902      -1514.824          50.250  
G12  22388147.263   -17279946.656        -462.871          42.000  
G 5  20696810.368   -28041589.295        1492.295          45.500  
> 2020  6 29  8 13 48.0000000  0 23                     
C21  21994733.003   -16325373.2102       1474.219          48.000  
C16  38752893.268   -16392929.6802       2031.670          38.000  
G17  22894074.782    -4749356.391       -2442.227          40.000  
G 9  23332134.259   -16949995.770       -1335.840          41.750  
C 6  38086627.477   -17360640.4612       1894.805          36.500  
C11  25947817.258    -5894671.5302       3107.822          38.500  
G25  23782084.389    -7665633.221         948.955          38.250  
C 8  37059402.018    -2410445.0302        489.473          44.500  
C 7  38935917.429     9232419.6032      -1253.535          34.000  
C10  37977894.246     2698044.7862      -1277.139          36.250  
C 3  36302397.267    -6899965.7572        342.578          42.500  
C13  37075749.373    -6734031.1492        452.354          45.000  
C 2  37298094.057    -7355020.9272        383.252          38.250  
C 1  37736606.534    -6499798.1152        348.008          41.250  
C 4  38675235.602    -6506638.2612        332.295          38.250  
G 2  21790223.858   -23003562.944        1025.361          47.500  
C 5  39353030.747    -7122632.0842        373.135          36.000  
C12  22058530.842   -25870425.7782       1818.613          47.000  
G19  21646093.091   -18552713.926       -2064.717          43.500  
G 6  21904286.940   -21335704.570        -580.898          46.000  
C22  22825359.262   -27406277.6382      -1515.312          50.250  
G12  22388235.426   -17279483.292        -463.584          42.000  
G 5  20696526.645   -28043081.172        1491.650          45.500  
> 2020  6 29  8 13 49.0000000  0 23                     
C21  21994450.126   -16326846.9262       1473.594          48.000  
C16  38752503.003   -16394961.1272       2031.426          38.000  
G17  22894539.673    -4746913.767       -2442.773          40.000  
G 9  23332388.583   -16948659.461       -1336.484          41.750  
C 6  38086263.741   -17362535.0862       1894.619          36.750  
C11  25947220.212    -5897779.1772       3107.666          38.500  
G25  23781904.107    -7666581.595         948.164          38.500  
C 8  37059308.127    -2410934.4072        489.434          44.500  
C 7  38936158.225     9233673.2152      -1253.525          34.000  
C10  37978139.408     2699322.1202      -1277.305          36.500  
C 3  36302331.711    -6900308.1822        342.402          42.500  
C13  37075662.383    -6734483.3732        452.275          45.000  
C 2  37298020.592    -7355403.9762        383.057          38.250  
C 1  37736539.708    -6500146.0002        347.881          41.250  
C 4  38675171.778    -6506970.3392        332.100          38.250  
G 2  21790028.939   -23004588.109        1025.186          47.500  
C 5  39352959.223    -7123005.0512        372.900          35.750  
C12  22058181.737   -25872244.0642       1818.223          47.000  
G19  21646486.092   -18550648.745       -2065.264          43.500  
G 6  21904397.549   -21335123.421        -581.172          46.000  
C22  22825650.305   -27404761.9112      -1515.820          50.000  
G12  22388323.815   -17279019.155        -464.287          41.750  
G 5  20696242.892   -28044572.372        1491.084          45.500  
> 2020  6 29  8 13 50.0000000  0 23                     
C21  21994167.210   -16328320.2572       1473.203          48.000  
C16  38752112.855   -16396992.6202       2031.475          38.000  
G17  22895004.228    -4744470.889       -2442.979          40.000  
G 9  23332643.055   -16947322.693       -1336.943          41.750  
C 6  38085899.747   -17364429.7742       1894.648          36.750  
C11  25946623.606    -5900886.9902       3107.861          38.500  
G25  23781723.820    -7667529.504         947.754          38.500  
C 8  37059214.266    -2411423.9502        489.600          44.500  
C 7  38936399.016     9234926.7102      -1253.525          34.000  
C10  37978384.387     2700599.4062      -1277.305          36.250  
C 3  36302266.011    -6900650.7192        342.607          42.500  
C13  37075575.700    -6734935.8022        452.471          45.000  
C 2  37297946.786    -7355787.1482        383.262          38.250  
C 1  37736472.957    -6500493.9732        347.959          41.500  
C 4  38675108.054    -6507302.5192        332.217          38.250  
G 2  21789833.842   -23005613.337        1025.234          47.500  
C 5  39352887.455    -7123378.1022        373.076          36.000  
C12  22057832.414   -25874062.2172       1818.105          47.000  
G19  21646879.263   -18548583.200       -2065.615          43.500  
G 6  21904508.139   -21334542.246        -581.191          46.000  
C22  22825941.397   -27403245.9262      -1516.104          50.250  
G12  22388412.266   -17278554.533        -464.756          41.750  
G 5  20695959.129   -28046063.172        1490.664          45.500  
> 2020  6 29  8 13 51.0000000  0 23                     
C21  21993884.337   -16329793.0842       1472.705          48.000  
C16  38751722.590   -16399024.0802       2031.475          38.250  
G17  22895469.167    -4742027.637       -2443.340          40.000  
G 9  23332897.475   -16945985.351       -1337.490          42.000  
C 6  38085535.857   -17366324.3772       1894.580          36.500  
C11  25946026.848    -5903994.8442       3107.969          38.500  
G25  23781543.712    -7668476.778         947.158          38.500  
C 8  37059120.149    -2411913.5612        489.678          44.500  
C 7  38936639.812     9236180.2322      -1253.359          34.000  
C10  37978629.589     2701876.7322      -1277.334          36.500  
C 3  36302199.931    -6900993.1992        342.539          42.500  
C13  37075488.889    -6735388.2862        452.510          45.000  
C 2  37297873.016    -7356170.2732        383.135          38.250  
C 1  37736406.153    -6500841.9402        347.998          41.500  
C 4  38675044.457    -6507634.6452        332.158          38.250  
G 2  21789638.761   -23006638.505        1025.195          47.500  
C 5  39352815.739    -7123751.1142        372.988          36.000  
C12  22057483.357   -25875880.0862       1817.842          47.000  
G19  21647272.233   -18546517.179       -2066.133          43.500  
G 6  21904618.796   -21333960.952        -581.279          46.000  
C22  22826232.684   -27401729.5512      -1516.455          50.250  
G12  22388500.826   -17278089.297        -465.400          42.000  
G 5  20695675.554   -28047553.459        1490.146          45.250  
> 2020  6 29  8 13 52.0000000  0 23                     
C21  21993601.496   -16331265.6022       1472.363          48.000  
C16  38751332.547   -16401055.6632       2031.641          38.000  
G17  22895934.085    -4739584.201       -2443.564          40.000  
G 9  23333152.074   -16944647.649       -1337.852          41.750  
C 6  38085171.828   -17368219.1212       1894.727          36.500  
C11  25945429.907    -5907102.9422       3108.135          38.500  
G25  23781363.791    -7669423.652         946.738          38.500  
C 8  37059026.061    -2412403.4452        489.893          44.500  
C 7  38936880.428     9237433.5572      -1253.359          33.750  
C10  37978874.835     2703153.9722      -1277.334          36.500  
C 3  36302134.048    -6901335.8672        342.666          42.500  
C13  37075402.061    -6735841.0252        452.744          45.000  
C 2  37297799.206    -7356553.5782        383.301          38.250  
C 1  37736339.288    -6501190.0572        348.115          41.500  
C 4  38674980.642    -6507966.9582        332.324          38.250  
G 2  21789443.624   -23007663.813        1025.283          47.250  
C 5  39352744.250    -7124124.3292        373.184          36.000  
C12  22057134.222   -25877697.8832       1817.715          47.000  
G19  21647665.639   -18544450.914       -2066.367          43.500  
G 6  21904729.399   -21333379.701        -581.299          46.000  
C22  22826523.815   -27400212.9872      -1516.689          50.250  
G12  22388589.430   -17277623.686        -465.811          42.000  
G 5  20695391.805   -28049043.434        1489.824          45.250  
> 2020  6 29  8 13 53.0000000  0 23                     
C21  21993318.710   -16332737.4612       1471.699          48.000  
C16  38750942.225   -16403087.0422       2031.416          38.000  
G17  22896399.159    -4737140.250       -2444.062          40.000  
G 9  23333406.620   -16943309.223       -1338.584          42.000  
C 6  38084808.039   -17370113.6222       1894.453          36.500  
C11  25944833.053    -5910210.9002       3107.979          38.500  
G25  23781183.997    -7670369.779         945.996          38.500  
C 8  37058931.835    -2412893.2542        489.834          44.500  
C 7  38937121.154     9238687.0262      -1253.447          33.500  
C10  37979120.106     2704431.4382      -1277.471          36.500  
C 3  36302068.291    -6901678.3482        342.471          42.500  
C13  37075315.041    -6736293.6562        452.646          45.000  
C 2  37297725.718    -7356936.6802        383.105          38.250  
C 1  37736272.402    -6501537.9952        347.939          41.250  
C 4  38674916.826    -6508299.0842        332.158          38.000  
G 2  21789248.810   -23008688.900        1025.078          47.500  
C 5  39352672.477    -7124497.3622        373.096          36.000  
C12  22056785.301   -25879515.2792       1817.334          47.000  
G19  21648058.932   -18542384.011       -2067.061          43.500  
G 6  21904840.104   -21332798.176        -581.553          46.000  
C22  22826815.168   -27398695.8842      -1517.217          50.250  
G12  22388678.325   -17277157.326        -466.543          42.000  
G 5  20695108.558   -28050532.764        1489.170          45.250  
> 2020  6 29  8 13 54.0000000  0 23                     
C21  21993036.196   -16334208.7902       1471.143          48.000  
C16  38750552.151   -16405118.3362       2031.250          38.000  
G17  22896864.378    -4734695.898       -2444.512          40.000  
G 9  23333661.668   -16941970.195       -1339.238          42.000  
C 6  38084444.398   -17372008.0362       1894.414          36.500  
C11  25944236.085    -5913318.9162       3107.939          38.500  
G25  23781004.020    -7671315.238         945.244          38.500  
C 8  37058837.712    -2413383.0992        489.824          44.500  
C 7  38937362.033     9239940.5432      -1253.467          33.500  
C10  37979365.705     2705709.0032      -1277.627          36.500  
C 3  36302002.626    -6902020.7772        342.432          42.500  
C13  37075228.139    -6736746.3222        452.607          45.000  
C 2  37297652.170    -7357319.7592        382.979          38.250  
C 1  37736205.633    -6501885.8952        347.881          41.250  
C 4  38674852.945    -6508631.1582        331.943          38.250  
G 2  21789053.686   -23009713.905        1024.941          47.500  
C 5  39352600.922    -7124870.3372        372.900          36.000  
C12  22056436.179   -25881332.3632       1816.992          47.000  
G19  21648452.326   -18540316.623       -2067.578          43.500  
G 6  21904951.004   -21332216.477        -581.777          46.000  
C22  22827106.591   -27397178.3662      -1517.686          50.000  
G12  22388767.212   -17276690.320        -467.178          42.000  
G 5  20694825.162   -28052021.570        1488.633          45.250  
> 2020  6 29  8 13 55.0000000  0 23                     
C21  21992753.707   -16335679.5602       1470.664          48.000  
C16  38750162.030   -16407149.5172       2031.211          38.000  
G17  22897329.819    -4732251.125       -2444.834          40.000  
G 9  23333916.712   -16940630.550       -1339.736          41.750  
C 6  38084080.662   -17373902.3262       1894.385          36.500  
C11  25943639.039    -5916426.9122       3108.047          38.500  
G25  23780824.209    -7672260.052         944.697          38.750  
C 8  37058743.643    -2413872.9592        489.961          44.500  
C 7  38937602.737     9241194.0962      -1253.428          33.500  
C10  37979610.968     2706986.7152      -1277.617          36.500  
C 3  36301936.756    -6902363.1212        342.412          42.500  
C13  37075141.098    -6737199.0042        452.744          45.000  
C 2  37297578.731    -7357702.7362        383.086          38.250  
C 1  37736138.907    -6502233.7132        347.861          41.500  
C 4  38674789.309    -6508963.1772        332.109          38.000  
G 2  21788858.767   -23010738.799        1024.922          47.500  
C 5  39352529.132    -7125243.2242        373.018          35.750  
C12  22056087.340   -25883149.1292       1816.719          47.000  
G19  21648845.867   -18538248.701       -2067.979          43.500  
G 6  21905061.678   -21331634.583        -581.875          46.000  
C22  22827398.058   -27395660.4112      -1518.008          50.000  
G12  22388856.239   -17276222.667        -467.773          42.000  
G 5  20694541.866   -28053509.804        1488.154          45.250  
> 2020  6 29  8 13 56.0000000  0 23                     
C21  21992471.371   -16337149.7812       1470.117          48.000  
C16  38749771.825   -16409180.5882       2031.143          38.000  
G17  22897795.268    -4729805.929       -2445.234          40.000  
G 9  23334171.629   -16939290.272       -1340.391          42.000  
C 6  38083716.755   -17375796.4932       1894.141          36.500  
C11  25943042.294    -5919534.9192       3108.096          38.500  
G25  23780644.515    -7673204.225         943.945          38.750  
C 8  37058649.603    -2414362.8422        489.932          44.500  
C 7  38937843.567     9242447.7082      -1253.594          33.500  
C10  37979856.161     2708264.5182      -1277.803          36.500  
C 3  36301870.999    -6902705.3802        342.324          42.500  
C13  37075054.060    -6737651.7202        452.803          45.000  
C 2  37297505.165    -7358085.6492        382.969          38.250  
C 1  37736072.104    -6502581.4742        347.812          41.250  
C 4  38674725.607    -6509295.0982        331.963          38.000  
G 2  21788663.613   -23011763.587        1024.834          47.500  
C 5  39352457.530    -7125616.0392        372.939          35.750  
C12  22055738.432   -25884965.5992       1816.445          47.000  
G19  21649239.370   -18536180.283       -2068.506          43.500  
G 6  21905172.443   -21331052.519        -582.061          46.250  
C22  22827689.560   -27394142.0282      -1518.457          50.000  
G12  22388945.410   -17275754.366        -468.438          42.000  
G 5  20694258.780   -28054997.500        1487.578          45.500  
> 2020  6 29  8 13 57.0000000  0 23                     
C21  21992189.071   -16338619.5892       1469.756          48.000  
C16  38749381.826   -16411211.7232       2031.211          38.000  
G17  22898260.448    -4727360.471       -2445.469          40.000  
G 9  23334426.995   -16937949.530       -1340.811          41.750  
C 6  38083353.171   -17377690.6812       1894.199          36.500  
C11  25942445.392    -5922643.0362       3108.174          38.500  
G25  23780464.830    -7674147.883         943.594          38.750  
C 8  37058555.494    -2414852.8832        490.166          44.500  
C 7  38938084.293     9243701.2812      -1253.545          33.500  
C10  37980101.759     2709542.3492      -1277.744          36.500  
C 3  36301805.173    -6903047.7142        342.402          42.500  
C13  37074967.066    -6738104.5652        452.949          45.000  
C 2  37297431.529    -7358468.6192        382.998          38.500  
C 1  37736005.282    -6502929.2842        347.891          41.250  
C 4  38674661.883    -6509627.0802        331.982          38.250  
G 2  21788468.310   -23012788.389        1024.863          47.500  
C 5  39352385.844    -7125988.9022        372.920          35.750  
C12  22055389.698   -25886781.8882       1816.289          47.000  
G19  21649632.877   -18534111.478       -2068.867          43.500  
G 6  21905283.448   -21330470.407        -582.070          46.000  
C22  22827981.218   -27392623.3482      -1518.721          50.000  
G12  22389034.572   -17275285.561        -468.926          42.000  
G 5  20693975.903   -28056484.767        1487.227          45.500  
> 2020  6 29  8 13 58.0000000  0 23                     
C21  21991906.839   -16340088.9812       1469.287          48.000  
C16  38748992.045   -16413242.8772       2031.201          38.000  
G17  22898725.915    -4724914.700       -2445.840          39.750  
G 9  23334682.187   -16936608.318       -1341.387          41.750  
C 6  38082989.473   -17379584.9212       1894.238          36.500  
C11  25941848.503    -5925751.2912       3108.291          38.500  
G25  23780285.228    -7675091.019         943.018          38.500  
C 8  37058461.276    -2415343.0892        490.283          44.500  
C 7  38938324.687     9244954.6772      -1253.438          33.500  
C10  37980347.035     2710820.1472      -1277.754          36.500  
C 3  36301739.359    -6903390.1092        342.432          42.500  
C13  37074879.964    -6738557.5592        453.086          45.000  
C 2  37297357.955    -7358851.6442        383.037          38.500  
C 1  37735938.365    -6503277.1532        347.881          41.500  
C 4  38674597.871    -6509959.1602        332.051          38.250  
G 2  21788273.421   -23013813.238        1024.854          47.500  
C 5  39352314.028    -7126361.8712        372.979          36.000  
C12  22055040.789   -25888598.0002       1816.074          47.000  
G19  21650026.523   -18532042.296       -2069.258          43.500  
G 6  21905394.270   -21329888.243        -582.188          46.000  
C22  22828272.968   -27391104.3712      -1519.062          50.000  
G12  22389123.742   -17274816.250        -469.482          42.000  
G 5  20693692.887   -28057971.626        1486.768          45.500  
> 2020  6 29  8 13 59.0000000  0 23                     
C21  21991624.757   -16341557.8632       1468.740          48.000  
C16  38748602.059   -16415273.9462       2031.084          38.000  
G17  22899191.059    -4722468.563       -2446.260          39.750  
G 9  23334937.567   -16935266.528       -1341.934          42.000  
C 6  38082625.894   -17381479.0452       1894.072          36.250  
C11  25941251.609    -5928859.5802       3108.271          38.750  
G25  23780105.726    -7676033.533         942.363          38.500  
C 8  37058367.329    -2415833.3392        490.273          44.500  
C 7  38938565.391     9246208.2022      -1253.516          33.500  
C10  37980592.608     2712098.0042      -1277.754          36.250  
C 3  36301673.768    -6903732.4742        342.334          42.500  
C13  37074793.070    -6739010.6092        453.076          45.000  
C 2  37297284.293    -7359234.6852        383.018          38.500  
C 1  37735871.731    -6503625.0122        347.812          41.250  
C 4  38674534.152    -6510291.1652        331.953          38.250  
G 2  21788078.481   -23014838.002        1024.736          47.500  
C 5  39352242.360    -7126734.7622        372.920          35.750  
C12  22054692.208   -25890413.8422       1815.771          47.000  
G19  21650420.379   -18529972.653       -2069.805          43.500  
G 6  21905505.101   -21329305.937        -582.373          46.000  
C22  22828564.666   -27389585.0042      -1519.463          50.000  
G12  22389213.275   -17274346.335        -470.088          42.250  
G 5  20693410.224   -28059457.965        1486.211          45.500  
> 2020  6 29  8 14  0.0000000  0 23                     
C21  21991342.735   -16343026.3412       1468.320          48.000  
C16  38748212.090   -16417305.0772       2031.055          38.000  
G17  22899656.434    -4720022.144       -2446.572          39.500  
G 9  23335192.890   -16933924.281       -1342.432          42.000  
C 6  38082262.175   -17383373.2172       1894.258          36.500  
C11  25940654.616    -5931968.0382       3108.525          38.750  
G25  23779926.404    -7676975.557         941.758          38.500  
C 8  37058273.194    -2416323.7852        490.469          44.500  
C 7  38938805.864     9247461.5552      -1253.467          33.500  
C10  37980837.888     2713375.8462      -1277.871          36.250  
C 3  36301607.924    -6904074.9102        342.451          42.500  
C13  37074706.081    -6739463.8222        453.213          45.000  
C 2  37297210.723    -7359617.7602        383.047          38.250  
C 1  37735804.657    -6503972.9362        347.979          41.500  
C 4  38674470.576    -6510623.2812        332.109          38.250  
G 2  21787883.365   -23015862.816        1024.795          47.500  
C 5  39352170.788    -7127107.7772        372.930          35.750  
C12  22054343.553   -25892229.5162       1815.566          47.000  
G19  21650814.204   -18527902.633       -2070.137          43.250  
G 6  21905615.836   -21328723.609        -582.373          46.250  
C22  22828856.495   -27388065.3502      -1519.775          50.000  
G12  22389302.712   -17273875.932        -470.596          42.250  
G 5  20693127.526   -28060943.897        1485.820          45.500  
> 2020  6 29  8 14  1.0000000  0 23                     
C21  21991060.809   -16344494.3842       1467.949          48.000  
C16  38747821.650   -16419336.2282       2031.123          38.000  
G17  22900121.858    -4717575.441       -2446.758          39.500  
G 9  23335448.309   -16932581.515       -1342.861          42.000  
C 6  38081898.569   -17385267.4102       1894.209          36.500  
C11  25940057.583    -5935076.5622       3108.594          38.500  
G25  23779747.312    -7677917.035         941.377          38.500  
C 8  37058178.770    -2416814.3442        490.654          44.500  
C 7  38939046.642     9248714.8562      -1253.242          33.500  
C10  37981083.264     2714653.6912      -1277.803          36.500  
C 3  36301542.364    -6904417.3952        342.549          42.500  
C13  37074618.939    -6739917.1682        453.447          45.000  
C 2  37297137.122    -7360000.8992        383.174          38.500  
C 1  37735737.832    -6504320.9012        348.018          41.250  
C 4  38674406.739    -6510955.4202        332.178          38.250  
G 2  21787688.403   -23016887.633        1024.883          47.500  
C 5  39352099.281    -7127480.7892        373.057          36.000  
C12  22053994.740   -25894044.9912       1815.469          47.000  
G19  21651208.051   -18525832.225       -2070.430          43.250  
G 6  21905726.557   -21328141.198        -582.402          46.250  
C22  22829148.263   -27386545.3912      -1520.020          50.000  
G12  22389392.275   -17273405.002        -471.035          42.250  
G 5  20692844.737   -28062429.398        1485.410          45.500  
> 2020  6 29  8 14  2.0000000  0 23                     
C21  21990778.975   -16345961.8682       1467.344          48.000  
C16  38747431.882   -16421367.2512       2031.025          38.000  
G17  22900587.369    -4715128.308       -2447.275          39.500  
G 9  23335704.050   -16931238.123       -1343.584          42.000  
C 6  38081534.854   -17387161.4312       1894.014          36.250  
C11  25939460.798    -5938185.0832       3108.525          38.500  
G25  23779568.247    -7678857.828         940.605          38.500  
C 8  37058084.526    -2417304.9252        490.547          44.500  
C 7  38939287.293     9249968.1762      -1253.389          33.500  
C10  37981328.811     2715931.7052      -1278.018          36.500  
C 3  36301476.581    -6904759.7732        342.383          42.500  
C13  37074531.950    -6740370.5182        453.359          45.000  
C 2  37297063.404    -7360383.9402        383.066          38.250  
C 1  37735671.202    -6504668.7902        347.881          41.250  
C 4  38674342.984    -6511287.4792        332.061          38.250  
G 2  21787493.663   -23017912.328        1024.648          47.750  
C 5  39352027.661    -7127853.7312        372.822          35.750  
C12  22053646.133   -25895860.1272       1815.049          47.000  
G19  21651602.086   -18523761.283       -2071.104          43.250  
G 6  21905837.654   -21327558.594        -582.646          46.250  
C22  22829440.170   -27385024.9782      -1520.537          50.000  
G12  22389482.392   -17272933.411        -471.787          42.250  
G 5  20692562.026   -28063914.328        1484.766          45.500  
> 2020  6 29  8 14  3.0000000  0 23                     
C21  21990497.398   -16347428.6702       1466.865          48.000  
C16  38747041.743   -16423398.0602       2031.035          37.750  
G17  22901052.997    -4712680.616       -2447.598          39.500  
G 9  23335959.604   -16929894.000       -1344.062          42.000  
C 6  38081171.335   -17389055.2442       1893.975          36.250  
C11  25938863.931    -5941293.4992       3108.633          38.500  
G25  23779389.565    -7679797.862         940.039          38.500  
C 8  37057990.312    -2417795.4022        490.713          44.500  
C 7  38939528.076     9251221.7582      -1253.271          33.250  
C10  37981574.143     2717209.9692      -1278.076          36.750  
C 3  36301410.841    -6905101.9812        342.402          42.500  
C13  37074444.712    -6740823.7782        453.496          45.000  
C 2  37296990.074    -7360766.7832        383.066          38.250  
C 1  37735604.634    -6505016.4882        347.900          41.500  
C 4  38674279.422    -6511619.3462        332.148          38.250  
G 2  21787298.652   -23018936.798        1024.668          47.500  
C 5  39351955.914    -7128226.5022        372.998          35.750  
C12  22053297.657   -25897674.8522       1814.834          47.000  
G19  21651996.369   -18521689.725       -2071.484          43.250  
G 6  21905948.738   -21326975.700        -582.695          46.250  
C22  22829732.435   -27383504.0162      -1520.879          50.000  
G12  22389572.283   -17272461.042        -472.334          42.250  
G 5  20692279.650   -28065398.598        1484.346          45.500  
> 2020  6 29  8 14  4.0000000  0 23                     
C21  21990215.730   -16348895.0032       1466.016          48.000  
C16  38746651.761   -16425428.8522       2030.674          38.000  
G17  22901518.975    -4710232.588       -2448.311          39.250  
G 9  23336215.664   -16928549.345       -1345.020          41.750  
C 6  38080807.590   -17390949.0012       1893.545          36.500  
C11  25938267.129    -5944401.9992       3108.359          38.500  
G25  23779210.670    -7680737.323         939.131          38.500  
C 8  37057896.208    -2418285.9712        490.488          44.500  
C 7  38939768.653     9252475.2092      -1253.652          33.500  
C10  37981819.733     2718488.2122      -1278.379          36.500  
C 3  36301345.185    -6905444.1722        342.012          42.500  
C13  37074357.692    -6741277.1202        453.193          45.000  
C 2  37296916.574    -7361149.5992        382.676          38.250  
C 1  37735537.922    -6505364.1872        347.549          41.250  
C 4  38674215.846    -6511951.2152        331.699          38.250  
G 2  21787103.829   -23019961.221        1024.229          47.500  
C 5  39351884.665    -7128599.2072        372.480          36.000  
C12  22052949.211   -25899489.3442       1814.219          47.000  
G19  21652390.535   -18519617.713       -2072.285          43.500  
G 6  21906059.438   -21326392.684        -583.203          46.250  
C22  22830024.486   -27381982.7032      -1521.592          50.000  
G12  22389662.461   -17271988.120        -473.291          42.250  
G 5  20691997.223   -28066882.384        1483.457          45.500  
> 2020  6 29  8 14  5.0000000  0 23                     
C21  21989934.171   -16350360.9112       1465.781          48.000  
C16  38746261.705   -16427459.6312       2030.742          38.000  
G17  22901984.760    -4707784.274       -2448.369          39.500  
G 9  23336471.720   -16927204.212       -1345.244          42.000  
C 6  38080443.713   -17392842.7752       1893.818          36.500  
C11  25937670.074    -5947510.5912       3108.662          38.750  
G25  23779031.932    -7681676.252         938.799          38.750  
C 8  37057802.064    -2418776.6982        490.820          44.500  
C 7  38940009.375     9253728.6442      -1253.496          33.500  
C10  37982065.210     2719766.5242      -1278.271          36.500  
C 3  36301279.585    -6905786.4132        342.275          42.500  
C13  37074270.620    -6741730.6142        453.555          45.000  
C 2  37296843.069    -7361532.5002        382.949          38.250  
C 1  37735471.245    -6505711.9342        347.744          41.500  
C 4  38674151.979    -6512283.1522        331.973          38.250  
G 2  21786908.875   -23020985.676        1024.463          47.750  
C 5  39351813.268    -7128972.0682        372.832          36.000  
C12  22052600.808   -25901303.6392       1814.258          47.000  
G19  21652785.001   -18517545.324       -2072.490          43.500  
G 6  21906170.159   -21325809.615        -583.096          46.250  
C22  22830316.781   -27380461.0862      -1521.699          50.000  
G12  22389752.631   -17271514.671        -473.584          42.250  
G 5  20691714.839   -28068365.744        1483.232          45.250  
> 2020  6 29  8 14  6.0000000  0 23                     
C21  21989652.760   -16351826.3942       1465.293          48.000  
C16  38745871.724   -16429490.4612       2030.762          37.750  
G17  22902450.515    -4705335.647       -2448.750          39.500  
G 9  23336727.789   -16925858.577       -1345.830          42.000  
C 6  38080080.217   -17394736.5622       1893.711          36.250  
C11  25937072.932    -5950619.3172       3108.652          38.500  
G25  23778853.429    -7682614.638         938.174          38.500  
C 8  37057707.793    -2419267.5822        490.908          44.500  
C 7  38940249.965     9254982.0132      -1253.467          33.500  
C10  37982310.813     2721044.7962      -1278.350          36.500  
C 3  36301213.868    -6906128.7392        342.285          42.500  
C13  37074183.600    -6742184.2322        453.633          45.000  
C 2  37296769.647    -7361915.4622        382.998          38.250  
C 1  37735404.384    -6506059.7582        347.725          41.250  
C 4  38674088.076    -6512615.1152        331.914          38.250  
G 2  21786714.057   -23022010.145        1024.395          47.750  
C 5  39351741.626    -7129344.8872        372.666          35.750  
C12  22052252.428   -25903117.7522       1813.994          47.000  
G19  21653179.463   -18515472.541       -2072.949          43.500  
G 6  21906281.086   -21325226.490        -583.174          46.000  
C22  22830609.134   -27378939.1562      -1522.070          50.000  
G12  22389842.874   -17271040.713        -474.189          42.250  
G 5  20691432.591   -28069848.691        1482.754          45.500  
> 2020  6 29  8 14  7.0000000  0 23                     
C21  21989371.449   -16353291.2042       1464.482          48.000  
C16  38745481.846   -16431521.0232       2030.400          37.750  
G17  22902916.755    -4702886.491       -2449.453          39.250  
G 9  23336984.019   -16924512.196       -1346.738          42.000  
C 6  38079716.668   -17396630.1332       1893.447          36.250  
C11  25936475.799    -5953727.9212       3108.477          38.750  
G25  23778675.131    -7683552.255         937.217          38.500  
C 8  37057613.466    -2419758.3342        490.635          44.500  
C 7  38940490.577     9256235.5182      -1253.652          33.500  
C10  37982556.355     2722323.3442      -1278.721          36.500  
C 3  36301148.176    -6906470.8402        341.943          42.500  
C13  37074096.493    -6742637.7352        453.369          45.000  
C 2  37296696.129    -7362298.1942        382.598          38.250  
C 1  37735337.497    -6506407.3802        347.422          41.250  
C 4  38674024.688    -6512946.8842        331.504          38.250  
G 2  21786519.421   -23023034.380        1024.043          47.750  
C 5  39351670.036    -7129717.5952        372.500          35.750  
C12  22051904.139   -25904931.4192       1813.438          47.000  
G19  21653574.021   -18513399.134       -2073.701          43.500  
G 6  21906392.305   -21324643.049        -583.643          46.000  
C22  22830901.416   -27377416.6682      -1522.773          50.000  
G12  22389933.620   -17270565.976        -475.049          42.500  
G 5  20691150.565   -28071330.949        1481.953          45.500  
> 2020  6 29  8 14  8.0000000  0 23                     
C21  21989090.309   -16354755.4172       1464.150          48.250  
C16  38745092.000   -16433551.4882       2030.498          37.750  
G17  22903383.011    -4700436.880       -2449.639          39.250  
G 9  23337240.354   -16923165.162       -1347.090          42.000  
C 6  38079353.066   -17398523.4692       1893.359          36.250  
C11  25935878.718    -5956836.4672       3108.643          38.500  
G25  23778497.004    -7684489.172         936.846          38.750  
C 8  37057519.148    -2420249.0852        490.879          44.500  
C 7  38940731.133     9257489.1692      -1253.613          33.500  
C10  37982801.731     2723602.0342      -1278.613          36.500  
C 3  36301082.411    -6906812.8252        342.090          42.500  
C13  37074009.464    -6743091.2132        453.594          45.000  
C 2  37296622.760    -7362680.8372        382.744          38.250  
C 1  37735270.615    -6506754.8732        347.617          41.250  
C 4  38673961.134    -6513278.5632        331.680          38.250  
G 2  21786324.559   -23024058.461        1024.150          47.750  
C 5  39351598.294    -7130090.1372        372.715          36.000  
C12  22051555.680   -25906744.7362       1813.320          47.000  
G19  21653968.889   -18511325.161       -2074.004          43.500  
G 6  21906503.184   -21324059.385        -583.643          46.250  
C22  22831193.873   -27375893.7122      -1522.988          50.000  
G12  22390023.955   -17270090.556        -475.488          42.500  
G 5  20690868.709   -28072812.594        1481.562          45.500  
> 2020  6 29  8 14  9.0000000  0 23                     
C21  21988809.160   -16356219.2292       1463.740          48.000  
C16  38744701.992   -16435582.0052       2030.566          37.750  
G17  22903849.237    -4697986.992       -2449.912          39.250  
G 9  23337496.973   -16921817.667       -1347.578          42.000  
C 6  38078989.439   -17400416.9062       1893.525          36.500  
C11  25935281.707    -5959945.1672       3108.789          38.750  
G25  23778318.746    -7685425.586         936.309          38.500  
C 8  37057424.834    -2420740.0242        491.045          44.500  
C 7  38940971.994     9258742.6832      -1253.447          33.750  
C10  37983047.356     2724880.7142      -1278.584          36.500  
C 3  36301016.641    -6907154.8852        342.129          42.500  
C13  37073922.531    -6743544.8482        453.740          45.000  
C 2  37296549.085    -7363063.5662        382.793          38.500  
C 1  37735203.676    -6507102.4702        347.734          41.250  
C 4  38673897.280    -6513610.3092        331.855          38.250  
G 2  21786129.636   -23025082.602        1024.229          47.750  
C 5  39351526.783    -7130462.7632        372.705          36.000  
C12  22051207.609   -25908557.8892       1813.203          47.000  
G19  21654363.674   -18509250.829       -2074.355          43.500  
G 6  21906614.154   -21323475.709        -583.594          46.000  
C22  22831486.291   -27374370.4802      -1523.242          50.000  
G12  22390114.736   -17269614.643        -475.977          42.500  
G 5  20690586.988   -28074293.866        1481.211          45.500  
> 2020  6 29  8 14 10.0000000  0 23                     
C21  21988528.185   -16357682.6702       1463.223          48.000  
C16  38744312.019   -16437612.5532       2030.430          37.750  
G17  22904315.512    -4695536.871       -2450.234          39.250  
G 9  23337753.391   -16920469.725       -1348.145          42.000  
C 6  38078625.780   -17402310.3872       1893.379          36.500  
C11  25934684.521    -5963054.0462       3108.799          38.500  
G25  23778140.561    -7686361.538         935.684          38.500  
C 8  37057330.555    -2421231.1542        491.074          44.500  
C 7  38941212.667     9259996.0652      -1253.574          33.750  
C10  37983292.588     2726159.3192      -1278.711          36.500  
C 3  36300950.875    -6907497.0582        342.051          42.500  
C13  37073835.324    -6743998.6922        453.818          45.000  
C 2  37296475.746    -7363446.3902        382.754          38.250  
C 1  37735136.903    -6507450.1512        347.617          41.250  
C 4  38673833.547    -6513942.1532        331.807          38.500  
G 2  21785934.599   -23026106.798        1024.121          47.750  
C 5  39351455.215    -7130835.5032        372.686          35.750  
C12  22050859.564   -25910370.9132       1812.871          47.000  
G19  21654758.398   -18507176.172       -2074.854          43.500  
G 6  21906725.172   -21322892.012        -583.770          46.250  
C22  22831778.826   -27372846.9952      -1523.662          50.000  
G12  22390205.407   -17269138.275        -476.602          42.500  
G 5  20690305.006   -28075774.766        1480.664          45.500  
> 2020  6 29  8 14 11.0000000  0 23                     
C21  21988247.241   -16359145.3982       1462.461          48.000  
C16  38743922.050   -16439642.8622       2030.234          37.750  
G17  22904781.803    -4693086.161       -2450.918          39.250  
G 9  23338010.258   -16919121.024       -1348.984          42.000  
C 6  38078262.122   -17404203.6122       1893.125          36.500  
C11  25934087.710    -5966162.7462       3108.633          38.500  
G25  23777962.565    -7687296.668         934.824          38.750  
C 8  37057236.406    -2421722.1492        490.898          44.500  
C 7  38941453.336     9261249.6672      -1253.789          33.750  
C10  37983538.301     2727438.2092      -1279.014          36.500  
C 3  36300885.219    -6907839.0002        341.846          42.500  
C13  37073748.143    -6744452.3932        453.643          45.000  
C 2  37296402.180    -7363828.9662        382.461          38.500  
C 1  37735070.234    -6507797.6182        347.383          41.250  
C 4  38673769.749    -6514273.7752        331.465          38.250  
G 2  21785739.724   -23027130.730        1023.789          47.750  
C 5  39351383.722    -7131207.9862        372.412          35.750  
C12  22050511.402   -25912183.4572       1812.373          47.000  
G19  21655153.462   -18505100.833       -2075.557          43.500  
G 6  21906836.321   -21322307.975        -584.189          46.000  
C22  22832071.436   -27371322.9182      -1524.287          50.000  
G12  22390296.532   -17268661.112        -477.471          42.750  
G 5  20690023.398   -28077254.945        1479.922          45.500  
> 2020  6 29  8 14 12.0000000  0 23                     
C21  21987966.659   -16360607.6912       1462.158          48.000  
C16  38743532.125   -16441673.1942       2030.391          37.750  
G17  22905248.003    -4690635.159       -2451.113          39.250  
G 9  23338267.156   -16917771.833       -1349.277          42.000  
C 6  38077898.442   -17406096.7992       1893.174          36.500  
C11  25933490.747    -5969271.5612       3108.828          38.500  
G25  23777784.690    -7688231.257         934.414          38.750  
C 8  37057142.179    -2422213.2972        491.211          44.500  
C 7  38941694.189     9262503.2192      -1253.633          33.500  
C10  37983784.039     2728717.1212      -1278.906          36.750  
C 3  36300819.480    -6908180.9892        342.031          42.500  
C13  37073660.992    -6744906.2252        453.906          45.000  
C 2  37296328.615    -7364211.5922        382.588          38.250  
C 1  37735003.509    -6508145.1242        347.529          41.250  
C 4  38673705.929    -6514605.4422        331.621          38.250  
G 2  21785544.722   -23028154.670        1023.955          47.750  
C 5  39351312.080    -7131580.5502        372.637          35.750  
C12  22050163.410   -25913995.8252       1812.305          47.000  
G19  21655548.356   -18503025.093       -2075.840          43.750  
G 6  21906947.484   -21321723.869        -584.102          46.000  
C22  22832364.185   -27369798.5262      -1524.473          50.000  
G12  22390387.535   -17268183.404        -477.822          42.750  
G 5  20689741.848   -28078734.687        1479.629          45.500  
> 2020  6 29  8 14 13.0000000  0 23                     
C21  21987685.968   -16362069.5982       1461.660          48.250  
C16  38743142.331   -16443703.5642       2030.264          38.000  
G17  22905714.832    -4688183.909       -2451.426          39.500  
G 9  23338523.966   -16916422.168       -1349.912          42.000  
C 6  38077534.788   -17407990.0492       1893.115          36.250  
C11  25932893.583    -5972380.5592       3108.896          38.750  
G25  23777607.034    -7689165.384         933.867          38.500  
C 8  37057047.625    -2422704.6152        491.260          44.500  
C 7  38941934.814     9263756.6182      -1253.447          33.500  
C10  37984029.625     2729995.9692      -1279.043          36.500  
C 3  36300753.784    -6908523.0562        341.982          42.500  
C13  37073573.797    -6745360.2252        453.975          45.000  
C 2  37296255.049    -7364594.3312        382.637          38.250  
C 1  37734936.958    -6508492.7192        347.539          41.250  
C 4  38673641.987    -6514937.1962        331.670          38.250  
G 2  21785349.812   -23029178.657        1023.887          47.750  
C 5  39351240.434    -7131953.1502        372.422          35.750  
C12  22049815.147   -25915808.0112       1812.041          47.000  
G19  21655943.530   -18500949.014       -2076.289          43.750  
G 6  21907058.768   -21321139.746        -584.268          46.000  
C22  22832657.187   -27368273.8712      -1524.844          50.000  
G12  22390478.586   -17267705.219        -478.389          42.750  
G 5  20689460.062   -28080214.049        1479.111          45.500  
> 2020  6 29  8 14 14.0000000  0 23                     
C21  21987405.360   -16363530.9682       1461.250          48.250  
C16  38742752.288   -16445733.8422       2030.303          38.000  
G17  22906181.511    -4685732.247       -2451.719          39.250  
G 9  23338781.069   -16915071.920       -1350.410          42.000  
C 6  38077171.196   -17409883.2152       1893.174          36.500  
C11  25932296.677    -5975489.5452       3109.023          38.500  
G25  23777429.544    -7690098.838         933.379          38.750  
C 8  37056953.468    -2423195.9402        491.406          44.500  
C 7  38942175.610     9265010.0952      -1253.398          33.500  
C10  37984275.245     2731274.9322      -1278.965          36.750  
C 3  36300688.267    -6908865.0632        342.012          42.500  
C13  37073486.625    -6745814.2412        454.053          45.000  
C 2  37296181.675    -7364977.0172        382.734          38.250  
C 1  37734870.172    -6508840.2602        347.598          41.250  
C 4  38673578.586    -6515268.8942        331.758          38.250  
G 2  21785155.024   -23030202.558        1023.916          47.750  
C 5  39351168.949    -7132325.7692        372.686          36.000  
C12  22049467.076   -25917619.9172       1811.885          46.750  
G19  21656338.825   -18498872.436       -2076.689          43.750  
G 6  21907169.904   -21320555.445        -584.277          46.000  
C22  22832950.050   -27366748.7972      -1525.156          50.000  
G12  22390569.741   -17267226.414        -478.926          42.750  
G 5  20689178.712   -28081692.874        1478.711          45.500  
> 2020  6 29  8 14 15.0000000  0 23                     
C21  21987124.799   -16364991.8462       1460.732          48.250  
C16  38742362.450   -16447764.0752       2030.254          38.000  
G17  22906648.122    -4683280.218       -2452.139          39.250  
G 9  23339038.076   -16913721.127       -1350.879          42.000  
C 6  38076807.503   -17411776.2822       1893.154          36.500  
C11  25931699.513    -5978598.5972       3108.994          38.500  
G25  23777252.057    -7691031.704         932.715          38.750  
C 8  37056858.884    -2423687.3812        491.494          44.500  
C 7  38942416.069     9266263.5372      -1253.379          33.500  
C10  37984520.853     2732553.9632      -1279.053          36.750  
C 3  36300622.750    -6909207.0572        342.041          42.500  
C13  37073399.487    -6746268.3502        454.170          45.250  
C 2  37296108.149    -7365359.6342        382.617          38.500  
C 1  37734803.359    -6509187.7922        347.549          41.500  
C 4  38673514.972    -6515600.5872        331.787          38.250  
G 2  21784960.345   -23031226.407        1023.857          47.750  
C 5  39351097.660    -7132698.3212        372.578          35.750  
C12  22049119.198   -25919431.5712       1811.631          46.750  
G19  21656734.256   -18496795.419       -2077.129          43.750  
G 6  21907281.193   -21319971.035        -584.424          46.000  
C22  22833243.091   -27365223.3602      -1525.518          50.000  
G12  22390660.853   -17266747.014        -479.512          42.750  
G 5  20688897.231   -28083171.200        1478.203          45.250  
> 2020  6 29  8 14 16.0000000  0 23                     
C21  21986844.191   -16366452.2562       1460.273          48.250  
C16  38741972.603   -16449794.2862       2030.137          37.750  
G17  22907114.736    -4680827.878       -2452.383          39.250  
G 9  23339295.192   -16912369.776       -1351.523          42.250  
C 6  38076444.185   -17413669.3562       1893.047          36.500  
C11  25931102.698    -5981707.7252       3109.102          38.500  
G25  23777074.563    -7691963.999         932.109          38.500  
C 8  37056764.443    -2424178.9292        491.592          44.500  
C 7  38942656.987     9267516.9632      -1253.516          33.500  
C10  37984766.460     2733833.0072      -1279.062          36.750  
C 3  36300557.050    -6909549.0532        341.973          42.500  
C13  37073312.280    -6746722.5582        454.229          45.250  
C 2  37296034.696    -7365742.3192        382.627          38.250  
C 1  37734736.682    -6509535.3292        347.549          41.500  
C 4  38673451.313    -6515932.2632        331.660          38.250  
G 2  21784765.421   -23032250.230        1023.799          47.750  
C 5  39351025.988    -7133070.8942        372.598          35.750  
C12  22048771.511   -25921242.9862       1811.338          46.750  
G19  21657129.652   -18494717.952       -2077.607          43.750  
G 6  21907392.207   -21319386.515        -584.580          46.000  
C22  22833536.094   -27363697.5662      -1525.889          50.000  
G12  22390752.397   -17266267.039        -480.195          42.750  
G 5  20688615.969   -28084649.058        1477.715          45.250  
> 2020  6 29  8 14 17.0000000  0 23                     
C21  21986563.766   -16367912.1582       1459.707          48.250  
C16  38741582.608   -16451824.4752       2030.117          38.000  
G17  22907581.124    -4678375.127       -2452.949          39.250  
G 9  23339552.430   -16911017.872       -1352.139          42.250  
C 6  38076080.788   -17415562.3532       1892.959          36.750  
C11  25930505.377    -5984816.8832       3109.131          38.500  
G25  23776897.151    -7692895.704         931.475          38.500  
C 8  37056670.033    -2424670.5402        491.611          44.500  
C 7  38942897.660     9268770.3812      -1253.496          33.750  
C10  37985012.294     2735112.1582      -1279.219          36.750  
C 3  36300491.376    -6909891.0362        341.914          42.500  
C13  37073225.033    -6747176.8452        454.297          45.250  
C 2  37295960.965    -7366124.9472        382.598          38.250  
C 1  37734670.040    -6509882.8542        347.480          41.250  
C 4  38673387.524    -6516263.9392        331.592          38.250  
G 2  21784570.503   -23033273.989        1023.701          47.750  
C 5  39350954.350    -7133443.4352        372.490          36.000  
C12  22048423.479   -25923054.1502       1811.055          47.000  
G19  21657525.165   -18492640.039       -2078.115          43.750  
G 6  21907503.404   -21318801.870        -584.746          46.000  
C22  22833829.013   -27362171.3932      -1526.328          50.000  
G12  22390843.810   -17265786.497        -480.713          42.750  
G 5  20688334.902   -28086126.411        1477.148          45.500  
> 2020  6 29  8 14 18.0000000  0 23                     
C21  21986283.681   -16369371.3982       1459.092          48.250  
C16  38741192.766   -16453854.4072       2029.893          38.000  
G17  22908047.703    -4675921.851       -2453.369          39.250  
G 9  23339809.768   -16909665.228       -1352.793          42.250  
C 6  38075717.034   -17417455.0982       1892.656          36.500  
C11  25929908.662    -5987925.9242       3109.102          38.500  
G25  23776719.804    -7693826.610         930.732          38.500  
C 8  37056575.776    -2425162.0502        491.543          44.500  
C 7  38943138.360     9270023.9382      -1253.506          33.750  
C10  37985257.614     2736391.5632      -1279.385          36.500  
C 3  36300425.563    -6910232.8112        341.758          42.500  
C13  37073137.717    -6747631.0012        454.219          45.250  
C 2  37295887.661    -7366507.3962        382.441          38.250  
C 1  37734603.271    -6510230.1712        347.295          41.250  
C 4  38673323.730    -6516595.4222        331.523          38.250  
G 2  21784375.697   -23034297.514        1023.535          47.500  
C 5  39350882.905    -7133815.7932        372.324          35.750  
C12  22048075.884   -25924864.8572       1810.654          47.000  
G19  21657920.844   -18490561.478       -2078.672          43.750  
G 6  21907614.880   -21318216.905        -584.990          46.000  
C22  22834122.277   -27360644.6692      -1526.836          50.000  
G12  22390935.323   -17265305.154        -481.514          43.000  
G 5  20688053.997   -28087603.076        1476.504          45.250  
> 2020  6 29  8 14 19.0000000  0 23                     
C21  21986003.693   -16370830.1722       1458.584          48.250  
C16  38740802.806   -16455884.3332       2029.824          37.750  
G17  22908514.449    -4673468.224       -2453.740          39.250  
G 9  23340067.132   -16908312.063       -1353.438          42.000  
C 6  38075353.415   -17419347.8162       1892.559          36.500  
C11  25929311.512    -5991035.0652       3109.121          38.500  
G25  23776543.003    -7694756.949         930.098          38.250  
C 8  37056481.488    -2425653.6742        491.602          44.500  
C 7  38943379.326     9271277.5202      -1253.594          33.750  
C10  37985503.505     2737670.9502      -1279.492          36.500  
C 3  36300359.823    -6910574.6152        341.777          42.500  
C13  37073050.361    -6748085.2372        454.248          45.250  
C 2  37295814.134    -7366889.8582        382.432          38.500  
C 1  37734536.502    -6510577.5222        347.305          41.500  
C 4  38673260.041    -6516926.9232        331.504          38.250  
G 2  21784180.865   -23035321.024        1023.467          47.500  
C 5  39350811.368    -7134188.1672        372.275          35.750  
C12  22047728.210   -25926675.3612       1810.391          47.000  
G19  21658316.332   -18488482.523       -2079.092          43.750  
G 6  21907726.247   -21317631.861        -585.088          46.000  
C22  22834415.502   -27359117.6072      -1527.217          50.000  
G12  22391027.094   -17264823.300        -482.100          43.000  
G 5  20687773.066   -28089079.287        1475.996          45.500  
> 2020  6 29  8 14 20.0000000  0 23                     
C21  21985723.682   -16372288.4752       1458.145          48.250  
C16  38740412.898   -16457914.2582       2029.902          38.000  
G17  22908981.312    -4671014.283       -2454.082          39.250  
G 9  23340324.554   -16906958.374       -1353.877          42.000  
C 6  38074989.949   -17421240.5222       1892.627          36.500  
C11  25928714.422    -5994144.2682       3109.150          38.500  
G25  23776365.979    -7695686.744         929.590          38.250  
C 8  37056386.912    -2426145.3862        491.719          44.500  
C 7  38943619.990     9272531.0622      -1253.477          33.500  
C10  37985749.025     2738950.3942      -1279.395          36.500  
C 3  36300294.363    -6910916.4152        341.768          42.500  
C13  37072963.097    -6748539.5952        454.365          45.250  
C 2  37295740.704    -7367272.3292        382.441          38.500  
C 1  37734469.798    -6510924.9012        347.373          41.500  
C 4  38673196.200    -6517258.4162        331.475          38.500  
G 2  21783986.330   -23036344.506        1023.438          47.500  
C 5  39350739.756    -7134560.5242        372.354          35.750  
C12  22047380.440   -25928485.6242       1810.166          47.000  
G19  21658712.125   -18486403.122       -2079.580          43.750  
G 6  21907837.379   -21317046.706        -585.225          46.000  
C22  22834708.953   -27357590.1842      -1527.559          50.000  
G12  22391118.791   -17264340.844        -482.637          43.000  
G 5  20687492.314   -28090555.026        1475.547          45.500  
> 2020  6 29  8 14 21.0000000  0 23                     
C21  21985443.711   -16373746.2342       1457.607          48.250  
C16  38740023.091   -16459944.0802       2029.814          37.750  
G17  22909448.585    -4668559.919       -2454.463          39.250  
G 9  23340582.429   -16905604.081       -1354.434          41.750  
C 6  38074626.417   -17423133.1002       1892.539          36.250  
C11  25928117.267    -5997253.4912       3109.180          38.500  
G25  23776189.243    -7696615.879         928.916          38.250  
C 8  37056292.376    -2426637.1402        491.768          44.500  
C 7  38943860.489     9273784.6082      -1253.486          33.500  
C10  37985994.737     2740229.9772      -1279.570          36.500  
C 3  36300228.650    -6911258.1662        341.748          42.500  
C13  37072875.819    -6748993.9762        454.404          45.250  
C 2  37295667.334    -7367654.7192        382.363          38.500  
C 1  37734403.165    -6511272.1962        347.285          41.500  
C 4  38673132.655    -6517589.8672        331.416          38.250  
G 2  21783791.538   -23037367.887        1023.340          47.500  
C 5  39350668.232    -7134932.8492        372.305          35.750  
C12  22047032.832   -25930295.5952       1809.893          47.000  
G19  21659107.882   -18484323.210       -2080.068          43.750  
G 6  21907948.712   -21316461.379        -585.371          46.000  
C22  22835002.352   -27356062.3612      -1527.949          50.000  
G12  22391210.841   -17263857.786        -483.232          43.000  
G 5  20687211.536   -28092030.240        1475.059          45.250  
> 2020  6 29  8 14 22.0000000  0 23                     
C21  21985163.787   -16375203.6432       1457.246          48.250  
C16  38739633.236   -16461973.9632       2029.893          37.750  
G17  22909915.631    -4666105.336       -2454.658          39.250  
G 9  23340840.103   -16904249.355       -1354.766          42.000  
C 6  38074262.894   -17425025.7522       1892.734          36.500  
C11  25927520.107    -6000362.8992       3109.453          38.500  
G25  23776012.224    -7697544.563         928.418          38.500  
C 8  37056197.778    -2427129.1192        491.953          44.500  
C 7  38944101.089     9275038.0252      -1253.281          33.750  
C10  37986240.558     2741509.4642      -1279.541          36.500  
C 3  36300163.212    -6911600.0272        341.865          42.500  
C13  37072788.669    -6749448.5512        454.609          45.250  
C 2  37295593.965    -7368037.2492        382.520          38.500  
C 1  37734336.313    -6511619.6142        347.412          41.500  
C 4  38673069.210    -6517921.4472        331.602          38.250  
G 2  21783596.645   -23038391.357        1023.457          47.500  
C 5  39350596.673    -7135305.2752        372.451          35.750  
C12  22046685.394   -25932105.4372       1809.756          47.000  
G19  21659503.963   -18482242.999       -2080.332          43.750  
G 6  21908060.018   -21315876.063        -585.371          46.000  
C22  22835295.830   -27354534.2832      -1528.203          50.000  
G12  22391302.886   -17263374.257        -483.711          43.000  
G 5  20686930.770   -28093505.095        1474.688          45.250  
> 2020  6 29  8 14 23.0000000  0 23                     
C21  21984883.964   -16376660.4992       1456.748          48.250  
C16  38739243.498   -16464003.7552       2029.717          37.750  
G17  22910382.896    -4663650.327       -2455.088          39.500  
G 9  23341098.200   -16902894.025       -1355.400          41.750  
C 6  38073899.485   -17426918.2612       1892.510          36.500  
C11  25926922.865    -6003472.2912       3109.502          38.500  
G25  23775835.702    -7698472.574         927.842          38.500  
C 8  37056103.237    -2427621.1152        492.051          44.500  
C 7  38944341.819     9276291.4992      -1253.301          33.500  
C10  37986486.153     2742789.1482      -1279.727          36.500  
C 3  36300097.507    -6911941.8092        341.826          42.500  
C13  37072701.457    -6749903.1672        454.717          45.250  
C 2  37295520.534    -7368419.7002        382.490          38.500  
C 1  37734269.631    -6511966.9482        347.363          41.500  
C 4  38673005.517    -6518252.9242        331.533          38.250  
G 2  21783402.110   -23039414.712        1023.389          47.500  
C 5  39350525.367    -7135677.6502        372.402          35.750  
C12  22046337.829   -25933914.9542       1809.453          47.000  
G19  21659899.856   -18480162.270       -2080.791          44.000  
G 6  21908171.446   -21315290.568        -585.479          46.000  
C22  22835589.373   -27353005.7852      -1528.584          50.000  
G12  22391395.307   -17262890.093        -484.268          43.000  
G 5  20686650.101   -28094979.403        1474.219          45.250  
> 2020  6 29  8 14 24.0000000  0 23                     
C21  21984604.338   -16378116.8432       1456.123          48.250  
C16  38738853.634   -16466033.5012       2029.648          37.750  
G17  22910850.156    -4661194.965       -2455.498          39.250  
G 9  23341356.320   -16901538.119       -1356.133          42.000  
C 6  38073536.136   -17428810.7572       1892.402          36.500  
C11  25926325.509    -6006581.7232       3109.375          38.500  
G25  23775659.110    -7699399.987         927.119          38.500  
C 8  37056008.866    -2428113.1592        492.012          44.500  
C 7  38944582.435     9277545.0052      -1253.662          33.750  
C10  37986731.917     2744068.8442      -1279.893          36.250  
C 3  36300031.663    -6912283.5652        341.660          42.500  
C13  37072614.018    -6750357.8392        454.629          45.250  
C 2  37295447.130    -7368802.1042        382.393          38.500  
C 1  37734202.950    -6512314.2742        347.197          41.500  
C 4  38672941.989    -6518584.3932        331.416          38.250  
G 2  21783207.065   -23040438.007        1023.213          47.500  
C 5  39350453.970    -7136050.0172        372.354          35.750  
C12  22045990.312   -25935724.2052       1809.121          47.000  
G19  21660295.810   -18478081.073       -2081.416          43.750  
G 6  21908283.298   -21314704.932        -585.723          46.000  
C22  22835883.021   -27351476.9082      -1529.062          50.000  
G12  22391487.658   -17262405.336        -485.029          43.000  
G 5  20686369.633   -28096453.196        1473.584          45.250  
> 2020  6 29  8 14 25.0000000  0 23                     
C21  21984324.659   -16379572.5612       1455.518          48.250  
C16  38738463.949   -16468063.0462       2029.473          37.750  
G17  22911317.398    -4658739.076       -2456.025          39.250  
G 9  23341614.561   -16900181.527       -1356.846          42.000  
C 6  38073172.762   -17430703.0302       1892.246          36.500  
C11  25925728.354    -6009691.0682       3109.238          38.500  
G25  23775482.850    -7700326.651         926.357          38.500  
C 8  37055914.491    -2428605.1642        492.002          44.500  
C 7  38944823.445     9278798.6022      -1253.613          33.500  
C10  37986977.595     2745348.7402      -1279.951          36.250  
C 3  36299966.190    -6912625.1802        341.553          42.500  
C13  37072526.715    -6750812.4592        454.609          45.250  
C 2  37295373.695    -7369184.3762        382.148          38.250  
C 1  37734136.264    -6512661.4642        347.129          41.500  
C 4  38672878.388    -6518915.6892        331.201          38.500  
G 2  21783012.338   -23041461.108        1023.037          47.500  
C 5  39350382.437    -7136422.1802        372.148          36.000  
C12  22045643.057   -25937533.0702       1808.730          47.000  
G19  21660691.786   -18475999.294       -2081.943          43.750  
G 6  21908394.495   -21314119.033        -585.986          46.000  
C22  22836176.822   -27349947.5142      -1529.551          50.000  
G12  22391580.231   -17261919.851        -485.713          43.000  
G 5  20686089.426   -28097926.352        1472.949          45.250  
> 2020  6 29  8 14 26.0000000  0 23                     
C21  21984045.228   -16381027.8702       1455.137          48.250  
C16  38738074.116   -16470092.6512       2029.561          37.750  
G17  22911784.864    -4656282.939       -2456.299          39.500  
G 9  23341872.532   -16898824.459       -1357.314          42.000  
C 6  38072809.518   -17432595.3332       1892.275          36.250  
C11  25925131.011    -6012800.5792       3109.482          38.500  
G25  23775306.629    -7701252.823         925.957          38.500  
C 8  37055820.164    -2429097.3202        492.129          44.500  
C 7  38945064.279     9280052.1062      -1253.594          33.500  
C10  37987223.590     2746628.6442      -1279.961          36.250  
C 3  36299900.713    -6912966.8512        341.572          42.500  
C13  37072439.302    -6751267.2092        454.717          45.250  
C 2  37295300.251    -7369566.7192        382.334          38.250  
C 1  37734069.425    -6513008.7142        347.207          41.500  
C 4  38672814.812    -6519247.0652        331.309          38.500  
G 2  21782817.672   -23042484.255        1023.115          47.500  
C 5  39350310.913    -7136794.4102        372.119          35.750  
C12  22045295.589   -25939341.7602       1808.564          47.000  
G19  21661088.033   -18473917.138       -2082.354          43.750  
G 6  21908506.172   -21313533.102        -586.006          46.000  
C22  22836470.518   -27348417.8392      -1529.814          50.000  
G12  22391672.774   -17261433.881        -486.172          43.000  
G 5  20685809.323   -28099399.124        1472.607          45.250  
> 2020  6 29  8 14 27.0000000  0 23                     
C21  21983765.833   -16382482.6192       1454.648          48.250  
C16  38737684.396   -16472122.1332       2029.443          37.750  
G17  22912252.285    -4653826.389       -2456.641          39.250  
G 9  23342130.882   -16897466.774       -1357.812          42.000  
C 6  38072446.183   -17434487.5132       1892.207          36.500  
C11  25924533.939    -6015910.0532       3109.580          38.500  
G25  23775130.560    -7702178.338         925.400          38.750  
C 8  37055725.702    -2429589.5252        492.285          44.500  
C 7  38945304.918     9281305.6782      -1253.418          33.250  
C10  37987469.377     2747908.6522      -1280.059          36.250  
C 3  36299835.130    -6913308.4452        341.621          42.500  
C13  37072352.121    -6751721.9642        454.824          45.250  
C 2  37295226.803    -7369948.9772        382.383          38.250  
C 1  37734002.761    -6513355.8792        347.188          41.250  
C 4  38672750.840    -6519578.3572        331.318          38.250  
G 2  21782623.023   -23043507.277        1023.057          47.500  
C 5  39350239.393    -7137166.6272        372.246          35.750  
C12  22044948.351   -25941150.1192       1808.340          47.000  
G19  21661484.297   -18471834.469       -2082.754          43.750  
G 6  21908617.661   -21312946.970        -586.104          46.000  
C22  22836764.288   -27346887.7202      -1530.176          50.000  
G12  22391765.640   -17260947.237        -486.758          43.000  
G 5  20685529.134   -28100871.316        1472.090          45.250  
> 2020  6 29  8 14 28.0000000  0 23                     
C21  21983486.734   -16383936.9742       1454.268          48.250  
C16  38737294.627   -16474151.6742       2029.502          37.750  
G17  22912719.807    -4651369.585       -2456.904          39.250  
G 9  23342389.250   -16896108.630       -1358.281          42.000  
C 6  38072082.743   -17436379.7272       1892.188          36.500  
C11  25923936.666    -6019019.6852       3109.727          38.500  
G25  23774954.719    -7703103.335         924.814          38.750  
C 8  37055631.191    -2430081.8942        492.422          44.500  
C 7  38945545.474     9282559.1252      -1253.408          33.500  
C10  37987715.368     2749188.6412      -1279.941          36.250  
C 3  36299769.478    -6913650.1222        341.719          42.500  
C13  37072264.687    -6752176.9172        455.049          45.250  
C 2  37295153.417    -7370331.3242        382.402          38.250  
C 1  37733936.179    -6513703.1342        347.314          41.500  
C 4  38672687.077    -6519909.7422        331.436          38.250  
G 2  21782428.231   -23044530.354        1023.135          47.250  
C 5  39350167.873    -7137538.8752        372.354          36.000  
C12  22044601.297   -25942958.3282       1808.184          47.000  
G19  21661880.617   -18469751.456       -2083.096          43.750  
G 6  21908729.207   -21312360.807        -586.152          46.000  
C22  22837058.328   -27345357.3422      -1530.430          50.250  
G12  22391858.121   -17260460.129        -487.266          43.000  
G 5  20685248.945   -28102343.124        1471.719          45.250  
> 2020  6 29  8 14 29.0000000  0 23                     
C21  21983207.334   -16385391.1722       1454.121          48.250  
C16  38736904.615   -16476181.5102       2029.902          37.750  
G17  22913187.128    -4648912.743       -2456.836          39.000  
G 9  23342647.810   -16894750.285       -1358.428          42.000  
C 6  38071719.233   -17438272.2332       1892.539          36.500  
C11  25923339.462    -6022129.6882       3110.049          38.750  
G25  23774779.026    -7704028.090         924.629          38.750  
C 8  37055536.493    -2430574.6592        492.861          44.500  
C 7  38945785.907     9283812.2862      -1253.096          33.500  
C10  37987960.884     2750468.3002      -1279.541          36.250  
C 3  36299703.844    -6913992.1172        342.061          42.500  
C13  37072177.440    -6752632.2792        455.439          45.250  
C 2  37295079.999    -7370714.0092        382.822          38.500  
C 1  37733869.358    -6514050.7082        347.646          41.500  
C 4  38672623.479    -6520241.4222        331.729          38.250  
G 2  21782233.548   -23045553.706        1023.418          47.250  
C 5  39350096.406    -7137911.4552        372.715          36.000  
C12  22044253.885   -25944766.6102       1808.291          47.000  
G19  21662277.025   -18467668.306       -2083.203          43.500  
G 6  21908840.527   -21311774.868        -585.908          46.000  
C22  22837352.234   -27343826.9082      -1530.459          50.250  
G12  22391950.769   -17259972.770        -487.422          43.250  
G 5  20684968.991   -28103814.764        1471.562          45.250  
> 2020  6 29  8 14 30.0000000  0 23                     
C21  21982928.196   -16386844.6252       1453.223          48.250  
C16  38736514.982   -16478211.0362       2029.434          37.750  
G17  22913654.969    -4646455.289       -2457.607          39.000  
G 9  23342906.540   -16893391.102       -1359.443          42.000  
C 6  38071355.959   -17440164.4172       1892.070          36.500  
C11  25922742.142    -6025239.5142       3109.756          38.500  
G25  23774603.468    -7704951.994         923.721          38.750  
C 8  37055441.900    -2431067.2752        492.578          44.750  
C 7  38946026.563     9285065.6362      -1253.350          33.250  
C10  37988206.631     2751748.3722      -1280.146          36.250  
C 3  36299638.191    -6914333.8422        341.592          42.500  
C13  37072090.141    -6753087.4512        455.098          45.250  
C 2  37295006.717    -7371096.3892        382.363          38.500  
C 1  37733802.965    -6514398.0232        347.275          41.500  
C 4  38672559.716    -6520572.8902        331.348          38.250  
G 2  21782038.611   -23046576.755        1022.979          47.250  
C 5  39350025.170    -7138283.7592        372.168          36.000  
C12  22043906.704   -25946574.3952       1807.646          47.000  
G19  21662673.403   -18465584.460       -2084.033          43.500  
G 6  21908952.326   -21311188.547        -586.406          46.000  
C22  22837646.266   -27342295.8662      -1531.211          50.250  
G12  22392043.691   -17259484.570        -488.418          43.250  
G 5  20684689.050   -28105285.653        1470.693          45.250  
> 2020  6 29  8 14 31.0000000  0 23                     
C21  21982649.085   -16388297.6312       1452.812          48.250  
C16  38736125.310   -16480240.5642       2029.453          37.750  
G17  22914122.743    -4643997.526       -2457.920          39.250  
G 9  23343165.336   -16892031.430       -1359.883          42.000  
C 6  38070992.889   -17442056.5732       1892.002          36.500  
C11  25922144.921    -6028349.4322       3109.893          38.500  
G25  23774427.718    -7705875.338         923.154          39.000  
C 8  37055347.110    -2431560.0092        492.744          44.500  
C 7  38946267.175     9286318.9692      -1253.350          33.250  
C10  37988452.243     2753028.3852      -1280.156          36.250  
C 3  36299572.561    -6914675.6162        341.748          42.500  
C13  37072002.746    -6753542.7352        455.293          45.250  
C 2  37294933.321    -7371478.8142        382.393          38.250  
C 1  37733736.209    -6514745.3682        347.285          41.500  
C 4  38672496.171    -6520904.3612        331.406          38.250  
G 2  21781844.133   -23047599.810        1023.008          47.500  
C 5  39349953.720    -7138656.1162        372.314          35.750  
C12  22043559.589   -25948381.9722       1807.451          47.000  
G19  21663069.671   -18463500.225       -2084.395          43.500  
G 6  21909064.108   -21310602.143        -586.484          46.000  
C22  22837940.241   -27340764.4972      -1531.514          50.250  
G12  22392136.575   -17258995.830        -488.906          43.250  
G 5  20684409.162   -28106756.104        1470.283          45.250  
> 2020  6 29  8 14 32.0000000  0 23                     
C21  21982370.138   -16389750.2122       1452.510          48.250  
C16  38735735.847   -16482270.1032       2029.619          37.750  
G17  22914590.344    -4641539.471       -2458.145          39.250  
G 9  23343424.323   -16890671.256       -1360.283          42.000  
C 6  38070629.484   -17443948.7432       1892.158          36.500  
C11  25921547.814    -6031459.4812       3110.127          38.500  
G25  23774252.090    -7706798.160         922.686          39.000  
C 8  37055252.504    -2432052.9182        492.988          44.500  
C 7  38946507.875     9287572.1672      -1253.086          33.250  
C10  37988698.103     2754308.4192      -1279.990          36.250  
C 3  36299506.953    -6915017.4092        341.875          42.500  
C13  37071915.442    -6753998.1842        455.537          45.250  
C 2  37294859.721    -7371861.2782        382.490          38.500  
C 1  37733669.383    -6515092.7832        347.490          41.250  
C 4  38672432.356    -6521235.8912        331.592          38.250  
G 2  21781649.467   -23048622.867        1023.115          47.500  
C 5  39349882.200    -7139028.5222        372.510          36.000  
C12  22043212.700   -25950189.3622       1807.373          47.000  
G19  21663466.319   -18461415.598       -2084.697          43.500  
G 6  21909175.296   -21310015.688        -586.436          46.000  
C22  22838234.259   -27339232.8162      -1531.729          50.250  
G12  22392229.628   -17258506.570        -489.375          43.000  
G 5  20684129.317   -28108226.127        1469.941          45.250  
> 2020  6 29  8 14 33.0000000  0 23                     
C21  21982091.454   -16391202.0862       1451.680          48.250  
C16  38735346.123   -16484299.4022       2029.258          38.000  
G17  22915058.346    -4639080.860       -2458.809          39.250  
G 9  23343683.018   -16889310.337       -1361.133          42.000  
C 6  38070266.049   -17445840.6612       1891.855          36.500  
C11  25920950.541    -6034569.3762       3109.893          38.500  
G25  23774076.842    -7707720.186         921.768          39.000  
C 8  37055157.828    -2432545.6662        492.705          44.500  
C 7  38946748.657     9288825.6292      -1253.457          33.250  
C10  37988943.750     2755588.7102      -1280.342          36.250  
C 3  36299441.266    -6915358.9882        341.543          42.500  
C13  37071827.716    -6754453.4872        455.283          45.250  
C 2  37294786.277    -7372243.5252        382.256          38.500  
C 1  37733602.431    -6515439.9402        347.139          41.500  
C 4  38672368.889    -6521567.1962        331.260          38.250  
G 2  21781454.731   -23049645.668        1022.764          47.500  
C 5  39349810.689    -7139400.7022        372.119          35.750  
C12  22042865.755   -25951996.2952       1806.797          47.000  
G19  21663862.953   -18459330.305       -2085.469          43.500  
G 6  21909286.912   -21309428.891        -586.875          46.000  
C22  22838528.645   -27337700.5732      -1532.402          50.250  
G12  22392322.960   -17258016.519        -490.293          43.250  
G 5  20683849.651   -28109695.440        1469.111          45.250  
> 2020  6 29  8 14 34.0000000  0 23                     
C21  21981812.778   -16392653.4842       1451.260          48.250  
C16  38734956.198   -16486328.6572       2029.248          38.000  
G17  22915526.439    -4636621.895       -2459.072          39.500  
G 9  23343942.001   -16887948.853       -1361.621          41.750  
C 6  38069902.853   -17447732.5202       1891.924          36.500  
C11  25920353.399    -6037679.3112       3109.941          38.500  
G25  23773901.476    -7708641.610         921.289          39.000  
C 8  37055063.318    -2433038.5092        492.891          44.500  
C 7  38946989.187     9290079.0672      -1253.389          33.500  
C10  37989189.602     2756869.0902      -1280.371          36.250  
C 3  36299375.640    -6915700.5732        341.582          42.500  
C13  37071740.347    -6754908.8482        455.400          45.250  
C 2  37294712.847    -7372625.7602        382.285          38.500  
C 1  37733535.845    -6515787.1222        347.217          41.500  
C 4  38672305.165    -6521898.4832        331.250          38.250  
G 2  21781260.135   -23050668.422        1022.764          47.500  
C 5  39349739.178    -7139772.8582        372.158          35.750  
C12  22042518.788   -25953802.9682       1806.582          47.000  
G19  21664259.723   -18457244.563       -2085.850          43.500  
G 6  21909398.659   -21308841.979        -586.943          46.000  
C22  22838823.178   -27336167.9552      -1532.695          50.250  
G12  22392416.214   -17257525.888        -490.791          43.000  
G 5  20683570.151   -28111164.281        1468.711          45.250  
> 2020  6 29  8 14 35.0000000  0 23                     
C21  21981534.238   -16394104.4102       1450.723          48.250  
C16  38734566.753   -16488357.9022       2029.160          38.000  
G17  22915994.445    -4634162.597       -2459.473          39.500  
G 9  23344201.368   -16886586.859       -1362.246          41.750  
C 6  38069539.526   -17449624.3472       1891.689          36.500  
C11  25919756.082    -6040789.3342       3109.951          38.500  
G25  23773726.311    -7709562.471         920.547          39.000  
C 8  37054968.681    -2433531.4542        492.900          44.500  
C 7  38947229.769     9291332.4532      -1253.428          33.250  
C10  37989435.475     2758149.4982      -1280.469          36.250  
C 3  36299309.914    -6916042.1612        341.514          42.500  
C13  37071652.777    -6755364.3262        455.420          45.250  
C 2  37294639.669    -7373007.9822        382.129          38.250  
C 1  37733469.151    -6516134.3162        347.148          41.250  
C 4  38672241.660    -6522229.7922        331.270          38.250  
G 2  21781065.757   -23051691.153        1022.656          47.500  
C 5  39349667.558    -7140145.0482        372.148          35.750  
C12  22042171.856   -25955609.3972       1806.270          47.000  
G19  21664656.982   -18455158.389       -2086.367          43.250  
G 6  21909510.449   -21308254.968        -587.119          46.000  
C22  22839117.720   -27334634.9862      -1533.164          50.250  
G12  22392509.713   -17257034.700        -491.445          43.250  
G 5  20683290.559   -28112632.640        1468.154          45.250  
> 2020  6 29  8 14 36.0000000  0 23                     
C21  21981255.680   -16395554.8962       1450.332          48.250  
C16  38734176.950   -16490387.1462       2029.277          38.000  
G17  22916462.530    -4631702.993       -2459.746          39.500  
G 9  23344460.644   -16885224.343       -1362.734          41.750  
C 6  38069176.230   -17451516.1612       1891.768          36.500  
C11  25919158.840    -6043899.4772       3110.146          38.500  
G25  23773551.329    -7710482.757         920.059          39.000  
C 8  37054873.978    -2434024.5402        493.135          44.500  
C 7  38947470.612     9292585.7882      -1253.291          33.250  
C10  37989681.414     2759429.9592      -1280.566          36.250  
C 3  36299244.192    -6916383.7882        341.621          42.500  
C13  37071565.360    -6755819.9312        455.625          45.250  
C 2  37294566.055    -7373390.2602        382.266          38.250  
C 1  37733402.508    -6516481.5302        347.207          41.250  
C 4  38672178.045    -6522561.1622        331.377          38.250  
G 2  21780871.008   -23052713.892        1022.695          47.500  
C 5  39349596.204    -7140517.2522        372.266          36.000  
C12  22041824.932   -25957415.6332       1806.143          47.000  
G19  21665053.813   -18453071.842       -2086.699          43.250  
G 6  21909622.375   -21307667.880        -587.139          46.000  
C22  22839411.988   -27333101.7072      -1533.398          50.250  
G12  22392602.975   -17256542.991        -491.895          43.250  
G 5  20683011.277   -28114100.571        1467.773          45.250  
> 2020  6 29  8 14 37.0000000  0 23                     
C21  21980977.323   -16397004.8552       1449.844          48.250  
C16  38733787.339   -16492416.2982       2029.180          38.000  
G17  22916930.789    -4629243.009       -2460.039          39.500  
G 9  23344719.832   -16883861.254       -1363.252          41.750  
C 6  38068812.703   -17453407.9002       1891.748          36.500  
C11  25918561.375    -6047009.6242       3110.186          38.500  
G25  23773376.150    -7711402.470         919.521          39.000  
C 8  37054779.245    -2434517.6572        493.125          44.500  
C 7  38947711.373     9293839.1712      -1253.281          33.500  
C10  37989927.314     2760710.4602      -1280.615          36.250  
C 3  36299178.522    -6916725.3502        341.582          42.500  
C13  37071477.743    -6756275.5512        455.654          45.250  
C 2  37294492.612    -7373772.5072        382.178          38.500  
C 1  37733335.957    -6516828.7082        347.197          41.250  
C 4  38672114.430    -6522892.4412        331.406          38.250  
G 2  21780676.247   -23053736.545        1022.676          47.500  
C 5  39349524.706    -7140889.4162        372.168          36.000  
C12  22041478.157   -25959221.5872       1805.889          47.000  
G19  21665450.832   -18450984.787       -2087.148          43.250  
G 6  21909734.043   -21307080.644        -587.266          46.000  
C22  22839706.464   -27331568.0232      -1533.789          50.250  
G12  22392696.761   -17256050.651        -492.471          43.250  
G 5  20682732.248   -28115567.968        1467.266          45.000  
> 2020  6 29  8 14 38.0000000  0 23                     
C21  21980698.914   -16398454.3892       1449.414          48.250  
C16  38733397.562   -16494445.4972       2029.229          38.000  
G17  22917399.052    -4626782.728       -2460.410          39.250  
G 9  23344979.508   -16882497.676       -1363.730          41.750  
C 6  38068449.524   -17455299.6232       1891.699          36.500  
C11  25917963.945    -6050119.9142       3110.400          38.500  
G25  23773201.072    -7712321.633         919.043          39.000  
C 8  37054684.534    -2435010.9322        493.320          44.500  
C 7  38947952.243     9295092.4552      -1253.203          33.500  
C10  37990173.105     2761990.9572      -1280.498          36.250  
C 3  36299112.870    -6917066.9902        341.641          42.500  
C13  37071390.295    -6756731.3262        455.820          45.250  
C 2  37294419.321    -7374154.8142        382.256          38.500  
C 1  37733269.350    -6517175.9592        347.295          41.250  
C 4  38672050.763    -6523223.7912        331.387          38.250  
G 2  21780481.581   -23054759.208        1022.686          47.500  
C 5  39349453.169    -7141261.6692        372.285          36.000  
C12  22041131.304   -25961027.3472       1805.723          47.000  
G19  21665847.881   -18448897.349       -2087.559          43.250  
G 6  21909845.668   -21306493.346        -587.275          46.250  
C22  22840001.124   -27330034.0372      -1534.062          50.250  
G12  22392790.888   -17255557.802        -493.037          43.250  
G 5  20682453.045   -28117034.946        1466.885          45.000  
> 2020  6 29  8 14 39.0000000  0 23                     
C21  21980420.574   -16399903.3122       1448.818          48.250  
C16  38733008.104   -16496474.5082       2029.033          37.750  
G17  22917867.076    -4624321.962       -2460.869          39.250  
G 9  23345239.172   -16881133.409       -1364.434          41.750  
C 6  38068086.473   -17457191.1982       1891.689          36.500  
C11  25917366.768    -6053230.0912       3110.312          38.500  
G25  23773026.247    -7713240.081         918.203          39.000  
C 8  37054589.906    -2435504.1682        493.291          44.500  
C 7  38948193.042     9296345.8702      -1253.467          33.500  
C10  37990419.209     2763271.6972      -1280.732          36.250  
C 3  36299047.419    -6917408.4692        341.533          42.500  
C13  37071302.577    -6757187.0682        455.791          45.250  
C 2  37294345.960    -7374536.9832        382.188          38.250  
C 1  37733202.699    -6517523.0632        347.158          41.250  
C 4  38671987.070    -6523555.0102        331.240          38.250  
G 2  21780287.089   -23055781.700        1022.500          47.500  
C 5  39349381.815    -7141633.7502        372.188          36.000  
C12  22040784.555   -25962832.7222       1805.381          47.000  
G19  21666245.305   -18446809.340       -2088.086          43.250  
G 6  21909957.642   -21305905.797        -587.539          46.250  
C22  22840295.754   -27328499.5622      -1534.551          50.250  
G12  22392884.792   -17255064.255        -493.662          43.250  
G 5  20682174.203   -28118501.304        1466.221          45.000  
> 2020  6 29  8 14 40.0000000  0 23                     
C21  21980142.278   -16401351.5852       1448.066          48.250  
C16  38732618.427   -16498503.3332       2028.691          38.000  
G17  22918335.571    -4621860.695       -2461.475          39.250  
G 9  23345498.700   -16879768.451       -1365.186          41.500  
C 6  38067723.242   -17459082.5392       1891.221          36.500  
C11  25916769.495    -6056340.2092       3110.020          38.500  
G25  23772851.706    -7714157.782         917.461          39.000  
C 8  37054495.143    -2435997.3172        493.105          44.500  
C 7  38948433.711     9297599.3922      -1253.643          33.500  
C10  37990665.380     2764552.5772      -1280.986          36.250  
C 3  36298981.893    -6917749.7812        341.182          42.500  
C13  37071215.204    -6757642.7072        455.596          45.250  
C 2  37294272.482    -7374918.9672        381.885          38.500  
C 1  37733135.969    -6517869.9932        346.816          41.250  
C 4  38671923.821    -6523886.0692        330.928          38.250  
G 2  21780092.480   -23056804.002        1022.178          47.500  
C 5  39349310.488    -7142005.6582        371.777          36.000  
C12  22040438.041   -25964637.6992       1804.814          47.000  
G19  21666642.751   -18444720.723       -2088.828          43.250  
G 6  21910069.432   -21305317.967        -587.959          46.250  
C22  22840590.676   -27326964.5642      -1535.215          50.250  
G12  22392979.001   -17254569.965        -494.551          43.250  
G 5  20681894.917   -28119967.031        1465.459          45.000  
> 2020  6 29  8 14 41.0000000  0 23                     
C21  21979864.540   -16402799.3542       1447.744          48.500  
C16  38732228.777   -16500532.0912       2028.809          37.750  
G17  22918803.873    -4619399.057       -2461.621          39.250  
G 9  23345758.586   -16878402.925       -1365.557          41.750  
C 6  38067359.998   -17460973.8182       1891.318          36.750  
C11  25916172.152    -6059450.3492       3110.254          38.500  
G25  23772677.086    -7715074.859         917.041          39.000  
C 8  37054400.480    -2436490.5342        493.379          44.500  
C 7  38948674.594     9298852.9652      -1253.330          33.750  
C10  37990911.192     2765833.5742      -1280.801          36.250  
C 3  36298916.328    -6918091.1022        341.426          42.500  
C13  37071127.726    -6758098.4322        455.850          45.250  
C 2  37294199.007    -7375300.9562        382.109          38.500  
C 1  37733069.392    -6518216.9242        347.041          41.500  
C 4  38671860.159    -6524217.0912        331.104          38.250  
G 2  21779897.701   -23057826.240        1022.334          47.250  
C 5  39349239.020    -7142377.5642        371.895          35.750  
C12  22040091.471   -25966442.4032       1804.746          47.000  
G19  21667040.045   -18442631.661       -2089.092          43.250  
G 6  21910181.297   -21304730.016        -587.852          46.250  
C22  22840885.558   -27325429.1892      -1535.371          50.250  
G12  22393073.241   -17254075.074        -494.980          43.250  
G 5  20681616.137   -28121432.254        1465.225          45.000  
> 2020  6 29  8 14 42.0000000  0 23                     
C21  21979586.462   -16404246.5882       1447.090          48.250  
C16  38731839.166   -16502560.7822       2028.701          37.750  
G17  22919272.325    -4616937.012       -2462.188          39.500  
G 9  23346018.446   -16877036.800       -1366.299          41.500  
C 6  38066996.711   -17462865.0092       1891.113          36.500  
C11  25915574.944    -6062560.5202       3110.205          38.500  
G25  23772502.675    -7715991.324         916.289          39.000  
C 8  37054305.769    -2436983.8152        493.350          44.500  
C 7  38948915.303     9300106.5042      -1253.525          34.000  
C10  37991157.175     2767114.6772      -1281.152          36.250  
C 3  36298850.986    -6918432.3352        341.250          42.500  
C13  37071040.427    -6758554.1912        455.811          45.250  
C 2  37294125.843    -7375682.8572        381.895          38.500  
C 1  37733002.863    -6518563.7852        346.855          41.500  
C 4  38671796.649    -6524548.0602        330.996          38.250  
G 2  21779703.279   -23058848.384        1022.158          47.250  
C 5  39349167.640    -7142749.3952        371.904          36.000  
C12  22039744.958   -25968246.8092       1804.326          47.000  
G19  21667437.591   -18440542.071       -2089.727          43.250  
G 6  21910293.031   -21304141.894        -588.145          46.250  
C22  22841180.319   -27323893.4002      -1535.879          50.250  
G12  22393167.464   -17253579.567        -495.664          43.250  
G 5  20681337.417   -28122896.934        1464.580          45.000  
> 2020  6 29  8 14 43.0000000  0 23                     
C21  21979308.646   -16405693.4062       1446.699          48.500  
C16  38731449.564   -16504589.4932       2028.701          37.500  
G17  22919740.715    -4614474.709       -2462.314          39.500  
G 9  23346278.346   -16875670.210       -1366.738          41.750  
C 6  38066633.450   -17464756.2092       1891.182          36.750  
C11  25914977.602    -6065670.8022       3110.303          38.500  
G25  23772328.260    -7716907.255         915.762          39.000  
C 8  37054210.931    -2437477.2382        493.467          44.500  
C 7  38949156.185     9301360.0212      -1253.369          33.750  
C10  37991403.349     2768395.7832      -1281.152          36.250  
C 3  36298785.286    -6918773.6302        341.289          42.500  
C13  37070952.740    -6759010.0752        455.879          45.250  
C 2  37294052.487    -7376064.8182        381.992          38.250  
C 1  37732936.125    -6518910.7042        346.963          41.500  
C 4  38671733.147    -6524879.1022        331.055          38.250  
G 2  21779508.844   -23059870.550        1022.168          47.250  
C 5  39349096.029    -7143121.2872        371.875          36.000  
C12  22039398.414   -25970051.0322       1804.170          47.000  
G19  21667835.652   -18438452.130       -2090.068          43.250  
G 6  21910404.987   -21303553.720        -588.174          46.250  
C22  22841475.432   -27322357.3122      -1536.162          50.250  
G12  22393261.904   -17253083.554        -496.143          43.250  
G 5  20681058.593   -28124361.194        1464.180          45.000  
> 2020  6 29  8 14 44.0000000  0 23                     
C21  21979031.022   -16407139.5552       1446.016          48.500  
C16  38731060.009   -16506617.9672       2028.525          37.750  
G17  22920209.493    -4612011.863       -2462.910          39.500  
G 9  23346538.376   -16874302.879       -1367.471          41.500  
C 6  38066270.424   -17466647.1682       1890.967          36.750  
C11  25914380.342    -6068780.9582       3110.234          38.500  
G25  23772154.173    -7717822.404         915.000          39.000  
C 8  37054116.142    -2437970.5672        493.379          44.500  
C 7  38949396.815     9302613.6942      -1253.643          33.750  
C10  37991649.332     2769677.0612      -1281.172          36.250  
C 3  36298719.708    -6919114.7502        341.143          42.500  
C13  37070864.987    -6759465.8772        455.840          45.250  
C 2  37293978.978    -7376446.6062        381.768          38.500  
C 1  37732869.618    -6519257.4502        346.797          41.500  
C 4  38671669.751    -6525209.9462        330.840          38.500  
G 2  21779314.397   -23060892.485        1021.934          47.250  
C 5  39349024.875    -7143493.0172        371.709          36.000  
C12  22039052.163   -25971854.8282       1803.740          47.000  
G19  21668233.548   -18436361.561       -2090.684          43.250  
G 6  21910516.886   -21302965.236        -588.486          46.250  
C22  22841770.481   -27320820.6812      -1536.729          50.250  
G12  22393356.528   -17252586.762        -496.973          43.500  
G 5  20680779.839   -28125824.776        1463.467          45.000  
> 2020  6 29  8 14 45.0000000  0 23                     
C21  21978753.293   -16408585.3542       1445.732          48.500  
C16  38730670.499   -16508646.5662       2028.662          37.500  
G17  22920678.084    -4609548.814       -2463.057          39.500  
G 9  23346798.920   -16872935.142       -1367.793          41.500  
C 6  38065907.228   -17468538.2012       1891.025          36.750  
C11  25913783.191    -6071891.3342       3110.449          38.500  
G25  23771980.155    -7718737.108         914.590          39.000  
C 8  37054021.317    -2438464.1372        493.682          44.500  
C 7  38949637.532     9303867.1482      -1253.447          33.750  
C10  37991895.493     2770958.3142      -1281.211          36.250  
C 3  36298654.265    -6919455.9862        341.289          42.500  
C13  37070777.596    -6759921.9032        456.152          45.250  
C 2  37293905.473    -7376828.5232        381.982          38.500  
C 1  37732803.015    -6519604.3162        346.963          41.250  
C 4  38671606.022    -6525540.9202        331.016          38.250  
G 2  21779119.696   -23061914.516        1022.090          47.250  
C 5  39348953.299    -7143864.8552        371.904          36.000  
C12  22038705.806   -25973658.5142       1803.672          47.000  
G19  21668631.234   -18434270.679       -2090.928          43.250  
G 6  21910629.061   -21302376.770        -588.467          46.250  
C22  22842065.834   -27319283.8252      -1536.875          50.250  
G12  22393451.174   -17252089.543        -497.344          43.250  
G 5  20680501.233   -28127288.022        1463.193          45.000  
> 2020  6 29  8 14 46.0000000  0 23                     
C21  21978475.830   -16410030.7602       1445.215          48.500  
C16  38730280.770   -16510675.1852       2028.643          37.500  
G17  22921146.836    -4607085.498       -2463.428          39.500  
G 9  23347059.147   -16871566.933       -1368.398          41.250  
C 6  38065544.277   -17470429.2972       1891.074          36.500  
C11  25913185.774    -6075001.8542       3110.537          38.500  
G25  23771806.237    -7719651.327         914.014          39.000  
C 8  37053926.589    -2438957.8872        493.770          44.500  
C 7  38949878.389     9305120.5602      -1253.428          33.750  
C10  37992141.485     2772239.5432      -1281.270          36.250  
C 3  36298588.783    -6919797.3012        341.279          42.500  
C13  37070690.027    -6760378.0862        456.162          45.250  
C 2  37293832.160    -7377210.5222        381.992          38.250  
C 1  37732736.189    -6519951.2732        346.943          41.250  
C 4  38671542.451    -6525871.9822        331.016          38.250  
G 2  21778925.217   -23062936.597        1022.031          47.250  
C 5  39348882.015    -7144236.7832        371.846          36.000  
C12  22038359.371   -25975462.0382       1803.428          47.000  
G19  21669029.291   -18432179.439       -2091.436          43.250  
G 6  21910740.969   -21301788.286        -588.584          46.250  
C22  22842360.830   -27317746.7042      -1537.266          50.250  
G12  22393545.845   -17251591.862        -497.930          43.250  
G 5  20680223.186   -28128750.866        1462.627          45.000  
> 2020  6 29  8 14 47.0000000  0 23                     
C21  21978198.332   -16411475.5652       1444.648          48.500  
C16  38729891.268   -16512703.6742       2028.496          37.500  
G17  22921615.932    -4604621.714       -2463.867          39.500  
G 9  23347319.325   -16870198.093       -1369.072          41.250  
C 6  38065181.155   -17472320.2092       1890.977          36.750  
C11  25912588.362    -6078112.3022       3110.420          38.500  
G25  23771632.429    -7720564.831         913.281          39.000  
C 8  37053831.873    -2439451.5952        493.711          44.500  
C 7  38950119.084     9306374.0922      -1253.496          33.750  
C10  37992387.568     2773520.8972      -1281.387          36.250  
C 3  36298523.188    -6920138.4932        341.162          42.500  
C13  37070602.523    -6760834.2472        456.172          45.250  
C 2  37293758.878    -7377592.3962        381.895          38.250  
C 1  37732669.573    -6520298.1142        346.855          41.500  
C 4  38671478.810    -6526202.9252        330.918          38.250  
G 2  21778730.669   -23063958.523        1021.904          47.250  
C 5  39348810.709    -7144608.5952        371.777          36.000  
C12  22038013.129   -25977265.1892       1803.096          47.000  
G19  21669427.348   -18430087.650       -2091.934          43.250  
G 6  21910853.082   -21301199.584        -588.740          46.250  
C22  22842656.066   -27316209.1092      -1537.676          50.250  
G12  22393640.687   -17251093.479        -498.555          43.250  
G 5  20679944.955   -28130213.116        1462.119          45.000  
> 2020  6 29  8 14 48.0000000  0 23                     
C21  21977921.088   -16412919.9632       1444.219          48.500  
C16  38729501.692   -16514732.1922       2028.516          37.750  
G17  22922084.715    -4602157.664       -2464.189          39.500  
G 9  23347579.744   -16868828.764       -1369.521          41.250  
C 6  38064817.990   -17474211.1522       1890.879          36.750  
C11  25911990.953    -6081222.9172       3110.557          38.500  
G25  23771458.742    -7721477.843         912.822          39.000  
C 8  37053736.896    -2439945.4552        493.877          44.500  
C 7  38950359.810     9307627.4802      -1253.574          33.750  
C10  37992633.686     2774802.2802      -1281.465          36.250  
C 3  36298457.484    -6920479.7672        341.240          42.500  
C13  37070514.818    -6761290.5432        456.279          45.250  
C 2  37293685.452    -7377974.3342        381.816          38.250  
C 1  37732602.664    -6520645.0182        346.855          41.500  
C 4  38671415.226    -6526533.9192        330.928          38.250  
G 2  21778536.222   -23064980.475        1021.904          47.250  
C 5  39348739.215    -7144980.4462        371.719          36.000  
C12  22037666.964   -25979068.1692       1802.861          47.000  
G19  21669825.444   -18427995.505       -2092.324          43.250  
G 6  21910965.086   -21300610.823        -588.848          46.000  
C22  22842951.472   -27314671.2172      -1538.037          50.250  
G12  22393735.503   -17250594.589        -499.072          43.500  
G 5  20679666.685   -28131674.954        1461.641          45.000  
> 2020  6 29  8 14 49.0000000  0 23                     
C21  21977643.808   -16414363.7392       1443.564          48.500  
C16  38729112.072   -16516760.5282       2028.242          37.750  
G17  22922553.742    -4599693.109       -2464.766          39.500  
G 9  23347840.166   -16867458.751       -1370.254          41.250  
C 6  38064454.882   -17476101.9032       1890.645          36.500  
C11  25911393.628    -6084333.4362       3110.469          38.500  
G25  23771285.243    -7722390.100         912.051          39.250  
C 8  37053642.037    -2440439.2812        493.789          44.500  
C 7  38950600.614     9308881.0132      -1253.613          33.750  
C10  37992879.707     2776083.8442      -1281.660          36.250  
C 3  36298392.115    -6920820.8922        341.094          42.500  
C13  37070427.170    -6761746.7992        456.162          45.250  
C 2  37293612.061    -7378356.1222        381.689          38.500  
C 1  37732536.157    -6520991.7822        346.689          41.250  
C 4  38671351.677    -6526864.7872        330.742          38.250  
G 2  21778341.687   -23066002.241        1021.680          47.250  
C 5  39348667.744    -7145352.1822        371.641          36.000  
C12  22037320.905   -25980870.7542       1802.412          47.000  
G19  21670223.623   -18425902.777       -2092.900          43.000  
G 6  21911077.143   -21300021.796        -589.131          46.000  
C22  22843246.839   -27313132.8262      -1538.594          50.250  
G12  22393830.655   -17250094.979        -499.883          43.500  
G 5  20679388.594   -28133136.165        1460.977          45.000  
> 2020  6 29  8 14 50.0000000  0 23                     
C21  21977366.598   -16415807.0192       1443.174          48.500  
C16  38728722.544   -16518788.8472       2028.281          37.750  
G17  22923022.799    -4597228.217       -2464.951          39.250  
G 9  23348101.021   -16866088.185       -1370.684          41.250  
C 6  38064091.834   -17477992.6192       1890.762          36.750  
C11  25910796.320    -6087444.0122       3110.645          38.250  
G25  23771111.679    -7723301.774         911.543          39.250  
C 8  37053547.203    -2440933.1902        493.984          44.500  
C 7  38950841.414     9310134.5312      -1253.369          33.750  
C10  37993125.577     2777365.4362      -1281.533          36.000  
C 3  36298326.685    -6921162.0042        341.143          42.500  
C13  37070339.548    -6762203.1542        456.387          45.250  
C 2  37293538.665    -7378737.9102        381.758          38.500  
C 1  37732469.532    -6521338.5432        346.846          41.250  
C 4  38671288.005    -6527195.6332        330.889          38.250  
G 2  21778147.330   -23067023.961        1021.738          47.250  
C 5  39348596.420    -7145723.9302        371.738          35.750  
C12  22036974.623   -25982673.1042       1802.295          47.000  
G19  21670622.007   -18423809.582       -2093.301          43.250  
G 6  21911189.073   -21299432.675        -589.102          46.000  
C22  22843542.459   -27311594.0742      -1538.818          50.250  
G12  22393925.985   -17249594.808        -500.322          43.500  
G 5  20679110.761   -28134596.903        1460.635          45.000  
> 2020  6 29  8 14 51.0000000  0 23                     
C21  21977089.554   -16417249.8412       1442.773          48.500  
C16  38728332.959   -16520817.1372       2028.408          37.750  
G17  22923491.892    -4594762.994       -2465.186          39.500  
G 9  23348362.006   -16864717.104       -1371.191          41.000  
C 6  38063728.774   -17479883.2762       1890.752          36.750  
C11  25910198.877    -6090554.6722       3110.869          38.500  
G25  23770938.543    -7724212.896         911.084          39.250  
C 8  37053452.558    -2441427.2202        494.160          44.500  
C 7  38951082.035     9311387.9862      -1253.359          33.750  
C10  37993371.428     2778647.1002      -1281.553          36.000  
C 3  36298261.033    -6921503.1212        341.201          42.500  
C13  37070251.961    -6762659.5782        456.572          45.250  
C 2  37293465.418    -7379119.7142        381.943          38.500  
C 1  37732402.973    -6521685.3172        346.914          41.250  
C 4  38671224.513    -6527526.4952        330.957          38.250  
G 2  21777953.000   -23068045.666        1021.816          47.250  
C 5  39348524.905    -7146095.6692        371.807          35.750  
C12  22036628.415   -25984475.2212       1802.158          47.000  
G19  21671020.470   -18421715.970       -2093.633          43.000  
G 6  21911300.711   -21298843.443        -589.150          46.000  
C22  22843837.969   -27310054.9802      -1539.082          50.250  
G12  22394021.229   -17249094.067        -500.801          43.500  
G 5  20678832.582   -28136057.167        1460.273          45.000  
> 2020  6 29  8 14 52.0000000  0 23                     
C21  21976812.667   -16418692.2732       1442.334          48.500  
C16  38727943.505   -16522845.4632       2028.350          37.750  
G17  22923961.080    -4592297.522       -2465.527          39.500  
G 9  23348622.848   -16863345.573       -1371.592          41.000  
C 6  38063365.670   -17481773.9822       1890.791          36.750  
C11  25909601.473    -6093665.4762       3110.850          38.500  
G25  23770765.096    -7725123.513         910.459          39.250  
C 8  37053357.598    -2441921.4302        494.268          44.500  
C 7  38951322.783     9312641.3832      -1253.457          33.750  
C10  37993617.703     2779928.6902      -1281.641          36.000  
C 3  36298195.482    -6921844.3392        341.260          42.500  
C13  37070164.348    -6763116.2022        456.709          45.250  
C 2  37293392.149    -7379501.5932        381.895          38.500  
C 1  37732336.566    -6522032.1792        346.855          41.500  
C 4  38671160.811    -6527857.4732        330.996          38.250  
G 2  21777758.487   -23069067.429        1021.777          47.250  
C 5  39348453.259    -7146467.4872        371.865          35.750  
C12  22036282.547   -25986277.1872       1801.914          47.000  
G19  21671418.902   -18419622.028       -2094.043          43.250  
G 6  21911413.422   -21298254.196        -589.219          46.250  
C22  22844133.593   -27308515.6222      -1539.424          50.250  
G12  22394116.577   -17248592.871        -501.328          43.500  
G 5  20678554.845   -28137517.048        1459.775          45.000  
> 2020  6 29  8 14 53.0000000  0 23                     
C21  21976535.815   -16420134.2472       1441.787          48.500  
C16  38727553.885   -16524873.7992       2028.389          37.750  
G17  22924430.033    -4589831.715       -2465.947          39.250  
G 9  23348883.951   -16861973.514       -1372.285          41.000  
C 6  38063002.448   -17483664.6762       1890.596          37.000  
C11  25909004.056    -6096776.3702       3110.830          38.250  
G25  23770592.077    -7726033.576         909.854          39.250  
C 8  37053262.656    -2442415.7472        494.307          44.500  
C 7  38951563.600     9313894.7062      -1253.486          33.750  
C10  37993864.022     2781210.3242      -1281.719          36.000  
C 3  36298130.179    -6922185.5582        341.191          42.500  
C13  37070076.748    -6763572.8972        456.670          45.250  
C 2  37293318.775    -7379883.4772        381.885          38.250  
C 1  37732269.976    -6522379.0772        346.855          41.250  
C 4  38671097.362    -6528188.4512        330.918          38.250  
G 2  21777563.974   -23070089.160        1021.670          47.250  
C 5  39348381.813    -7146839.3222        371.719          35.750  
C12  22035936.535   -25988078.9202       1801.650          47.000  
G19  21671817.674   -18417527.652       -2094.561          43.250  
G 6  21911525.548   -21297664.846        -589.424          46.250  
C22  22844429.218   -27306975.9282      -1539.863          50.250  
G12  22394211.999   -17248091.113        -501.963          43.500  
G 5  20678277.050   -28138976.454        1459.189          45.000  
> 2020  6 29  8 14 54.0000000  0 23                     
C21  21976259.111   -16421575.6112       1441.230          48.500  
C16  38727164.540   -16526901.9482       2028.145          37.750  
G17  22924899.322    -4587365.455       -2466.377          39.500  
G 9  23349144.989   -16860600.801       -1372.822          41.000  
C 6  38062639.095   -17485555.1902       1890.498          36.750  
C11  25908406.434    -6099887.2022       3110.850          38.250  
G25  23770418.971    -7726942.928         909.141          39.250  
C 8  37053167.552    -2442910.0312        494.326          44.500  
C 7  38951804.369     9315148.1382      -1253.301          34.000  
C10  37994110.170     2782492.1932      -1281.826          36.000  
C 3  36298064.705    -6922526.6552        341.143          42.500  
C13  37069989.108    -6764029.5522        456.699          45.250  
C 2  37293245.344    -7380265.2682        381.836          38.250  
C 1  37732203.639    -6522725.8372        346.787          41.250  
C 4  38671033.673    -6528519.3102        330.908          38.250  
G 2  21777369.657   -23071110.737        1021.572          47.250  
C 5  39348310.695    -7147211.0392        371.641          35.750  
C12  22035590.545   -25989880.2802       1801.318          47.000  
G19  21672216.429   -18415432.714       -2095.029          43.250  
G 6  21911637.701   -21297075.259        -589.619          46.250  
C22  22844725.147   -27305435.7502      -1540.254          50.250  
G12  22394307.735   -17247588.665        -502.578          43.500  
G 5  20677999.513   -28140435.248        1458.652          45.000  
> 2020  6 29  8 14 55.0000000  0 23                     
C21  21975982.368   -16423016.4632       1440.664          48.500  
C16  38726775.060   -16528930.0772       2028.047          37.750  
G17  22925368.938    -4584898.793       -2466.807          39.500  
G 9  23349406.114   -16859227.495       -1373.516          40.750  
C 6  38062276.034   -17487445.6082       1890.312          37.000  
C11  25907808.795    -6102998.1022       3110.869          38.250  
G25  23770246.013    -7727851.660         908.486          39.250  
C 8  37053072.850    -2443404.3832        494.346          44.500  
C 7  38952045.178     9316401.5722      -1253.516          33.500  
C10  37994356.166     2783774.0582      -1281.885          35.750  
C 3  36297999.263    -6922867.7162        341.016          42.500  
C13  37069901.347    -6764486.3042        456.699          45.250  
C 2  37293172.189    -7380647.0032        381.719          38.250  
C 1  37732136.953    -6523072.5592        346.699          41.250  
C 4  38670970.023    -6528850.1352        330.820          38.250  
G 2  21777175.078   -23072132.241        1021.445          47.250  
C 5  39348239.241    -7147582.7232        371.631          35.750  
C12  22035244.508   -25991681.3722       1800.957          47.000  
G19  21672615.219   -18413337.305       -2095.576          43.250  
G 6  21911750.041   -21296485.537        -589.844          46.000  
C22  22845020.885   -27303895.1892      -1540.723          50.250  
G12  22394403.628   -17247085.620        -503.252          43.750  
G 5  20677722.051   -28141893.557        1458.115          45.000  
> 2020  6 29  8 14 56.0000000  0 23                     
C21  21975705.687   -16424456.8552       1440.264          48.500  
C16  38726385.624   -16530958.1732       2028.115          37.750  
G17  22925838.348    -4582431.824       -2467.139          39.250  
G 9  23349667.269   -16857853.681       -1373.955          40.750  
C 6  38061912.904   -17489336.0282       1890.391          37.000  
C11  25907211.291    -6106109.0602       3110.986          38.250  
G25  23770073.160    -7728759.828         907.998          39.250  
C 8  37052977.838    -2443898.8372        494.502          44.500  
C 7  38952286.170     9317654.9562      -1253.301          33.750  
C10  37994602.515     2785055.9982      -1281.895          36.000  
C 3  36297933.628    -6923208.8012        341.113          42.500  
C13  37069813.703    -6764943.1572        456.904          45.250  
C 2  37293099.016    -7381028.7812        381.748          38.250  
C 1  37732070.328    -6523419.3082        346.719          41.250  
C 4  38670906.439    -6529180.9642        330.898          38.250  
G 2  21776980.744   -23073153.726        1021.475          47.250  
C 5  39348167.935    -7147954.4162        371.660          35.750  
C12  22034898.806   -25993482.2352       1800.801          47.000  
G19  21673014.039   -18411241.463       -2095.977          43.250  
G 6  21911862.390   -21295895.704        -589.893          46.000  
C22  22845316.762   -27302354.2822      -1541.006          50.250  
G12  22394499.338   -17246582.003        -503.750          43.500  
G 5  20677444.867   -28143351.388        1457.695          45.000  
> 2020  6 29  8 14 57.0000000  0 23                     
C21  21975429.188   -16425896.6662       1439.580          48.500  
C16  38725996.087   -16532986.1222       2027.891          38.000  
G17  22926307.877    -4579964.407       -2467.549          39.500  
G 9  23349928.656   -16856479.231       -1374.678          40.750  
C 6  38061549.874   -17491226.2912       1890.225          36.750  
C11  25906613.808    -6109219.9912       3110.869          38.250  
G25  23769900.564    -7729667.327         907.217          39.250  
C 8  37052883.114    -2444393.2892        494.424          44.500  
C 7  38952526.865     9318908.4522      -1253.516          33.500  
C10  37994848.755     2786338.0642      -1282.158          36.000  
C 3  36297868.203    -6923549.7752        340.879          42.500  
C13  37069726.051    -6765399.9822        456.807          45.250  
C 2  37293025.803    -7381410.4292        381.553          38.250  
C 1  37732003.860    -6523765.9522        346.553          41.500  
C 4  38670843.025    -6529511.6742        330.635          38.250  
G 2  21776786.410   -23074175.073        1021.279          47.250  
C 5  39348096.533    -7148326.0042        371.426          35.750  
C12  22034553.073   -25995282.7552       1800.391          47.000  
G19  21673413.113   -18409145.100       -2096.553          43.500  
G 6  21911974.778   -21295305.678        -590.098          46.250  
C22  22845612.739   -27300812.9272      -1541.543          50.250  
G12  22394595.131   -17246077.718        -504.512          43.500  
G 5  20677167.662   -28144808.647        1457.070          45.000  
> 2020  6 29  8 14 58.0000000  0 23                     
C21  21975152.811   -16427336.0292       1439.209          48.500  
C16  38725606.703   -16535014.0742       2027.988          37.750  
G17  22926777.432    -4577496.686       -2467.773          39.250  
G 9  23350190.239   -16855104.257       -1375.137          40.750  
C 6  38061187.075   -17493116.5432       1890.195          36.750  
C11  25906016.383    -6112331.0072       3111.055          38.250  
G25  23769728.073    -7730574.265         906.787          39.000  
C 8  37052787.997    -2444887.8622        494.609          44.500  
C 7  38952767.543     9320161.8962      -1253.555          33.750  
C10  37995094.864     2787620.1532      -1282.090          36.000  
C 3  36297802.625    -6923890.7932        341.035          42.500  
C13  37069638.250    -6765856.9272        456.943          45.250  
C 2  37292952.490    -7381792.1352        381.709          38.500  
C 1  37731937.078    -6524112.6662        346.758          41.250  
C 4  38670779.410    -6529842.4692        330.791          38.250  
G 2  21776592.198   -23075196.410        1021.328          47.250  
C 5  39348025.048    -7148697.6372        371.641          35.500  
C12  22034207.053   -25997083.0622       1800.205          47.000  
G19  21673812.234   -18407048.329       -2096.885          43.500  
G 6  21912086.996   -21294715.554        -590.156          46.250  
C22  22845908.691   -27299271.2452      -1541.797          50.250  
G12  22394691.269   -17245572.905        -504.990          43.500  
G 5  20676890.365   -28146265.458        1456.680          45.000  
> 2020  6 29  8 14 59.0000000  0 23                     
C21  21974876.561   -16428774.8322       1438.613          48.500  
C16  38725217.432   -16537041.9202       2027.783          37.750  
G17  22927247.052    -4575028.539       -2468.291          39.250  
G 9  23350452.115   -16853728.673       -1375.820          41.000  
C 6  38060824.220   -17495006.6772       1890.039          36.750  
C11  25905418.948    -6115442.0072       3110.986          38.250  
G25  23769555.373    -7731480.551         906.113          39.000  
C 8  37052692.911    -2445382.4622        494.600          44.500  
C 7  38953008.229     9321415.3482      -1253.330          33.500  
C10  37995341.078     2788902.3762      -1282.305          36.000  
C 3  36297737.147    -6924231.7112        340.879          42.500  
C13  37069550.501    -6766313.8862        456.953          45.250  
C 2  37292879.269    -7382173.7302        381.553          38.500  
C 1  37731870.453    -6524459.2542        346.611          41.500  
C 4  38670715.821    -6530173.1632        330.605          38.250  
G 2  21776398.055   -23076217.634        1021.162          47.250  
C 5  39347953.851    -7149069.2082        371.562          35.750  
C12  22033861.525   -25998883.0512       1799.883          47.000  
G19  21674211.325   -18404951.043       -2097.471          43.500  
G 6  21912198.904   -21294125.267        -590.361          46.000  
C22  22846204.908   -27297729.1302      -1542.266          50.250  
G12  22394787.516   -17245067.445        -505.684          43.500  
G 5  20676613.246   -28147721.707        1456.055          45.000  
> 2020  6 29  8 15  0.0000000  0 23                     
C21  21974600.451   -16430213.0592       1437.930          48.500  
C16  38724828.057   -16539069.6252       2027.490          38.000  
G17  22927716.921    -4572559.926       -2468.857          39.500  
G 9  23350714.021   -16852352.452       -1376.523          40.750  
C 6  38060461.312   -17496896.6482       1889.805          36.750  
C11  25904821.645    -6118552.9542       3110.840          38.250  
G25  23769382.921    -7732386.144         905.312          39.000  
C 8  37052598.147    -2445877.0452        494.473          44.500  
C 7  38953249.134     9322668.9532      -1253.721          33.750  
C10  37995587.349     2790184.7802      -1282.568          35.750  
C 3  36297671.644    -6924572.5272        340.654          42.500  
C13  37069462.557    -6766770.8382        456.826          45.250  
C 2  37292806.009    -7382555.2592        381.377          38.250  
C 1  37731803.850    -6524805.7472        346.357          41.500  
C 4  38670652.394    -6530503.7272        330.479          38.250  
G 2  21776203.673   -23077238.719        1020.928          47.250  
C 5  39347882.292    -7149440.6362        371.201          35.500  
C12  22033515.937   -26000682.6992       1799.434          47.000  
G19  21674610.699   -18402853.203       -2098.135          43.500  
G 6  21912311.449   -21293534.742        -590.684          46.250  
C22  22846501.261   -27296186.5572      -1542.832          50.000  
G12  22394883.802   -17244561.308        -506.445          43.500  
G 5  20676336.246   -28149177.382        1455.361          45.000  
> 2020  6 29  8 15  1.0000000  0 23                     
C21  21974324.227   -16431650.9072       1437.666          48.500  
C16  38724438.742   -16541097.4042       2027.764          38.000  
G17  22928186.912    -4570091.103       -2468.955          39.250  
G 9  23350976.158   -16850975.798       -1376.826          40.750  
C 6  38060098.478   -17498786.6982       1890.039          36.750  
C11  25904224.385    -6121664.0922       3111.035          38.250  
G25  23769210.770    -7733291.251         904.873          39.000  
C 8  37052503.126    -2446371.8162        494.756          44.500  
C 7  38953489.742     9323922.3842      -1253.447          33.750  
C10  37995833.371     2791467.0872      -1282.305          35.750  
C 3  36297606.218    -6924913.4512        340.898          42.500  
C13  37069374.747    -6767227.9562        457.109          45.500  
C 2  37292732.810    -7382936.8632        381.631          38.500  
C 1  37731737.395    -6525152.3382        346.514          41.250  
C 4  38670588.906    -6530834.4112        330.605          38.250  
G 2  21776009.343   -23078259.864        1021.113          47.250  
C 5  39347811.174    -7149812.1812        371.455          35.750  
C12  22033170.344   -26002482.1782       1799.355          47.000  
G19  21675009.969   -18400755.050       -2098.281          43.500  
G 6  21912424.008   -21292944.200        -590.615          46.250  
C22  22846797.605   -27294643.7332      -1542.949          50.000  
G12  22394980.201   -17244054.714        -506.777          43.500  
G 5  20676059.241   -28150632.662        1455.107          45.000  
> 2020  6 29  8 15  2.0000000  0 23                     
C21  21974048.173   -16433088.2572       1437.236          48.500  
C16  38724049.328   -16543125.1142       2027.744          38.000  
G17  22928656.585    -4567621.900       -2469.248          39.250  
G 9  23351238.260   -16849598.565       -1377.383          40.750  
C 6  38059735.619   -17500676.6652       1889.980          37.000  
C11  25903626.820    -6124775.2812       3111.191          38.000  
G25  23769038.689    -7734195.767         904.336          39.250  
C 8  37052407.975    -2446866.6762        494.883          44.500  
C 7  38953730.311     9325175.8392      -1253.535          33.500  
C10  37996079.440     2792749.4772      -1282.451          35.750  
C 3  36297540.797    -6925254.3642        340.928          42.500  
C13  37069287.047    -6767685.1382        457.256          45.500  
C 2  37292659.506    -7383318.4422        381.533          38.500  
C 1  37731670.888    -6525498.9332        346.592          41.250  
C 4  38670525.361    -6531165.0802        330.674          38.250  
G 2  21775814.904   -23079280.957        1021.094          47.250  
C 5  39347739.964    -7150183.7132        371.514          35.750  
C12  22032824.764   -26004281.3992       1799.141          47.000  
G19  21675409.261   -18398656.418       -2098.779          43.500  
G 6  21912536.308   -21292353.542        -590.684          46.250  
C22  22847093.883   -27293100.5362      -1543.291          50.000  
G12  22395076.744   -17243547.536        -507.354          43.500  
G 5  20675782.284   -28152087.449        1454.639          45.000  
> 2020  6 29  8 15  3.0000000  0 23                     
C21  21973772.115   -16434525.1052       1436.641          48.500  
C16  38723660.053   -16545152.8022       2027.627          38.000  
G17  22929126.458    -4565152.347       -2469.697          39.250  
G 9  23351500.485   -16848220.789       -1377.979          40.750  
C 6  38059372.628   -17502566.5692       1889.873          37.000  
C11  25903029.494    -6127886.5112       3111.211          38.250  
G25  23768866.447    -7735099.675         903.662          39.250  
C 8  37052312.858    -2447361.6152        494.941          44.500  
C 7  38953970.810     9326429.2252      -1253.398          33.500  
C10  37996325.510     2794031.9532      -1282.588          35.750  
C 3  36297475.137    -6925595.2302        340.830          42.500  
C13  37069199.346    -6768142.3952        457.188          45.500  
C 2  37292586.005    -7383700.0462        381.523          38.500  
C 1  37731604.407    -6525845.5102        346.543          41.250  
C 4  38670461.903    -6531495.7382        330.615          38.250  
G 2  21775620.622   -23080301.994        1020.986          47.500  
C 5  39347668.531    -7150555.2272        371.426          35.750  
C12  22032479.425   -26006080.3762       1798.867          47.000  
G19  21675808.609   -18396557.341       -2099.258          43.500  
G 6  21912648.858   -21291762.750        -590.840          46.250  
C22  22847390.245   -27291556.9592      -1543.740          50.000  
G12  22395173.488   -17243039.766        -507.988          43.500  
G 5  20675505.454   -28153541.736        1454.092          45.000  
> 2020  6 29  8 15  4.0000000  0 23                     
C21  21973496.524   -16435961.4452       1436.064          48.500  
C16  38723270.590   -16547180.4162       2027.480          37.750  
G17  22929596.288    -4562682.413       -2470.156          39.250  
G 9  23351762.888   -16846842.445       -1378.604          41.000  
C 6  38059009.925   -17504456.3752       1889.658          37.000  
C11  25902431.990    -6130997.7842       3111.172          38.250  
G25  23768694.828    -7736002.987         902.988          39.500  
C 8  37052217.850    -2447856.6072        494.863          44.500  
C 7  38954211.326     9327682.6552      -1253.574          33.500  
C10  37996572.043     2795314.4922      -1282.607          35.750  
C 3  36297409.759    -6925936.0982        340.732          42.500  
C13  37069111.467    -6768599.7282        457.227          45.250  
C 2  37292512.775    -7384081.5952        381.455          38.500  
C 1  37731537.891    -6526192.0562        346.426          41.500  
C 4  38670398.367    -6531826.3482        330.518          38.250  
G 2  21775426.449   -23081322.965        1020.850          47.500  
C 5  39347597.064    -7150926.7102        371.377          35.750  
C12  22032134.115   -26007879.0672       1798.486          47.000  
G19  21676208.127   -18394457.807       -2099.785          43.250  
G 6  21912761.486   -21291171.823        -591.074          46.250  
C22  22847686.711   -27290013.0022      -1544.189          50.000  
G12  22395270.494   -17242531.407        -508.701          43.500  
G 5  20675228.781   -28154995.532        1453.535          45.000  
> 2020  6 29  8 15  5.0000000  0 23                     
C21  21973220.714   -16437397.2692       1435.771          48.500  
C16  38722881.145   -16549207.9592       2027.578          37.750  
G17  22930066.488    -4560212.102       -2470.322          39.250  
G 9  23352025.287   -16845463.508       -1378.965          41.000  
C 6  38058647.087   -17506346.1262       1889.844          37.000  
C11  25901834.325    -6134109.0752       3111.416          38.250  
G25  23768523.131    -7736905.680         902.666          39.500  
C 8  37052122.707    -2448351.6602        495.166          44.500  
C 7  38954452.091     9328936.1492      -1253.496          33.250  
C10  37996818.182     2796597.1162      -1282.627          35.750  
C 3  36297344.609    -6926276.9032        340.879          42.500  
C13  37069023.431    -6769057.0872        457.441          45.250  
C 2  37292439.537    -7384463.0832        381.553          38.500  
C 1  37731471.358    -6526538.5552        346.582          41.250  
C 4  38670334.997    -6532156.9302        330.615          38.250  
G 2  21775232.398   -23082343.847        1020.928          47.500  
C 5  39347525.644    -7151298.1642        371.631          35.750  
C12  22031788.675   -26009677.4782       1798.418          47.000  
G19  21676607.737   -18392357.767       -2100.117          43.250  
G 6  21912874.057   -21290580.726        -591.045          46.250  
C22  22847983.351   -27288468.6522      -1544.385          50.000  
G12  22395367.456   -17242022.434        -509.053          43.750  
G 5  20674952.383   -28156448.801        1453.184          45.000  
> 2020  6 29  8 15  6.0000000  0 23                     
C21  21972945.084   -16438832.5562       1435.186          48.250  
C16  38722491.992   -16551235.4052       2027.451          37.750  
G17  22930536.711    -4557741.395       -2470.781          39.250  
G 9  23352287.468   -16844084.005       -1379.609          41.000  
C 6  38058284.070   -17508235.7552       1889.668          36.750  
C11  25901236.890    -6137220.4032       3111.309          38.000  
G25  23768351.430    -7737807.717         901.982          39.500  
C 8  37052027.713    -2448846.7542        495.166          44.500  
C 7  38954692.917     9330189.6092      -1253.408          33.500  
C10  37997064.540     2797879.8802      -1282.764          35.750  
C 3  36297279.315    -6926617.6702        340.869          42.500  
C13  37068935.669    -6769514.5022        457.529          45.250  
C 2  37292366.202    -7384844.5312        381.523          38.500  
C 1  37731405.052    -6526885.0042        346.514          41.500  
C 4  38670271.386    -6532487.4582        330.576          38.250  
G 2  21775038.068   -23083364.646        1020.850          47.500  
C 5  39347454.456    -7151669.5442        371.475          35.750  
C12  22031443.462   -26011475.5972       1798.115          47.000  
G19  21677007.243   -18390257.266       -2100.566          43.250  
G 6  21912986.349   -21289989.467        -591.240          46.250  
C22  22848279.887   -27286923.8952      -1544.795          50.000  
G12  22395464.383   -17241512.854        -509.648          43.750  
G 5  20674675.914   -28157901.536        1452.656          45.000  
> 2020  6 29  8 15  7.0000000  0 23                     
C21  21972669.541   -16440267.4392       1434.717          48.500  
C16  38722102.634   -16553262.9122       2027.422          37.750  
G17  22931006.806    -4555270.410       -2471.094          39.250  
G 9  23352550.220   -16842704.000       -1380.264          41.000  
C 6  38057921.289   -17510125.4582       1889.619          36.750  
C11  25900639.259    -6140331.8502       3111.445          38.000  
G25  23768179.947    -7738709.260         901.387          39.500  
C 8  37051932.653    -2449342.0032        495.254          44.750  
C 7  38954933.577     9331443.0072      -1253.359          33.250  
C10  37997310.789     2799162.5452      -1282.627          35.750  
C 3  36297213.959    -6926958.4762        340.801          42.500  
C13  37068847.799    -6769972.0522        457.549          45.250  
C 2  37292293.029    -7385226.0462        381.484          38.250  
C 1  37731338.304    -6527231.5312        346.504          41.500  
C 4  38670208.077    -6532818.0612        330.576          38.250  
G 2  21774843.882   -23084385.477        1020.781          47.500  
C 5  39347382.971    -7152040.9962        371.318          35.750  
C12  22031098.209   -26013273.5282       1797.822          47.000  
G19  21677407.071   -18388156.384       -2101.006          43.250  
G 6  21913099.060   -21289398.177        -591.367          46.250  
C22  22848576.471   -27285378.8522      -1545.156          50.000  
G12  22395561.298   -17241002.748        -510.283          43.500  
G 5  20674399.577   -28159353.871        1452.178          45.250  
> 2020  6 29  8 15  8.0000000  0 23                     
C21  21972393.797   -16441701.8802       1434.248          48.250  
C16  38721713.372   -16555290.4102       2027.490          38.000  
G17  22931477.295    -4552799.125       -2471.396          39.250  
G 9  23352812.955   -16841323.505       -1380.703          40.750  
C 6  38057558.521   -17512015.1342       1889.688          36.750  
C11  25900041.616    -6143443.4032       3111.553          38.000  
G25  23768008.442    -7739610.252         900.830          39.500  
C 8  37051837.588    -2449837.3792        495.391          44.750  
C 7  38955174.107     9332696.3132      -1253.291          33.500  
C10  37997557.116     2800445.2962      -1282.822          35.750  
C 3  36297148.377    -6927299.3482        340.889          42.500  
C13  37068759.950    -6770429.7432        457.705          45.250  
C 2  37292219.826    -7385607.5952        381.582          38.500  
C 1  37731271.701    -6527578.1082        346.572          41.250  
C 4  38670144.689    -6533148.6862        330.605          38.250  
G 2  21774649.565   -23085406.308        1020.791          47.500  
C 5  39347311.526    -7152412.4662        371.387          35.750  
C12  22030752.939   -26015071.2652       1797.646          47.000  
G19  21677807.161   -18386055.106       -2101.426          43.250  
G 6  21913211.732   -21288806.816        -591.426          46.500  
C22  22848873.304   -27283833.4982      -1545.479          50.000  
G12  22395658.356   -17240492.132        -510.811          43.500  
G 5  20674123.292   -28160805.745        1451.699          45.250  
> 2020  6 29  8 15  9.0000000  0 23                     
C21  21972118.389   -16443135.9072       1433.955          48.250  
C16  38721323.892   -16557317.9222       2027.539          38.000  
G17  22931947.652    -4550327.566       -2471.621          39.250  
G 9  23353075.716   -16839942.553       -1381.094          40.750  
C 6  38057195.726   -17513904.8032       1889.697          37.000  
C11  25899444.020    -6146555.0852       3111.777          38.000  
G25  23767836.923    -7740510.737         900.322          39.500  
C 8  37051742.375    -2450332.9312        495.635          44.750  
C 7  38955414.750     9333949.5762      -1253.262          33.500  
C10  37997803.505     2801728.0142      -1282.686          35.750  
C 3  36297082.808    -6927640.2622        340.977          42.500  
C13  37068671.966    -6770887.5942        457.969          45.250  
C 2  37292146.386    -7385989.2152        381.670          38.500  
C 1  37731205.151    -6527924.7292        346.719          41.250  
C 4  38670081.292    -6533479.3912        330.791          38.250  
G 2  21774455.196   -23086427.169        1020.898          47.500  
C 5  39347240.360    -7152784.0372        371.621          35.750  
C12  22030407.787   -26016868.8232       1797.559          47.000  
G19  21678206.915   -18383953.464       -2101.699          43.250  
G 6  21913323.989   -21288215.406        -591.377          46.250  
C22  22849170.141   -27282287.8562      -1545.674          50.000  
G12  22395755.353   -17239981.003        -511.230          43.500  
G 5  20673847.374   -28162257.223        1451.387          45.000  
> 2020  6 29  8 15 10.0000000  0 23                     
C21  21971842.959   -16444569.4742       1433.271          48.250  
C16  38720934.520   -16559345.4542       2027.383          38.250  
G17  22932418.058    -4547855.689       -2472.119          39.500  
G 9  23353338.704   -16838561.086       -1381.738          40.750  
C 6  38056832.810   -17515794.4782       1889.561          37.000  
C11  25898846.154    -6149666.8522       3111.680          38.000  
G25  23767665.785    -7741410.636         899.570          39.500  
C 8  37051647.119    -2450828.5862        495.508          44.750  
C 7  38955655.458     9335202.7812      -1253.301          33.500  
C10  37998049.950     2803010.7692      -1282.969          35.500  
C 3  36297017.343    -6927981.2012        340.811          42.500  
C13  37068583.921    -6771345.5482        457.812          45.250  
C 2  37292073.213    -7386370.8622        381.436          38.250  
C 1  37731138.639    -6528271.3842        346.514          41.500  
C 4  38670017.752    -6533810.1272        330.586          38.250  
G 2  21774260.848   -23087448.013        1020.674          47.500  
C 5  39347168.944    -7153155.6172        371.445          35.750  
C12  22030062.788   -26018666.1422       1797.070          47.000  
G19  21678606.725   -18381851.389       -2102.354          43.250  
G 6  21913436.513   -21287623.900        -591.709          46.250  
C22  22849467.143   -27280741.8742      -1546.221          50.000  
G12  22395852.851   -17239469.325        -512.002          43.500  
G 5  20673571.141   -28163708.242        1450.742          45.000  
> 2020  6 29  8 15 11.0000000  0 23                     
C21  21971567.804   -16446002.4852       1432.930          48.250  
C16  38720545.289   -16561372.8662       2027.480          38.250  
G17  22932888.476    -4545383.368       -2472.363          39.500  
G 9  23353601.840   -16837178.991       -1382.207          40.750  
C 6  38056470.055   -17517683.9942       1889.531          37.000  
C11  25898248.475    -6152778.5942       3111.904          38.000  
G25  23767494.541    -7742309.896         899.111          39.500  
C 8  37051552.033    -2451324.2572        495.723          44.500  
C 7  38955896.009     9336456.0282      -1253.213          33.500  
C10  37998296.155     2804293.6302      -1282.959          35.750  
C 3  36296951.643    -6928322.0662        340.938          42.500  
C13  37068495.976    -6771803.5032        458.057          45.250  
C 2  37292000.180    -7386752.4172        381.592          38.250  
C 1  37731072.036    -6528617.9542        346.650          41.250  
C 4  38669954.076    -6534140.7592        330.645          38.250  
G 2  21774066.763   -23088468.735        1020.771          47.500  
C 5  39347097.608    -7153527.0842        371.553          35.500  
C12  22029717.705   -26020463.1312       1796.982          47.000  
G19  21679006.915   -18379748.800       -2102.646          43.000  
G 6  21913549.368   -21287032.201        -591.660          46.250  
C22  22849763.910   -27279195.4542      -1546.494          50.000  
G12  22395950.433   -17238957.012        -512.412          43.500  
G 5  20673295.301   -28165158.690        1450.342          45.000  
> 2020  6 29  8 15 12.0000000  0 23                     
C21  21971292.688   -16447434.9262       1432.334          48.250  
C16  38720156.040   -16563400.1572       2027.334          38.000  
G17  22933359.052    -4542910.639       -2472.793          39.250  
G 9  23353865.124   -16835796.281       -1382.881          40.750  
C 6  38056107.169   -17519573.4162       1889.473          37.000  
C11  25897651.054    -6155890.3452       3111.797          38.250  
G25  23767323.560    -7743208.489         898.428          39.500  
C 8  37051456.763    -2451819.9652        495.752          44.750  
C 7  38956136.669     9337709.3342      -1253.320          33.500  
C10  37998542.582     2805576.6182      -1283.057          35.750  
C 3  36296886.235    -6928662.8402        340.801          42.500  
C13  37068408.044    -6772261.4512        457.988          45.250  
C 2  37291926.980    -7387133.8812        381.475          38.250  
C 1  37731005.607    -6528964.4432        346.543          41.500  
C 4  38669890.631    -6534471.3182        330.527          38.250  
G 2  21773872.756   -23089489.334        1020.615          47.500  
C 5  39347026.206    -7153898.5372        371.455          35.500  
C12  22029372.370   -26022259.8162       1796.631          47.000  
G19  21679407.062   -18377645.715       -2103.203          43.000  
G 6  21913662.179   -21286440.320        -591.895          46.250  
C22  22850060.987   -27277648.6162      -1546.934          50.000  
G12  22396047.967   -17238444.023        -513.154          43.500  
G 5  20673019.531   -28166608.587        1449.775          45.000  
> 2020  6 29  8 15 13.0000000  0 23                     
C21  21971017.734   -16448867.0422       1431.982          48.250  
C16  38719766.700   -16565427.5572       2027.412          38.250  
G17  22933829.868    -4540437.713       -2473.076          39.250  
G 9  23354128.614   -16834413.168       -1383.311          40.750  
C 6  38055744.078   -17521462.9232       1889.492          37.000  
C11  25897053.397    -6159002.2762       3111.953          38.000  
G25  23767152.670    -7744106.664         898.027          39.250  
C 8  37051361.498    -2452315.8712        495.947          44.750  
C 7  38956377.343     9338962.4622      -1253.057          33.500  
C10  37998788.883     2806859.5392      -1282.988          35.750  
C 3  36296820.758    -6929003.7732        340.957          42.500  
C13  37068320.074    -6772719.6102        458.184          45.250  
C 2  37291853.463    -7387515.4982        381.582          38.250  
C 1  37730938.756    -6529311.0922        346.719          41.500  
C 4  38669826.920    -6534802.0122        330.684          38.250  
G 2  21773678.264   -23090510.055        1020.713          47.500  
C 5  39346954.695    -7154270.1032        371.582          35.500  
C12  22029027.414   -26024056.3922       1796.523          47.000  
G19  21679807.270   -18375542.323       -2103.486          43.000  
G 6  21913774.611   -21285848.458        -591.855          46.250  
C22  22850358.352   -27276101.5602      -1547.139          50.000  
G12  22396145.714   -17237930.633        -513.525          43.500  
G 5  20672743.456   -28168058.145        1449.434          45.000  
> 2020  6 29  8 15 14.0000000  0 23                     
C21  21970742.565   -16450298.4902       1431.230          48.250  
C16  38719377.189   -16567454.7552       2027.119          38.000  
G17  22934300.526    -4537964.252       -2473.633          39.250  
G 9  23354392.073   -16833029.341       -1384.033          41.000  
C 6  38055381.480   -17523352.2192       1889.248          37.000  
C11  25896455.967    -6162114.0962       3111.699          38.000  
G25  23766981.832    -7745004.048         897.148          39.500  
C 8  37051266.368    -2452811.7062        495.791          44.750  
C 7  38956618.104     9340215.7932      -1253.271          33.500  
C10  37999035.311     2808142.6432      -1283.174          35.500  
C 3  36296755.568    -6929344.5012        340.713          42.500  
C13  37068232.055    -6773177.7102        458.047          45.250  
C 2  37291780.272    -7387896.9452        381.396          38.250  
C 1  37730872.362    -6529657.5512        346.406          41.500  
C 4  38669763.528    -6535132.5502        330.479          38.250  
G 2  21773484.087   -23091530.549        1020.430          47.500  
C 5  39346883.559    -7154641.4692        371.367          35.750  
C12  22028682.406   -26025852.5602       1796.084          47.000  
G19  21680207.521   -18373438.323       -2104.209          43.000  
G 6  21913887.435   -21285256.312        -592.256          46.500  
C22  22850655.468   -27274553.9712      -1547.764          50.250  
G12  22396243.488   -17237416.486        -514.404          43.500  
G 5  20672467.746   -28169507.056        1448.730          45.000  
> 2020  6 29  8 15 15.0000000  0 23                     
C21  21970467.860   -16451729.2672       1430.625          48.250  
C16  38718987.765   -16569481.6972       2026.865          38.000  
G17  22934771.241    -4535490.270       -2474.092          39.500  
G 9  23354655.584   -16831644.778       -1384.756          41.000  
C 6  38055018.607   -17525241.2652       1889.092          37.000  
C11  25895858.463    -6165225.8002       3111.650          38.250  
G25  23766811.117    -7745900.662         896.436          39.250  
C 8  37051171.095    -2453307.4422        495.723          44.750  
C 7  38956858.607     9341469.2652      -1253.535          33.250  
C10  37999281.808     2809426.0202      -1283.359          35.500  
C 3  36296690.003    -6929685.0432        340.537          42.500  
C13  37068144.136    -6773635.6912        457.998          45.250  
C 2  37291707.003    -7388278.1782        381.230          38.250  
C 1  37730805.798    -6530003.8232        346.299          41.500  
C 4  38669700.411    -6535462.8742        330.322          38.250  
G 2  21773290.145   -23092550.809        1020.225          47.500  
C 5  39346812.175    -7155012.6672        371.191          35.750  
C12  22028337.589   -26027648.2572       1795.605          47.000  
G19  21680607.846   -18371333.687       -2104.775          42.750  
G 6  21913999.828   -21284663.851        -592.520          46.500  
C22  22850952.942   -27273005.8322      -1548.252          50.250  
G12  22396341.728   -17236901.588        -515.107          43.500  
G 5  20672192.194   -28170955.264        1448.047          45.250  
> 2020  6 29  8 15 16.0000000  0 23                     
C21  21970193.106   -16453159.6012       1430.303          48.250  
C16  38718598.752   -16571508.6572       2027.070          38.000  
G17  22935241.970    -4533015.965       -2474.346          39.250  
G 9  23354919.218   -16830259.713       -1385.107          41.000  
C 6  38054655.782   -17527130.2592       1889.189          37.000  
C11  25895260.766    -6168337.6082       3111.973          38.250  
G25  23766640.510    -7746796.727         895.986          39.500  
C 8  37051075.725    -2453803.3012        495.977          44.750  
C 7  38957099.381     9342722.6742      -1253.291          33.250  
C10  37999528.323     2810709.4232      -1283.311          35.500  
C 3  36296624.604    -6930025.6132        340.723          42.500  
C13  37068056.283    -6774093.8052        458.252          45.250  
C 2  37291633.843    -7388659.4382        381.416          38.250  
C 1  37730739.505    -6530350.1172        346.377          41.500  
C 4  38669636.922    -6535793.2122        330.420          38.250  
G 2  21773096.243   -23093571.060        1020.352          47.750  
C 5  39346740.856    -7155383.8752        371.396          35.500  
C12  22027992.865   -26029443.7542       1795.547          47.000  
G19  21681008.277   -18369228.640       -2105.059          42.750  
G 6  21914112.770   -21284071.315        -592.432          46.500  
C22  22851250.233   -27271457.3652      -1548.477          50.000  
G12  22396439.964   -17236386.146        -515.488          43.500  
G 5  20671916.664   -28172403.038        1447.744          45.250  
> 2020  6 29  8 15 17.0000000  0 23                     
C21  21969918.278   -16454589.5202       1429.805          48.000  
C16  38718209.460   -16573535.6652       2026.953          38.000  
G17  22935712.860    -4530541.402       -2474.648          39.250  
G 9  23355182.895   -16828874.168       -1385.693          41.000  
C 6  38054293.009   -17529019.3202       1889.160          37.000  
C11  25894663.236    -6171449.5452       3111.963          38.250  
G25  23766469.969    -7747692.281         895.420          39.500  
C 8  37050980.547    -2454299.3362        496.074          44.750  
C 7  38957339.980     9343976.0182      -1253.252          33.500  
C10  37999774.712     2811992.8022      -1283.408          35.750  
C 3  36296559.192    -6930366.2492        340.664          42.500  
C13  37067968.277    -6774552.0652        458.311          45.250  
C 2  37291560.700    -7389040.7402        381.348          38.250  
C 1  37730673.155    -6530696.4962        346.396          41.500  
C 4  38669573.325    -6536123.6622        330.469          38.250  
G 2  21772901.926   -23094591.354        1020.303          47.750  
C 5  39346669.580    -7155755.1712        371.387          35.750  
C12  22027648.214   -26031239.0722       1795.283          47.000  
G19  21681408.685   -18367123.221       -2105.537          42.750  
G 6  21914225.629   -21283478.733        -592.588          46.500  
C22  22851547.637   -27269908.6202      -1548.848          50.250  
G12  22396538.056   -17235870.205        -516.104          43.500  
G 5  20671641.278   -28173850.402        1447.246          45.250  
> 2020  6 29  8 15 18.0000000  0 23                     
C21  21969643.882   -16456018.8672       1429.297          48.000  
C16  38717820.036   -16575562.5322       2026.934          38.250  
G17  22936183.819    -4528066.378       -2475.068          39.250  
G 9  23355446.624   -16827487.989       -1386.270          41.000  
C 6  38053930.302   -17530908.2342       1888.945          36.750  
C11  25894065.501    -6174561.4632       3112.061          38.250  
G25  23766299.533    -7748587.164         894.795          39.500  
C 8  37050885.317    -2454795.3722        496.152          44.750  
C 7  38957580.740     9345229.3852      -1253.223          33.750  
C10  38000021.196     2813276.3402      -1283.516          35.500  
C 3  36296493.619    -6930706.7912        340.635          42.500  
C13  37067880.167    -6775010.3382        458.340          45.250  
C 2  37291487.366    -7389421.9692        381.279          38.250  
C 1  37730606.525    -6531042.7782        346.357          41.250  
C 4  38669510.107    -6536454.0012        330.430          38.250  
G 2  21772707.801   -23095611.506        1020.215          47.750  
C 5  39346598.349    -7156126.3562        371.279          36.000  
C12  22027303.489   -26033034.0602       1795.000          47.000  
G19  21681809.255   -18365017.279       -2106.016          42.750  
G 6  21914338.323   -21282885.955        -592.715          46.500  
C22  22851844.989   -27268359.4372      -1549.199          50.250  
G12  22396636.340   -17235353.613        -516.689          43.500  
G 5  20671366.071   -28175297.195        1446.758          45.250  
> 2020  6 29  8 15 19.0000000  0 23                     
C21  21969369.421   -16457447.8102       1428.809          48.000  
C16  38717430.800   -16577589.4312       2026.895          38.000  
G17  22936654.992    -4525591.104       -2475.361          39.500  
G 9  23355710.450   -16826101.356       -1386.729          41.000  
C 6  38053567.595   -17532797.1592       1888.945          36.750  
C11  25893467.826    -6177673.4882       3111.992          38.250  
G25  23766129.328    -7749481.539         894.199          39.750  
C 8  37050790.082    -2455291.5742        496.240          44.750  
C 7  38957821.462     9346482.7302      -1253.311          33.750  
C10  38000267.933     2814559.8412      -1283.604          35.750  
C 3  36296428.054    -6931047.4052        340.654          42.500  
C13  37067792.152    -6775468.7362        458.418          45.250  
C 2  37291414.171    -7389803.2942        381.348          38.500  
C 1  37730539.953    -6531389.1382        346.445          41.500  
C 4  38669446.610    -6536784.4062        330.400          38.000  
G 2  21772513.484   -23096631.698        1020.195          47.750  
C 5  39346527.043    -7156497.6302        371.338          35.750  
C12  22026958.813   -26034828.8632       1794.736          47.000  
G19  21682210.082   -18362910.968       -2106.445          42.750  
G 6  21914451.164   -21282293.131        -592.861          46.500  
C22  22852142.694   -27266809.9572      -1549.570          50.250  
G12  22396734.528   -17234836.521        -517.256          43.500  
G 5  20671090.885   -28176743.564        1446.250          45.250  
> 2020  6 29  8 15 20.0000000  0 23                     
C21  21969095.064   -16458876.2742       1428.389          48.000  
C16  38717041.595   -16579616.3212       2026.934          38.000  
G17  22937126.100    -4523115.490       -2475.635          39.500  
G 9  23355974.664   -16824714.190       -1387.256          41.000  
C 6  38053204.770   -17534686.0482       1888.994          37.000  
C11  25892870.257    -6180785.6422       3112.275          38.250  
G25  23765959.214    -7750375.328         893.691          39.500  
C 8  37050694.843    -2455787.8662        496.396          44.750  
C 7  38958062.218     9347736.0232      -1253.340          33.750  
C10  38000514.527     2815843.3792      -1283.486          35.750  
C 3  36296362.890    -6931388.0162        340.703          42.500  
C13  37067703.967    -6775927.2342        458.594          45.500  
C 2  37291340.688    -7390184.5922        381.270          38.500  
C 1  37730473.520    -6531735.5092        346.445          41.250  
C 4  38669383.061    -6537114.8122        330.508          38.250  
G 2  21772319.542   -23097651.855        1020.234          47.750  
C 5  39346455.758    -7156868.8692        371.377          36.000  
C12  22026614.084   -26036623.4292       1794.541          47.000  
G19  21682610.800   -18360804.225       -2106.807          42.500  
G 6  21914563.989   -21281700.197        -592.881          46.500  
C22  22852440.268   -27265260.1382      -1549.834          50.250  
G12  22396832.995   -17234318.869        -517.754          43.500  
G 5  20670815.804   -28178189.482        1445.879          45.250  
> 2020  6 29  8 15 21.0000000  0 23                     
C21  21968820.847   -16460304.3852       1427.998          48.000  
C16  38716652.302   -16581643.2972       2027.021          38.000  
G17  22937597.400    -4520639.660       -2475.879          39.500  
G 9  23356238.742   -16823326.613       -1387.705          41.000  
C 6  38052841.893   -17536575.0292       1889.023          37.000  
C11  25892272.591    -6183897.9712       3112.373          38.000  
G25  23765789.420    -7751268.668         893.242          39.500  
C 8  37050599.491    -2456284.3712        496.572          44.750  
C 7  38958302.730     9348989.1612      -1253.145          33.500  
C10  38000760.893     2817126.8572      -1283.486          35.500  
C 3  36296297.535    -6931728.7522        340.742          42.500  
C13  37067616.010    -6776385.9582        458.770          45.250  
C 2  37291267.463    -7390566.0692        381.475          38.500  
C 1  37730407.026    -6532081.9812        346.523          41.500  
C 4  38669319.499    -6537445.3682        330.645          38.250  
G 2  21772125.452   -23098672.098        1020.264          47.750  
C 5  39346384.461    -7157240.2722        371.484          35.750  
C12  22026269.485   -26038417.8842       1794.434          47.000  
G19  21683011.767   -18358697.168       -2107.178          42.500  
G 6  21914676.922   -21281107.283        -592.900          46.500  
C22  22852738.038   -27263710.0922      -1550.107          50.250  
G12  22396931.463   -17233800.782        -518.213          43.500  
G 5  20670540.658   -28179635.047        1445.459          45.250  
> 2020  6 29  8 15 22.0000000  0 23                     
C21  21968546.852   -16461731.8692       1427.256          48.000  
C16  38716262.966   -16583670.0912       2026.641          38.000  
G17  22938068.923    -4518163.344       -2476.504          39.500  
G 9  23356502.838   -16821938.339       -1388.525          41.000  
C 6  38052479.172   -17538463.8252       1888.730          36.750  
C11  25891674.843    -6187010.1752       3112.197          38.000  
G25  23765619.729    -7752161.281         892.354          39.250  
C 8  37050504.374    -2456780.8432        496.465          44.750  
C 7  38958543.338     9350242.3622      -1253.252          33.750  
C10  38001007.421     2818410.4842      -1283.730          35.750  
C 3  36296232.271    -6932069.3542        340.498          42.500  
C13  37067527.899    -6776844.6422        458.643          45.250  
C 2  37291194.364    -7390947.3732        381.240          38.500  
C 1  37730340.693    -6532428.3092        346.230          41.500  
C 4  38669255.984    -6537775.7522        330.332          38.250  
G 2  21771931.415   -23099692.156        1019.961          47.750  
C 5  39346313.203    -7157611.5062        371.230          35.750  
C12  22025924.809   -26040211.9332       1793.887          47.250  
G19  21683412.511   -18356589.537       -2107.852          42.500  
G 6  21914789.982   -21280514.102        -593.330          46.500  
C22  22853035.586   -27262159.5392      -1550.732          50.250  
G12  22397030.222   -17233281.974        -519.092          43.500  
G 5  20670265.494   -28181079.977        1444.727          45.250  
> 2020  6 29  8 15 23.0000000  0 23                     
C21  21968272.810   -16463158.8282       1426.797          48.000  
C16  38715873.473   -16585696.8082       2026.719          38.000  
G17  22938540.454    -4515686.622       -2476.855          39.500  
G 9  23356767.187   -16820549.476       -1389.062          41.000  
C 6  38052116.348   -17540352.4992       1888.682          36.750  
C11  25891077.256    -6190122.4142       3112.295          38.000  
G25  23765450.039    -7753053.254         891.768          39.500  
C 8  37050408.934    -2457277.3452        496.475          44.750  
C 7  38958784.164     9351495.6712      -1253.291          33.750  
C10  38001254.106     2819694.2332      -1283.818          35.500  
C 3  36296166.872    -6932409.8862        340.488          42.500  
C13  37067439.893    -6777303.3502        458.740          45.250  
C 2  37291120.981    -7391328.6212        381.260          38.250  
C 1  37730274.400    -6532774.6052        346.299          41.500  
C 4  38669192.605    -6538106.1012        330.322          38.250  
G 2  21771737.464   -23100712.121        1019.941          47.750  
C 5  39346241.937    -7157982.6902        371.172          35.750  
C12  22025580.376   -26042005.6922       1793.682          47.000  
G19  21683813.787   -18354481.395       -2108.281          42.500  
G 6  21914902.815   -21279920.758        -593.408          46.250  
C22  22853333.518   -27260608.5812      -1551.064          50.250  
G12  22397129.043   -17232762.553        -519.619          43.500  
G 5  20669990.544   -28182524.379        1444.219          45.250  
> 2020  6 29  8 15 24.0000000  0 23                     
C21  21967998.780   -16464585.2752       1426.328          48.000  
C16  38715484.233   -16587723.4632       2026.621          38.000  
G17  22939012.369    -4513209.545       -2477.100          39.500  
G 9  23357031.780   -16819160.061       -1389.570          41.000  
C 6  38051753.688   -17542241.1232       1888.633          36.750  
C11  25890479.520    -6193234.6712       3112.295          38.000  
G25  23765280.427    -7753944.630         891.240          39.500  
C 8  37050313.634    -2457773.9382        496.650          44.750  
C 7  38959025.047     9352748.9572      -1253.193          33.750  
C10  38001500.529     2820978.0452      -1283.691          35.500  
C 3  36296101.451    -6932750.3962        340.488          42.500  
C13  37067351.665    -6777762.1142        458.779          45.250  
C 2  37291047.769    -7391709.8492        381.250          38.250  
C 1  37730208.067    -6533120.8832        346.309          41.500  
C 4  38669129.248    -6538436.4022        330.303          38.250  
G 2  21771543.348   -23101732.027        1019.912          47.750  
C 5  39346170.801    -7158353.8682        371.182          35.750  
C12  22025235.909   -26043799.1732       1793.408          47.250  
G19  21684215.020   -18352372.803       -2108.711          42.500  
G 6  21915015.522   -21279327.288        -593.486          46.500  
C22  22853631.363   -27259057.2552      -1551.416          50.250  
G12  22397227.881   -17232242.551        -520.146          43.500  
G 5  20669715.991   -28183968.274        1443.770          45.250  
> 2020  6 29  8 15 25.0000000  0 23                     
C21  21967724.803   -16466011.3482       1425.967          48.000  
C16  38715094.923   -16589750.1642       2026.768          38.000  
G17  22939483.887    -4510732.223       -2477.412          39.500  
G 9  23357296.204   -16817770.198       -1389.990          41.000  
C 6  38051391.073   -17544129.7822       1888.652          36.750  
C11  25889881.536    -6196347.1452       3112.529          37.750  
G25  23765110.667    -7754835.517         890.723          39.500  
C 8  37050218.334    -2458270.7052        496.836          44.750  
C 7  38959265.777     9354002.1672      -1253.076          33.500  
C10  38001747.197     2822261.8172      -1283.721          35.500  
C 3  36296036.209    -6933091.0072        340.674          42.500  
C13  37067263.441    -6778221.0592        459.043          45.500  
C 2  37290974.613    -7392091.1692        381.309          38.500  
C 1  37730141.268    -6533467.2352        346.348          41.250  
C 4  38669065.943    -6538766.8192        330.391          38.250  
G 2  21771349.214   -23102752.000        1020.000          47.750  
C 5  39346099.512    -7158725.1182        371.357          36.000  
C12  22024891.765   -26045592.5212       1793.320          47.250  
G19  21684616.436   -18350263.898       -2109.004          42.500  
G 6  21915128.543   -21278733.793        -593.496          46.250  
C22  22853929.312   -27257505.6672      -1551.660          50.250  
G12  22397326.924   -17231722.056        -520.615          43.500  
G 5  20669441.547   -28185411.784        1443.389          45.500  
> 2020  6 29  8 15 26.0000000  0 23                     
C21  21967451.162   -16467436.7802       1425.215          48.000  
C16  38714705.944   -16591776.7152       2026.523          37.750  
G17  22939955.448    -4508254.405       -2478.018          39.500  
G 9  23357560.858   -16816379.650       -1390.771          41.000  
C 6  38051028.357   -17546018.2742       1888.467          36.750  
C11  25889283.823    -6199459.4802       3112.344          37.750  
G25  23764941.025    -7755725.674         889.893          39.500  
C 8  37050122.856    -2458767.4172        496.699          44.500  
C 7  38959506.546     9355255.4192      -1253.271          33.750  
C10  38001993.751     2823545.8112      -1284.033          35.500  
C 3  36295970.588    -6933431.4592        340.410          42.500  
C13  37067175.474    -6778679.9412        458.877          45.500  
C 2  37290901.606    -7392472.3042        381.104          38.250  
C 1  37730074.612    -6533813.4702        346.162          41.250  
C 4  38669002.467    -6539097.0982        330.176          38.250  
G 2  21771155.124   -23103771.778        1019.727          47.750  
C 5  39346028.228    -7159096.2482        371.035          35.750  
C12  22024547.337   -26047385.4662       1792.832          47.250  
G19  21685017.752   -18348154.385       -2109.707          42.250  
G 6  21915241.576   -21278140.033        -593.828          46.250  
C22  22854227.406   -27255953.5792      -1552.246          50.000  
G12  22397426.255   -17231200.872        -521.387          43.500  
G 5  20669166.942   -28186854.670        1442.686          45.500  
> 2020  6 29  8 15 27.0000000  0 22                     
C21  21967177.425   -16468861.6222       1424.688          48.000  
C16  38714316.735   -16593803.1122       2026.367          38.000  
G17  22940427.036    -4505776.124       -2478.408          39.500  
G 9  23357825.713   -16814988.446       -1391.426          41.000  
C 6  38050665.567   -17547906.5812       1888.291          36.750  
C11  25888686.105    -6202571.8002       3112.324          37.750  
G25  23764771.588    -7756615.127         889.248          39.500  
C 8  37050027.656    -2459264.0962        496.689          44.750  
C 7  38959747.403     9356508.8492      -1253.506          33.750  
C10  38002240.331     2824829.9612      -1284.219          35.500  
C 3  36295905.180    -6933771.7912        340.312          42.500  
C13  37067087.338    -6779138.8082        458.867          45.250  
C 2  37290828.489    -7392853.3522        381.006          38.250  
C 1  37730008.122    -6534159.5662        346.094          41.250  
C 4  38668939.245    -6539427.2502        330.127          38.250  
G 2  21770961.130   -23104791.392        1019.580          47.750  
C12  22024203.275   -26049178.0342       1792.471          47.250  
G19  21685419.290   -18346044.321       -2110.225          42.500  
G 6  21915354.484   -21277546.042        -594.043          46.250  
C22  22854525.608   -27254401.0232      -1552.676          50.000  
G12  22397525.307   -17230678.973        -522.100          43.500  
G 5  20668892.637   -28188296.946        1442.109          45.500  
> 2020  6 29  8 15 28.0000000  0 23                     
C21  21966903.871   -16470285.9932       1424.316          48.000  
C16  38713927.704   -16595829.4712       2026.494          38.000  
G17  22940898.615    -4503297.513       -2478.633          39.500  
G 9  23358090.664   -16813596.724       -1391.758          41.000  
C 6  38050302.899   -17549794.8402       1888.398          36.750  
C11  25888088.426    -6205684.1702       3112.529          38.000  
G25  23764602.696    -7757504.025         888.887          39.750  
C 8  37049932.312    -2459760.9032        496.953          44.750  
C 7  38959988.085     9357762.1662      -1253.203          33.500  
C10  38002486.903     2826114.1272      -1284.043          35.750  
C 3  36295839.951    -6934112.1392        340.449          42.500  
C13  37066999.249    -6779597.7562        459.062          45.250  
C 2  37290755.364    -7393234.4022        381.162          38.500  
C 1  37729941.476    -6534505.6892        346.260          41.250  
C 4  38668875.705    -6539757.3802        330.254          38.250  
G 2  21770767.009   -23105810.991        1019.707          47.750  
C 5  39345885.437    -7159838.2633        371.113          35.750  
C12  22023859.052   -26050970.3882       1792.373          47.250  
G19  21685820.811   -18343933.844       -2110.479          42.500  
G 6  21915467.509   -21276951.965        -594.004          46.500  
C22  22854823.872   -27252848.1232      -1552.881          50.250  
G12  22397624.633   -17230156.546        -522.490          43.500  
G 5  20668618.473   -28189738.765        1441.797          45.500  
> 2020  6 29  8 15 29.0000000  0 23                     
C21  21966630.374   -16471709.8292       1423.740          47.750  
C16  38713538.381   -16597855.7352       2026.328          37.750  
G17  22941370.338    -4500818.508       -2479.092          39.750  
G 9  23358355.676   -16812204.389       -1392.510          40.750  
C 6  38049940.305   -17551683.0232       1888.203          36.750  
C11  25887490.577    -6208796.5662       3112.383          38.000  
G25  23764433.948    -7758392.254         888.086          39.500  
C 8  37049836.685    -2460257.7252        496.865          44.750  
C 7  38960228.741     9359015.5782      -1253.389          33.500  
C10  38002733.344     2827398.4312      -1284.277          35.500  
C 3  36295774.901    -6934452.4352        340.361          42.500  
C13  37066911.169    -6780056.7302        459.043          45.250  
C 2  37290682.152    -7393615.3962        381.006          38.250  
C 1  37729874.942    -6534851.7492        346.104          41.500  
C 4  38668812.129    -6540087.4832        330.137          38.250  
G 2  21770573.238   -23106830.486        1019.531          47.750  
C 5  39345814.044    -7160209.2382        371.113          35.750  
C12  22023514.929   -26052762.4282       1791.982          47.250  
G19  21686222.598   -18341822.857       -2111.094          42.500  
G 6  21915580.447   -21276357.702        -594.258          46.500  
C22  22855122.157   -27251294.8102      -1553.379          50.000  
G12  22397724.191   -17229633.478        -523.203          43.500  
G 5  20668344.203   -28191180.047        1441.182          45.500  
> 2020  6 29  8 15 30.0000000  0 23                     
C21  21966356.933   -16473133.2952       1423.428          47.750  
C16  38713149.241   -16599882.0902       2026.416          37.750  
G17  22941842.484    -4498339.281       -2479.258          39.750  
G 9  23358620.697   -16810811.640       -1392.822          40.750  
C 6  38049577.655   -17553571.2462       1888.428          36.750  
C11  25886892.920    -6211909.1452       3112.734          38.000  
G25  23764265.082    -7759280.054         887.705          39.750  
C 8  37049741.267    -2460754.7422        497.158          44.750  
C 7  38960469.506     9360268.8092      -1253.115          33.500  
C10  38002979.968     2828682.6702      -1284.170          35.500  
C 3  36295709.375    -6934792.8262        340.479          42.500  
C13  37066822.849    -6780515.9182        459.307          45.250  
C 2  37290608.939    -7393996.5142        381.211          38.250  
C 1  37729808.230    -6535197.9272        346.299          41.500  
C 4  38668748.597    -6540417.7042        330.352          38.250  
G 2  21770379.074   -23107850.061        1019.658          48.000  
C 5  39345742.795    -7160580.2502        371.211          35.750  
C12  22023170.924   -26054554.3412       1791.914          47.250  
G19  21686623.979   -18339711.552       -2111.328          42.500  
G 6  21915693.664   -21275763.439        -594.229          46.500  
C22  22855420.516   -27249741.2662      -1553.555          50.000  
G12  22397823.526   -17229109.972        -523.555          43.500  
G 5  20668069.881   -28192620.975        1440.879          45.500  
> 2020  6 29  8 15 31.0000000  0 23                     
C21  21966083.636   -16474556.4202       1422.910          48.000  
C16  38712760.328   -16601908.5282       2026.367          37.750  
G17  22942314.465    -4495859.839       -2479.609          39.750  
G 9  23358885.888   -16809418.491       -1393.428          40.750  
C 6  38049215.109   -17555459.5862       1888.281          36.750  
C11  25886295.002    -6215021.9242       3112.754          38.000  
G25  23764096.072    -7760167.366         887.119          39.500  
C 8  37049645.732    -2461252.0102        497.217          44.750  
C 7  38960709.975     9361521.9152      -1253.096          33.500  
C10  38003226.491     2829966.7962      -1284.229          35.500  
C 3  36295643.920    -6935133.3642        340.439          42.500  
C13  37066734.678    -6780975.3172        459.355          45.250  
C 2  37290535.779    -7394377.7592        381.182          38.250  
C 1  37729741.492    -6535544.2342        346.260          41.250  
C 4  38668685.017    -6540748.0602        330.254          38.500  
G 2  21770185.084   -23108869.735        1019.609          48.000  
C 5  39345671.419    -7160951.4542        371.123          35.750  
C12  22022826.749   -26056346.1442       1791.660          47.250  
G19  21687026.058   -18337599.972       -2111.729          42.500  
G 6  21915806.693   -21275169.212        -594.336          46.500  
C22  22855719.046   -27248187.4972      -1553.926          50.000  
G12  22397923.420   -17228586.021        -524.160          43.500  
G 5  20667795.712   -28194061.555        1440.410          45.250  
> 2020  6 29  8 15 32.0000000  0 23                     
C21  21965810.362   -16475978.9522       1422.383          48.000  
C16  38712371.232   -16603934.8582       2026.299          37.750  
G17  22942786.423    -4493379.946       -2480.010          39.750  
G 9  23359150.961   -16808024.694       -1394.053          40.750  
C 6  38048852.611   -17557347.7382       1888.125          36.750  
C11  25885697.275    -6218134.6262       3112.695          38.000  
G25  23763927.555    -7761054.025         886.455          39.500  
C 8  37049550.148    -2461749.2582        497.227          44.750  
C 7  38960950.718     9362775.0922      -1253.213          33.500  
C10  38003472.932     2831251.0892      -1284.307          35.500  
C 3  36295578.494    -6935473.7862        340.391          42.500  
C13  37066646.353    -6781434.7012        459.365          45.250  
C 2  37290462.576    -7394758.8622        381.094          38.250  
C 1  37729675.024    -6535890.4352        346.221          41.250  
C 4  38668621.555    -6541078.2962        330.215          38.250  
G 2  21769991.120   -23109889.254        1019.463          47.750  
C 5  39345600.283    -7161322.5382        370.977          35.750  
C12  22022482.906   -26058137.5872       1791.318          47.250  
G19  21687427.989   -18335487.815       -2112.324          42.500  
G 6  21915920.093   -21274574.769        -594.521          46.500  
C22  22856017.458   -27246633.2712      -1554.385          50.000  
G12  22398023.061   -17228061.418        -524.805          43.250  
G 5  20667521.870   -28195501.550        1439.834          45.250  
> 2020  6 29  8 15 33.0000000  0 23                     
C21  21965537.480   -16477400.9302       1421.807          47.750  
C16  38711982.218   -16605961.0432       2026.094          37.750  
G17  22943258.198    -4490899.636       -2480.430          39.750  
G 9  23359416.375   -16806630.293       -1394.619          40.750  
C 6  38048489.826   -17559235.7972       1887.969          36.750  
C11  25885099.522    -6221247.3262       3112.676          38.000  
G25  23763758.965    -7761939.997         885.762          39.500  
C 8  37049454.761    -2462246.5292        497.295          44.750  
C 7  38961191.422     9364028.3282      -1253.223          33.500  
C10  38003719.595     2832535.5442      -1284.482          35.750  
C 3  36295513.357    -6935814.1232        340.312          42.500  
C13  37066558.169    -6781894.1222        459.395          45.250  
C 2  37290389.254    -7395139.9132        381.016          38.250  
C 1  37729608.879    -6536236.5722        346.123          41.250  
C 4  38668558.185    -6541408.4332        330.049          38.250  
G 2  21769797.118   -23110908.641        1019.346          47.750  
C 5  39345529.073    -7161693.5732        371.035          35.750  
C12  22022138.796   -26059928.7072       1791.016          47.250  
G19  21687830.068   -18333375.158       -2112.793          42.500  
G 6  21916033.166   -21273980.123        -594.717          46.500  
C22  22856315.992   -27245078.6112      -1554.805          50.000  
G12  22398123.107   -17227536.151        -525.449          43.250  
G 5  20667247.959   -28196940.986        1439.258          45.500  
> 2020  6 29  8 15 34.0000000  0 23                     
C21  21965264.488   -16478822.5212       1421.523          47.750  
C16  38711592.852   -16607987.3032       2026.299          37.750  
G17  22943730.244    -4488419.077       -2480.566          39.750  
G 9  23359681.757   -16805235.423       -1394.951          40.750  
C 6  38048127.236   -17561123.9062       1888.203          36.750  
C11  25884501.686    -6224360.1892       3112.969          38.000  
G25  23763590.208    -7762825.504         885.391          39.500  
C 8  37049359.286    -2462743.9592        497.520          44.750  
C 7  38961432.287     9365281.4522      -1252.930          33.500  
C10  38003966.533     2833819.9252      -1284.355          35.750  
C 3  36295447.897    -6936154.5382        340.518          42.500  
C13  37066469.940    -6782353.6912        459.688          45.250  
C 2  37290316.094    -7395521.0652        381.182          38.250  
C 1  37729542.446    -6536582.7832        346.270          41.250  
C 4  38668494.740    -6541738.7142        330.381          38.250  
G 2  21769603.215   -23111928.084        1019.521          48.000  
C 5  39345457.815    -7162064.6422        371.182          35.750  
C12  22021794.853   -26061719.6612       1790.938          47.250  
G19  21688232.479   -18331262.137       -2113.086          42.500  
G 6  21916146.545   -21273385.458        -594.619          46.500  
C22  22856614.578   -27243523.6902      -1554.941          50.000  
G12  22398223.132   -17227010.419        -525.830          43.250  
G 5  20666974.243   -28198380.035        1438.994          45.500  
> 2020  6 29  8 15 35.0000000  0 23                     
C21  21964991.746   -16480243.4322       1420.723          48.000  
C16  38711203.629   -16610013.3392       2025.908          37.750  
G17  22944202.534    -4485937.983       -2481.299          39.750  
G 9  23359947.690   -16803839.842       -1395.791          41.000  
C 6  38047764.743   -17563011.7322       1887.773          37.000  
C11  25883903.881    -6227472.9052       3112.666          38.000  
G25  23763421.813    -7763710.202         884.443          39.500  
C 8  37049263.768    -2463241.3052        497.324          44.750  
C 7  38961672.882     9366534.7452      -1253.320          33.250  
C10  38004213.297     2835104.5642      -1284.648          35.750  
C 3  36295382.371    -6936494.7752        340.176          42.500  
C13  37066381.856    -6782813.1432        459.395          45.250  
C 2  37290243.008    -7395902.0022        380.869          38.500  
C 1  37729476.048    -6536928.8152        346.006          41.500  
C 4  38668431.527    -6542068.7652        330.078          38.250  
G 2  21769409.212   -23112947.292        1019.160          47.750  
C 5  39345386.509    -7162435.5262        370.811          35.750  
C12  22021450.931   -26063510.1912       1790.400          47.250  
G19  21688634.685   -18329148.497       -2113.818          42.500  
G 6  21916259.504   -21272790.479        -595.088          46.500  
C22  22856913.273   -27241968.2162      -1555.635          50.000  
G12  22398323.584   -17226483.925        -526.709          43.500  
G 5  20666700.672   -28199818.411        1438.164          45.500  
> 2020  6 29  8 15 36.0000000  0 23                     
C21  21964718.907   -16481663.8572       1420.293          47.750  
C16  38710814.712   -16612039.3332       2026.016          37.750  
G17  22944674.855    -4483456.544       -2481.484          39.750  
G 9  23360213.239   -16802443.700       -1396.240          41.000  
C 6  38047402.459   -17564899.5122       1887.803          36.750  
C11  25883306.220    -6230585.6942       3112.871          37.750  
G25  23763253.388    -7764594.349         883.994          39.500  
C 8  37049168.189    -2463738.7562        497.510          44.750  
C 7  38961913.363     9367788.0042      -1253.174          33.250  
C10  38004460.161     2836389.2422      -1284.639          35.750  
C 3  36295316.916    -6936835.0052        340.225          42.500  
C13  37066293.383    -6783272.6992        459.619          45.250  
C 2  37290169.757    -7396282.9272        381.006          38.250  
C 1  37729409.663    -6537274.8322        346.064          41.250  
C 4  38668368.104    -6542398.8342        330.059          38.250  
G 2  21769215.227   -23113966.452        1019.180          47.750  
C 5  39345315.387    -7162806.4252        370.869          35.500  
C12  22021107.118   -26065300.4612       1790.225          47.250  
G19  21689037.213   -18327034.407       -2114.219          42.500  
G 6  21916372.918   -21272195.391        -595.098          46.250  
C22  22857212.065   -27240412.4012      -1555.869          50.000  
G12  22398424.006   -17225956.858        -527.227          43.250  
G 5  20666426.991   -28201256.312        1437.793          45.500  
> 2020  6 29  8 15 37.0000000  0 23                     
C21  21964446.121   -16483083.8052       1419.678          48.000  
C16  38710425.537   -16614065.2812       2025.879          37.750  
G17  22945147.132    -4480974.748       -2482.061          40.000  
G 9  23360479.167   -16801047.011       -1396.982          41.000  
C 6  38047039.761   -17566787.2752       1887.656          36.750  
C11  25882708.432    -6233698.5422       3112.773          37.750  
G25  23763084.928    -7765477.881         883.271          39.250  
C 8  37049072.645    -2464236.2842        497.471          44.750  
C 7  38962154.233     9369041.2812      -1253.389          33.500  
C10  38004706.911     2837673.9882      -1284.834          35.750  
C 3  36295251.612    -6937175.2142        340.098          42.500  
C13  37066205.103    -6783732.3122        459.492          45.250  
C 2  37290096.575    -7396663.8352        380.781          38.500  
C 1  37729343.169    -6537620.8482        345.908          41.250  
C 4  38668304.712    -6542728.8542        329.922          38.250  
G 2  21769021.285   -23114985.576        1018.984          47.750  
C 5  39345244.229    -7163177.3232        370.791          35.500  
C12  22020763.318   -26067090.4742       1789.824          47.250  
G19  21689439.663   -18324919.895       -2114.746          42.500  
G 6  21916486.139   -21271600.173        -595.391          46.250  
C22  22857510.991   -27238856.2112      -1556.416          50.000  
G12  22398524.240   -17225429.228        -527.910          43.250  
G 5  20666153.551   -28202693.696        1437.119          45.500  
> 2020  6 29  8 15 38.0000000  0 23                     
C21  21964173.479   -16484503.2842       1419.277          48.000  
C16  38710036.563   -16616091.2142       2025.889          37.750  
G17  22945619.588    -4478492.636       -2482.334          40.000  
G 9  23360745.274   -16799649.811       -1397.461          41.000  
C 6  38046677.102   -17568675.0082       1887.656          36.750  
C11  25882110.596    -6236811.4772       3112.920          37.750  
G25  23762916.957    -7766360.847         882.764          39.250  
C 8  37048977.087    -2464733.9342        497.598          44.750  
C 7  38962394.863     9370294.4742      -1253.320          33.000  
C10  38004953.627     2838958.7722      -1284.893          35.750  
C 3  36295186.440    -6937515.4472        340.186          42.500  
C13  37066116.665    -6784192.0702        459.727          45.250  
C 2  37290023.397    -7397044.7822        380.820          38.250  
C 1  37729276.771    -6537966.8782        345.928          41.250  
C 4  38668241.424    -6543058.9242        330.029          38.250  
G 2  21768827.448   -23116004.684        1019.023          47.750  
C 5  39345173.351    -7163548.2322        370.811          35.500  
C12  22020419.383   -26068880.2662       1789.639          47.250  
G19  21689842.131   -18322804.956       -2115.137          42.500  
G 6  21916599.640   -21271004.874        -595.410          46.250  
C22  22857809.752   -27237299.6962      -1556.699          50.000  
G12  22398624.526   -17224901.043        -528.457          43.250  
G 5  20665880.001   -28204130.641        1436.729          45.500  
> 2020  6 29  8 15 39.0000000  0 23                     
C21  21963900.907   -16485922.2962       1418.916          48.000  
C16  38709647.567   -16618117.1142       2025.928          37.750  
G17  22946091.870    -4476010.199       -2482.510          40.000  
G 9  23361010.980   -16798252.085       -1397.852          41.000  
C 6  38046314.573   -17570562.6702       1887.754          37.000  
C11  25881512.630    -6239924.5102       3113.076          37.750  
G25  23762748.885    -7767243.257         882.256          39.250  
C 8  37048881.622    -2465231.6752        497.803          44.750  
C 7  38962635.423     9371547.6512      -1253.037          33.250  
C10  38005200.128     2840243.5862      -1284.805          35.500  
C 3  36295120.902    -6937855.6882        340.264          42.500  
C13  37066028.402    -6784651.8882        459.893          45.250  
C 2  37289950.285    -7397425.7262        380.996          38.250  
C 1  37729210.268    -6538312.9242        346.074          41.250  
C 4  38668177.879    -6543388.9762        330.098          38.250  
G 2  21768633.467   -23117023.756        1019.102          48.000  
C 5  39345101.905    -7163919.1622        370.957          35.750  
C12  22020075.897   -26070669.8102       1789.531          47.000  
G19  21690244.672   -18320689.581       -2115.449          42.500  
G 6  21916712.948   -21270409.459        -595.400          46.250  
C22  22858108.805   -27235742.8292      -1556.914          50.000  
G12  22398725.122   -17224372.301        -528.857          43.250  
G 5  20665606.705   -28205567.119        1436.387          45.500  
> 2020  6 29  8 15 40.0000000  0 23                     
C21  21963628.596   -16487340.8062       1418.428          48.000  
C16  38709258.305   -16620142.9802       2025.908          37.750  
G17  22946564.448    -4473527.432       -2482.764          40.000  
G 9  23361276.786   -16796853.807       -1398.350          41.000  
C 6  38045951.975   -17572450.3012       1887.734          37.000  
C11  25880914.751    -6243037.5652       3113.174          37.750  
G25  23762581.184    -7768125.084         881.729          39.250  
C 8  37048786.095    -2465729.5032        497.930          44.750  
C 7  38962875.952     9372800.8182      -1252.988          33.000  
C10  38005446.709     2841528.4542      -1284.873          35.750  
C 3  36295055.603    -6938195.9362        340.332          42.500  
C13  37065940.078    -6785111.7962        460.020          45.250  
C 2  37289877.138    -7397806.6852        381.045          38.500  
C 1  37729143.778    -6538658.9622        346.133          41.250  
C 4  38668114.408    -6543719.0542        330.127          38.250  
G 2  21768439.656   -23118042.782        1019.072          48.000  
C 5  39345030.630    -7164290.0522        371.025          35.500  
C12  22019732.280   -26072459.1142       1789.297          47.250  
G19  21690647.345   -18318573.779       -2115.859          42.750  
G 6  21916826.082   -21269813.927        -595.508          46.250  
C22  22858407.741   -27234185.6102      -1557.256          50.000  
G12  22398825.688   -17223842.990        -529.404          43.250  
G 5  20665333.596   -28207003.112        1435.947          45.500  
> 2020  6 29  8 15 41.0000000  0 23                     
C21  21963356.368   -16488758.8832       1417.842          47.750  
C16  38708869.440   -16622168.8652       2025.859          37.750  
G17  22947037.000    -4471044.340       -2483.271          40.000  
G 9  23361543.015   -16795455.042       -1399.023          41.000  
C 6  38045589.469   -17574337.9102       1887.568          36.750  
C11  25880316.945    -6246150.7252       3113.076          37.750  
G25  23762413.221    -7769006.348         880.986          39.250  
C 8  37048690.363    -2466227.4522        497.881          44.750  
C 7  38963116.364     9374053.9162      -1253.164          32.750  
C10  38005693.468     2842813.3222      -1284.912          35.750  
C 3  36294990.330    -6938536.2002        340.225          42.500  
C13  37065851.727    -6785571.8382        459.961          45.250  
C 2  37289803.882    -7398187.6622        380.957          38.500  
C 1  37729077.197    -6539005.0512        345.967          41.250  
C 4  38668051.226    -6544049.1542        329.990          38.250  
G 2  21768245.850   -23119061.822        1018.945          48.000  
C 5  39344959.280    -7164660.9812        370.781          35.500  
C12  22019388.843   -26074248.2032       1788.936          47.250  
G19  21691050.153   -18316457.572       -2116.416          42.500  
G 6  21916939.413   -21269218.322        -595.703          46.250  
C22  22858706.763   -27232628.0812      -1557.715          50.000  
G12  22398926.341   -17223313.149        -530.117          43.250  
G 5  20665060.325   -28208438.675        1435.322          45.500  
> 2020  6 29  8 15 42.0000000  0 23                     
C21  21963084.049   -16490176.3932       1417.422          48.000  
C16  38708480.518   -16624194.6132       2025.850          37.750  
G17  22947509.678    -4468560.815       -2483.604          39.750  
G 9  23361809.410   -16794055.641       -1399.551          41.000  
C 6  38045226.814   -17576225.3872       1887.529          36.750  
C11  25879718.830    -6249263.8502       3113.262          37.750  
G25  23762245.512    -7769886.945         880.459          39.250  
C 8  37048594.670    -2466725.4152        498.047          44.750  
C 7  38963357.098     9375307.1362      -1253.125          33.000  
C10  38005940.140     2844098.3652      -1285.010          35.750  
C 3  36294924.835    -6938876.3702        340.225          42.500  
C13  37065763.477    -6786031.8792        460.137          45.250  
C 2  37289730.613    -7398568.5592        380.918          38.500  
C 1  37729010.825    -6539351.0452        346.064          41.250  
C 4  38667988.139    -6544379.1642        330.088          38.250  
G 2  21768051.825   -23120080.723        1018.936          48.000  
C 5  39344888.083    -7165031.8282        370.820          35.500  
C12  22019045.095   -26076036.9452       1788.711          47.000  
G19  21691453.069   -18314340.833       -2116.816          42.750  
G 6  21917052.752   -21268622.508        -595.811          46.250  
C22  22859006.095   -27231070.0972      -1558.037          50.000  
G12  22399027.347   -17222782.644        -530.664          43.250  
G 5  20664787.181   -28209873.651        1434.883          45.500  
> 2020  6 29  8 15 43.0000000  0 23                     
C21  21962811.873   -16491593.4282       1416.855          48.000  
C16  38708091.348   -16626220.3222       2025.713          37.750  
G17  22947982.282    -4466076.958       -2483.984          39.750  
G 9  23362075.967   -16792655.704       -1400.127          41.000  
C 6  38044864.395   -17578112.8242       1887.393          36.750  
C11  25879121.016    -6252377.0672       3113.164          37.750  
G25  23762078.190    -7770766.969         879.814          39.250  
C 8  37048499.130    -2467223.4562        498.027          44.750  
C 7  38963597.427     9376560.2562      -1253.105          32.750  
C10  38006187.047     2845383.4272      -1285.127          35.500  
C 3  36294859.510    -6939216.5422        340.176          42.500  
C13  37065675.236    -6786492.0082        460.137          45.250  
C 2  37289657.623    -7398949.4712        380.898          38.500  
C 1  37728944.475    -6539697.0212        345.947          41.250  
C 4  38667924.738    -6544709.1592        329.893          38.250  
G 2  21767857.827   -23121099.592        1018.828          48.000  
C 5  39344816.969    -7165402.6732        370.713          35.500  
C12  22018701.714   -26077825.4532       1788.398          47.250  
G19  21691855.930   -18312223.683       -2117.324          42.500  
G 6  21917166.170   -21268026.591        -596.006          46.250  
C22  22859305.437   -27229511.7772      -1558.447          50.000  
G12  22399128.541   -17222251.584        -531.270          43.250  
G 5  20664514.168   -28211308.159        1434.346          45.500  
> 2020  6 29  8 15 44.0000000  0 23                     
C21  21962540.056   -16493009.8292       1416.270          47.750  
C16  38707702.330   -16628245.8492       2025.557          37.750  
G17  22948455.144    -4463592.604       -2484.473          39.750  
G 9  23362342.375   -16791255.093       -1400.723          41.000  
C 6  38044502.185   -17580000.0492       1887.207          36.750  
C11  25878523.067    -6255490.1792       3113.184          38.000  
G25  23761910.860    -7771646.266         879.092          39.250  
C 8  37048403.616    -2467721.4572        498.076          44.750  
C 7  38963838.066     9377813.5542      -1253.301          32.750  
C10  38006433.706     2846668.6792      -1285.234          35.750  
C 3  36294794.338    -6939556.5572        340.039          42.500  
C13  37065586.972    -6786952.0552        460.117          45.250  
C 2  37289584.345    -7399330.1892        380.762          38.500  
C 1  37728877.985    -6540042.8822        345.918          41.250  
C 4  38667861.363    -6545039.0282        329.883          38.250  
G 2  21767663.903   -23122118.263        1018.682          48.000  
C 5  39344745.986    -7165773.3792        370.654          35.500  
C12  22018358.325   -26079613.5612       1788.047          47.000  
G19  21692258.890   -18310105.923       -2117.900          42.750  
G 6  21917279.531   -21267430.405        -596.191          46.250  
C22  22859604.865   -27227952.9442      -1558.896          50.000  
G12  22399229.713   -17221719.810        -531.924          43.250  
G 5  20664241.343   -28212742.027        1433.760          45.500  
> 2020  6 29  8 15 45.0000000  0 23                     
C21  21962267.989   -16494425.8272       1415.879          48.000  
C16  38707313.417   -16630271.4392       2025.635          37.750  
G17  22948927.735    -4461108.001       -2484.707          39.750  
G 9  23362608.896   -16789854.010       -1401.191          41.000  
C 6  38044139.875   -17581887.3162       1887.295          36.750  
C11  25877925.136    -6258603.4272       3113.379          38.000  
G25  23761743.717    -7772525.069         878.662          39.000  
C 8  37048307.902    -2468219.6232        498.252          44.750  
C 7  38964078.608     9379066.7432      -1253.203          32.500  
C10  38006680.666     2847953.9362      -1285.186          35.750  
C 3  36294728.961    -6939896.6542        340.146          42.500  
C13  37065498.365    -6787412.2592        460.254          45.250  
C 2  37289511.547    -7399711.0022        380.840          38.500  
C 1  37728811.500    -6540388.7882        345.898          41.250  
C 4  38667797.761    -6545368.9592        329.980          38.250  
G 2  21767470.162   -23123136.981        1018.730          48.000  
C 5  39344674.671    -7166144.1872        370.820          35.500  
C12  22018014.948   -26081401.5022       1787.900          47.000  
G19  21692661.885   -18307987.805       -2118.213          42.750  
G 6  21917392.940   -21266834.179        -596.240          46.250  
C22  22859904.201   -27226393.8392      -1559.189          50.000  
G12  22399331.007   -17221187.526        -532.412          43.000  
G 5  20663968.500   -28214175.498        1433.330          45.500  
> 2020  6 29  8 15 46.0000000  0 23                     
C21  21961996.220   -16495841.5202       1415.615          48.000  
C16  38706924.360   -16632297.1382       2025.801          37.750  
G17  22949400.536    -4458623.208       -2484.785          40.000  
G 9  23362875.492   -16788452.545       -1401.533          41.000  
C 6  38043777.473   -17583774.7052       1887.451          37.000  
C11  25877327.365    -6261716.9102       3113.535          38.000  
G25  23761576.575    -7773403.414         878.232          39.250  
C 8  37048212.297    -2468718.0562        498.516          44.750  
C 7  38964319.356     9380319.7332      -1252.881          32.750  
C10  38006927.390     2849239.0692      -1285.107          35.750  
C 3  36294663.479    -6940236.9112        340.312          42.500  
C13  37065409.896    -6787872.7362        460.566          45.250  
C 2  37289438.235    -7400091.9832        381.045          38.250  
C 1  37728745.141    -6540734.8742        346.133          41.250  
C 4  38667734.430    -6545699.0632        330.186          38.250  
G 2  21767276.233   -23124155.822        1018.877          48.000  
C 5  39344603.370    -7166515.1102        370.996          35.500  
C12  22017671.597   -26083189.3342       1787.803          47.000  
G19  21693065.059   -18305869.440       -2118.398          42.500  
G 6  21917506.519   -21266238.022        -596.162          46.250  
C22  22860203.547   -27224834.5442      -1559.346          50.000  
G12  22399432.567   -17220654.855        -532.793          43.250  
G 5  20663695.910   -28215608.653        1433.066          45.750  
> 2020  6 29  8 15 47.0000000  0 23                     
C21  21961724.419   -16497256.6432       1414.883          48.000  
C16  38706535.408   -16634322.7202       2025.479          37.750  
G17  22949873.384    -4456138.005       -2485.420          39.750  
G 9  23363142.441   -16787050.455       -1402.354          41.000  
C 6  38043415.045   -17585661.9612       1887.080          36.750  
C11  25876729.586    -6264830.3742       3113.389          38.000  
G25  23761409.650    -7774281.121         877.432          39.250  
C 8  37048116.504    -2469216.4982        498.369          44.750  
C 7  38964559.933     9381572.7882      -1253.213          33.250  
C10  38007174.258     2850524.3042      -1285.332          35.750  
C 3  36294598.180    -6940577.0862        340.107          42.500  
C13  37065321.581    -6788333.2042        460.400          45.250  
C 2  37289365.096    -7400472.8662        380.762          38.500  
C 1  37728678.547    -6541080.8722        345.928          41.500  
C 4  38667671.077    -6546029.0732        329.863          38.250  
G 2  21767082.518   -23125174.552        1018.613          48.000  
C 5  39344532.156    -7166885.9492        370.791          35.500  
C12  22017328.321   -26084976.8582       1787.334          47.000  
G19  21693468.247   -18303750.523       -2119.141          42.750  
G 6  21917620.006   -21265641.662        -596.514          46.250  
C22  22860503.071   -27223274.8192      -1559.932          50.000  
G12  22399533.953   -17220121.527        -533.594          43.000  
G 5  20663423.176   -28217041.256        1432.334          45.500  
> 2020  6 29  8 15 48.0000000  0 23                     
C21  21961452.619   -16498671.3122       1414.697          47.750  
C16  38706146.272   -16636348.2962       2025.713          37.500  
G17  22950346.298    -4453652.472       -2485.488          39.750  
G 9  23363409.425   -16785647.885       -1402.559          40.750  
C 6  38043052.848   -17587549.2142       1887.363          36.750  
C11  25876131.620    -6267943.9132       3113.701          38.000  
G25  23761242.914    -7775158.268         877.109          39.250  
C 8  37048020.654    -2469715.0862        498.789          44.750  
C 7  38964800.615     9382825.7712      -1252.734          33.250  
C10  38007420.721     2851809.5952      -1285.205          35.500  
C 3  36294532.947    -6940917.2732        340.312          42.500  
C13  37065233.313    -6788793.7872        460.791          45.250  
C 2  37289292.015    -7400853.7792        381.045          38.500  
C 1  37728612.140    -6541426.9132        346.182          41.500  
C 4  38667607.746    -6546359.1132        330.176          38.250  
G 2  21766888.555   -23126193.265        1018.867          48.000  
C 5  39344460.906    -7167256.8532        371.045          35.500  
C12  22016985.032   -26086764.1712       1787.373          47.000  
G19  21693871.499   -18301631.224       -2119.258          42.750  
G 6  21917733.633   -21265045.212        -596.309          46.250  
C22  22860802.748   -27221714.7752      -1560.000          50.000  
G12  22399635.496   -17219587.670        -533.857          43.000  
G 5  20663150.543   -28218473.410        1432.178          45.500  
> 2020  6 29  8 15 49.0000000  0 23                     
C21  21961181.216   -16500085.5612       1414.092          48.000  
C16  38705757.207   -16638373.9152       2025.635          37.750  
G17  22950819.430    -4451166.685       -2485.859          39.750  
G 9  23363676.274   -16784244.836       -1403.213          40.750  
C 6  38042690.250   -17589436.4502       1887.275          36.750  
C11  25875533.500    -6271057.6102       3113.740          38.000  
G25  23761076.024    -7776034.915         876.465          39.250  
C 8  37047924.739    -2470213.8142        498.730          44.750  
C 7  38965041.341     9384078.6962      -1253.018          33.000  
C10  38007667.746     2853094.8462      -1285.293          35.500  
C 3  36294467.740    -6941257.5332        340.225          42.500  
C13  37065144.836    -6789254.5162        460.742          45.250  
C 2  37289218.855    -7401234.7572        380.986          38.500  
C 1  37728545.554    -6541773.0212        346.123          41.500  
C 4  38667544.161    -6546689.2362        330.107          38.250  
G 2  21766694.705   -23127212.010        1018.701          48.000  
C 5  39344389.709    -7167627.8162        371.035          35.750  
C12  22016641.956   -26088551.2912       1787.012          47.000  
G19  21694274.722   -18299511.530       -2119.854          42.750  
G 6  21917847.077   -21264448.711        -596.533          46.250  
C22  22861102.469   -27220154.4362      -1560.449          50.000  
G12  22399737.226   -17219053.322        -534.512          43.000  
G 5  20662877.966   -28219905.154        1431.602          45.500  
> 2020  6 29  8 15 50.0000000  0 23                     
C21  21960909.643   -16501499.3612       1413.643          47.750  
C16  38705367.870   -16640399.5212       2025.518          37.750  
G17  22951292.506    -4448680.565       -2486.221          39.750  
G 9  23363943.506   -16782841.257       -1403.740          40.750  
C 6  38042327.648   -17591323.7042       1887.256          36.500  
C11  25874935.468    -6274171.3882       3113.789          38.000  
G25  23760909.405    -7776910.975         875.957          39.250  
C 8  37047829.033    -2470712.6482        498.828          44.750  
C 7  38965281.871     9385331.5532      -1252.891          33.000  
C10  38007914.418     2854380.1412      -1285.176          35.500  
C 3  36294402.262    -6941597.8152        340.264          42.500  
C13  37065056.416    -6789715.3592        460.840          45.250  
C 2  37289145.660    -7401615.7592        380.957          38.500  
C 1  37728479.222    -6542119.1422        346.113          41.250  
C 4  38667480.787    -6547019.3562        330.107          38.250  
G 2  21766501.029   -23128230.742        1018.711          48.000  
C 5  39344318.465    -7167998.7542        370.947          35.500  
C12  22016298.715   -26090338.1752       1786.807          47.000  
G19  21694678.240   -18297391.457       -2120.234          42.500  
G 6  21917960.569   -21263852.134        -596.611          46.500  
C22  22861402.163   -27218593.7722      -1560.771          50.000  
G12  22399838.952   -17218518.425        -535.039          43.000  
G 5  20662605.560   -28221336.445        1431.123          45.500  
> 2020  6 29  8 15 51.0000000  0 23                     
C21  21960638.030   -16502912.6772       1413.027          47.750  
C16  38704978.853   -16642425.1012       2025.459          37.500  
G17  22951765.550    -4446194.123       -2486.709          39.750  
G 9  23364210.922   -16781437.150       -1404.414          40.750  
C 6  38041965.220   -17593210.8722       1887.012          36.750  
C11  25874337.493    -6277285.2342       3113.770          38.000  
G25  23760742.843    -7777786.467         875.205          39.250  
C 8  37047733.179    -2471211.5882        498.838          45.000  
C 7  38965522.609     9386584.4082      -1253.008          33.250  
C10  38008161.435     2855665.4692      -1285.498          35.500  
C 3  36294337.068    -6941938.1132        340.137          42.500  
C13  37064967.922    -6790176.3032        460.859          45.250  
C 2  37289072.382    -7401996.7772        380.869          38.250  
C 1  37728412.784    -6542465.2602        345.986          41.500  
C 4  38667417.429    -6547349.4812        329.971          38.250  
G 2  21766307.105   -23129249.436        1018.545          48.000  
C 5  39344247.185    -7168369.7562        370.928          35.750  
C12  22015955.456   -26092124.8292       1786.445          47.000  
G19  21695081.803   -18295270.930       -2120.820          42.750  
G 6  21918074.266   -21263255.444        -596.855          46.500  
C22  22861701.914   -27217032.7642      -1561.240          50.000  
G12  22399940.739   -17217982.955        -535.732          42.750  
G 5  20662333.327   -28222767.250        1430.537          45.250  
> 2020  6 29  8 15 52.0000000  0 23                     
C21  21960366.971   -16504325.4022       1412.520          47.750  
C16  38704589.857   -16644450.5252       2025.371          37.500  
G17  22952238.635    -4443707.200       -2487.080          39.750  
G 9  23364478.089   -16780032.398       -1404.990          40.750  
C 6  38041602.604   -17595097.9352       1886.963          36.500  
C11  25873739.535    -6280399.0192       3113.809          38.000  
G25  23760576.586    -7778661.289         874.531          39.250  
C 8  37047637.404    -2471710.5092        498.896          44.750  
C 7  38965763.217     9387837.3152      -1252.979          33.250  
C10  38008408.434     2856950.9812      -1285.508          35.500  
C 3  36294271.970    -6942278.3052        340.146          42.500  
C13  37064879.318    -6790637.2112        460.869          45.250  
C 2  37288999.174    -7402377.6712        380.869          38.250  
C 1  37728346.347    -6542811.2792        345.967          41.500  
C 4  38667354.225    -6547679.5202        329.990          38.250  
G 2  21766113.228   -23130267.983        1018.477          48.000  
C 5  39344175.722    -7168740.6082        370.879          35.750  
C12  22015612.363   -26093911.1122       1786.152          47.000  
G19  21695485.570   -18293149.860       -2121.289          42.750  
G 6  21918187.976   -21262658.522        -597.012          46.500  
C22  22862001.635   -27215471.2902      -1561.631          50.000  
G12  22400042.745   -17217446.814        -536.387          42.750  
G 5  20662060.969   -28224197.462        1429.980          45.250  
> 2020  6 29  8 15 53.0000000  0 23                     
C21  21960095.568   -16505737.6082       1412.051          48.000  
C16  38704201.049   -16646475.8752       2025.322          37.750  
G17  22952711.767    -4441219.908       -2487.373          39.750  
G 9  23364745.558   -16778627.069       -1405.527          41.000  
C 6  38041240.360   -17596984.8712       1887.002          36.500  
C11  25873141.564    -6283512.8322       3113.818          38.000  
G25  23760410.141    -7779535.449         873.994          39.250  
C 8  37047541.606    -2472209.4752        498.984          45.000  
C 7  38966003.995     9389090.2532      -1252.871          33.250  
C10  38008655.315     2858236.5632      -1285.625          35.750  
C 3  36294206.532    -6942618.4022        340.117          42.500  
C13  37064790.614    -6791098.1682        460.928          45.250  
C 2  37288925.940    -7402758.5182        380.859          38.500  
C 1  37728279.918    -6543157.2632        345.986          41.500  
C 4  38667290.933    -6548009.4762        329.990          38.250  
G 2  21765919.295   -23131286.442        1018.457          48.000  
C 5  39344104.560    -7169111.3862        370.830          35.750  
C12  22015269.370   -26095697.1052       1785.918          47.000  
G19  21695889.233   -18291028.309       -2121.709          42.750  
G 6  21918301.424   -21262061.427        -597.158          46.500  
C22  22862301.617   -27213909.4162      -1561.992          50.000  
G12  22400144.776   -17216910.057        -536.943          42.750  
G 5  20661789.016   -28225627.145        1429.531          45.500  
> 2020  6 29  8 15 54.0000000  0 23                     
C21  21959824.427   -16507149.5362       1411.748          47.750  
C16  38703812.109   -16648501.3862       2025.430          37.750  
G17  22953184.947    -4438732.470       -2487.578          40.000  
G 9  23365013.288   -16777221.417       -1405.850          40.750  
C 6  38040877.818   -17598871.9452       1887.021          36.500  
C11  25872543.685    -6286626.9342       3114.072          38.000  
G25  23760243.753    -7780409.251         873.613          39.250  
C 8  37047445.687    -2472708.7462        499.248          44.750  
C 7  38966244.547     9390342.9662      -1252.783          33.250  
C10  38008902.096     2859522.0022      -1285.557          35.500  
C 3  36294141.129    -6942958.7292        340.303          42.500  
C13  37064702.116    -6791559.3952        461.172          45.250  
C 2  37288852.802    -7403139.5692        381.006          38.250  
C 1  37728213.455    -6543503.4362        346.123          41.500  
C 4  38667227.580    -6548339.6532        330.176          38.250  
G 2  21765725.759   -23132305.061        1018.574          48.000  
C 5  39344033.520    -7169482.4172        370.928          35.750  
C12  22014926.491   -26097483.0452       1785.811          47.000  
G19  21696292.913   -18288906.537       -2121.924          42.750  
G 6  21918415.042   -21261464.448        -597.041          46.500  
C22  22862601.656   -27212347.4022      -1562.168          50.000  
G12  22400246.576   -17216372.971        -537.324          42.750  
G 5  20661516.980   -28227056.573        1429.248          45.500  
> 2020  6 29  8 15 55.0000000  0 23                     
C21  21959553.412   -16508560.7482       1411.025          47.750  
C16  38703423.393   -16650526.6422       2025.273          37.750  
G17  22953658.759    -4436244.479       -2488.145          39.750  
G 9  23365281.031   -16775814.974       -1406.602          40.750  
C 6  38040515.517   -17600758.7502       1886.768          36.750  
C11  25871945.561    -6289740.8232       3113.848          38.000  
G25  23760077.496    -7781282.252         872.822          39.250  
C 8  37047349.946    -2473207.8692        499.102          44.750  
C 7  38966484.915     9391595.9172      -1253.105          33.000  
C10  38009149.139     2860807.7372      -1285.830          35.750  
C 3  36294075.568    -6943298.8242        340.098          42.500  
C13  37064613.442    -6792020.5022        461.094          45.250  
C 2  37288779.725    -7403520.3842        380.801          38.250  
C 1  37728146.965    -6543849.3802        345.908          41.250  
C 4  38667163.773    -6548669.6092        329.902          38.250  
G 2  21765532.136   -23133323.417        1018.311          48.000  
C 5  39343962.275    -7169853.2282        370.820          35.750  
C12  22014583.594   -26099268.5252       1785.371          47.000  
G19  21696696.903   -18286784.085       -2122.568          42.750  
G 6  21918528.674   -21260867.116        -597.393          46.500  
C22  22862901.734   -27210784.8062      -1562.725          50.000  
G12  22400348.848   -17215835.063        -538.066          42.750  
G 5  20661245.258   -28228485.270        1428.525          45.500  
> 2020  6 29  8 15 56.0000000  0 23                     
C21  21959282.475   -16509971.5182       1410.557          47.750  
C16  38703034.536   -16652551.8862       2025.117          37.750  
G17  22954132.254    -4433756.165       -2488.516          39.750  
G 9  23365548.573   -16774408.039       -1407.207          40.750  
C 6  38040153.237   -17602645.5672       1886.670          36.750  
C11  25871347.573    -6292854.8502       3113.926          38.000  
G25  23759911.527    -7782154.692         872.207          39.250  
C 8  37047254.066    -2473707.1422        499.238          44.750  
C 7  38966725.614     9392848.7732      -1252.920          33.000  
C10  38009396.155     2862093.4762      -1285.898          35.500  
C 3  36294010.418    -6943638.9512        340.039          42.500  
C13  37064524.913    -6792481.7212        461.191          45.250  
C 2  37288706.277    -7403901.2192        380.723          38.500  
C 1  37728080.528    -6544195.3742        345.938          41.250  
C 4  38667100.612    -6548999.6002        329.844          38.250  
G 2  21765338.181   -23134341.770        1018.271          48.000  
C 5  39343891.187    -7170224.0212        370.791          36.000  
C12  22014240.762   -26101053.7932       1785.107          47.000  
G19  21697100.994   -18284661.246       -2123.076          42.750  
G 6  21918642.257   -21260269.710        -597.529          46.500  
C22  22863201.856   -27209221.8942      -1563.105          50.000  
G12  22400451.219   -17215296.643        -538.682          42.750  
G 5  20660973.380   -28229913.524        1428.047          45.500  
> 2020  6 29  8 15 57.0000000  0 23                     
C21  21959011.713   -16511381.6942       1410.039          47.750  
C16  38702645.532   -16654576.9952       2025.039          37.750  
G17  22954605.953    -4431267.412       -2488.818          39.750  
G 9  23365816.198   -16773000.464       -1407.734          40.750  
C 6  38039791.032   -17604532.1942       1886.621          36.750  
C11  25870749.528    -6295968.7992       3113.975          38.000  
G25  23759745.619    -7783026.436         871.631          39.000  
C 8  37047158.164    -2474206.3742        499.297          45.000  
C 7  38966966.227     9394101.7352      -1252.891          33.250  
C10  38009643.067     2863379.3462      -1285.869          35.500  
C 3  36293944.796    -6943978.9652        340.049          42.500  
C13  37064436.488    -6792942.9212        461.240          45.250  
C 2  37288633.322    -7404281.9542        380.771          38.500  
C 1  37728014.151    -6544541.2522        345.918          41.250  
C 4  38667037.486    -6549329.4692        329.863          38.000  
G 2  21765144.135   -23135359.968        1018.223          48.000  
C 5  39343820.047    -7170594.7222        370.762          35.750  
C12  22013897.997   -26102838.6832       1784.834          47.000  
G19  21697505.150   -18282537.855       -2123.516          42.750  
G 6  21918755.823   -21259672.077        -597.646          46.500  
C22  22863502.100   -27207658.5152      -1563.467          50.000  
G12  22400553.761   -17214757.522        -539.287          42.750  
G 5  20660701.780   -28231341.197        1427.529          45.500  
> 2020  6 29  8 15 58.0000000  0 23                     
C21  21958741.113   -16512791.4482       1409.609          47.750  
C16  38702256.597   -16656602.1282       2025.039          37.750  
G17  22955079.382    -4428778.364       -2489.141          39.750  
G 9  23366084.364   -16771592.402       -1408.242          40.750  
C 6  38039428.787   -17606418.8572       1886.533          37.000  
C11  25870151.417    -6299082.8762       3114.023          37.750  
G25  23759579.633    -7783897.657         870.996          39.000  
C 8  37047062.244    -2474705.7552        499.404          45.000  
C 7  38967206.712     9395354.5812      -1252.812          33.000  
C10  38009889.944     2864665.2412      -1285.830          35.500  
C 3  36293879.406    -6944319.0262        340.068          42.500  
C13  37064347.763    -6793404.2842        461.387          45.250  
C 2  37288560.201    -7404662.7642        380.762          38.250  
C 1  37727947.614    -6544887.1962        345.957          41.250  
C 4  38666974.229    -6549659.3922        329.922          38.250  
G 2  21764950.477   -23136378.194        1018.213          48.000  
C 5  39343748.824    -7170965.4972        370.830          35.750  
C12  22013555.279   -26104623.4002       1784.639          47.000  
G19  21697909.017   -18280414.090       -2123.945          42.750  
G 6  21918869.564   -21259074.390        -597.734          46.250  
C22  22863802.305   -27206094.8452      -1563.789          50.000  
G12  22400656.382   -17214217.919        -539.756          42.750  
G 5  20660430.098   -28232768.459        1427.100          45.500  
> 2020  6 29  8 15 59.0000000  0 23                     
C21  21958470.364   -16514200.7062       1409.121          47.750  
C16  38701867.605   -16658627.2012       2025.078          37.500  
G17  22955553.216    -4426288.955       -2489.502          39.750  
G 9  23366352.422   -16770183.799       -1408.721          40.750  
C 6  38039066.464   -17608305.4692       1886.592          36.750  
C11  25869553.507    -6302196.9772       3114.072          38.000  
G25  23759413.843    -7784768.281         870.420          39.000  
C 8  37046966.486    -2475205.2162        499.492          45.000  
C 7  38967447.360     9396607.5052      -1252.871          33.000  
C10  38010136.926     2865951.1712      -1285.977          35.750  
C 3  36293814.356    -6944659.0722        340.029          42.500  
C13  37064259.024    -6793865.6912        461.465          45.250  
C 2  37288487.163    -7405043.5192        380.742          38.250  
C 1  37727881.285    -6545233.0942        345.889          41.250  
C 4  38666910.514    -6549989.2912        329.873          38.250  
G 2  21764756.723   -23137396.348        1018.154          48.000  
C 5  39343677.745    -7171336.2362        370.820          35.500  
C12  22013212.491   -26106407.8392       1784.385          47.000  
G19  21698313.208   -18278289.871       -2124.326          42.750  
G 6  21918983.261   -21258476.559        -597.861          46.250  
C22  22864102.619   -27204530.8002      -1564.150          50.000  
G12  22400759.386   -17213677.721        -540.371          42.750  
G 5  20660158.385   -28234195.207        1426.592          45.250  
> 2020  6 29  8 16  0.0000000  0 23                     
C21  21958199.864   -16515609.4312       1408.691          47.750  
C16  38701478.841   -16660652.1982       2025.156          37.750  
G17  22956026.907    -4423799.157       -2489.805          39.750  
G 9  23366620.261   -16768774.589       -1409.258          40.750  
C 6  38038704.032   -17610191.9652       1886.572          36.750  
C11  25868955.362    -6305311.1482       3114.346          38.000  
G25  23759248.336    -7785638.280         869.873          39.000  
C 8  37046870.541    -2475704.7162        499.619          45.000  
C 7  38967687.933     9397860.3832      -1252.871          33.250  
C10  38010383.825     2867237.1942      -1285.908          35.750  
C 3  36293749.031    -6944999.0802        340.146          42.500  
C13  37064170.604    -6794327.1532        461.543          45.250  
C 2  37288413.881    -7405424.2632        380.840          38.250  
C 1  37727814.700    -6545578.9712        345.967          41.250  
C 4  38666847.256    -6550319.1552        329.961          38.250  
G 2  21764562.964   -23138414.423        1018.174          48.000  
C 5  39343606.435    -7171706.9402        370.850          35.750  
C12  22012869.843   -26108191.9852       1784.170          47.000  
G19  21698717.416   -18276165.162       -2124.717          42.750  
G 6  21919096.940   -21257878.572        -597.920          46.250  
C22  22864403.195   -27202966.3642      -1564.463          50.000  
G12  22400862.128   -17213136.922        -540.850          42.750  
G 5  20659886.995   -28235621.423        1426.172          45.250  
> 2020  6 29  8 16  1.0000000  0 23                     
C21  21957929.302   -16517017.8462       1408.252          47.750  
C16  38701089.910   -16662677.3252       2025.127          37.750  
G17  22956500.615    -4421309.208       -2490.049          39.750  
G 9  23366888.431   -16767365.013       -1409.727          40.750  
C 6  38038341.660   -17612078.5752       1886.572          36.750  
C11  25868357.308    -6308425.5072       3114.385          38.000  
G25  23759082.847    -7786507.865         869.404          38.750  
C 8  37046774.508    -2476204.4732        499.775          45.000  
C 7  38967928.453     9399113.0692      -1252.656          33.000  
C10  38010630.955     2868523.1512      -1285.947          35.750  
C 3  36293683.675    -6945339.2372        340.186          42.500  
C13  37064081.795    -6794788.8582        461.758          45.250  
C 2  37288340.734    -7405805.1162        380.889          38.250  
C 1  37727748.254    -6545925.0002        346.025          41.250  
C 4  38666783.851    -6550649.1722        329.961          38.250  
G 2  21764369.123   -23139432.624        1018.203          48.000  
C 5  39343535.303    -7172077.7712        370.859          35.750  
C12  22012527.090   -26109976.0342       1783.975          47.000  
G19  21699122.013   -18274040.192       -2125.068          42.500  
G 6  21919210.563   -21257280.632        -597.979          46.250  
C22  22864703.688   -27201401.7402      -1564.746          50.000  
G12  22400965.037   -17212595.714        -541.377          42.750  
G 5  20659615.753   -28237047.336        1425.781          45.250  
> 2020  6 29  8 16  2.0000000  0 23                     
C21  21957658.972   -16518425.7062       1407.764          47.750  
C16  38700700.818   -16664702.3412       2025.059          37.750  
G17  22956974.567    -4418818.815       -2490.459          39.750  
G 9  23367156.715   -16765954.815       -1410.352          40.750  
C 6  38037979.267   -17613965.0682       1886.504          36.500  
C11  25867759.092    -6311539.8562       3114.346          38.000  
G25  23758917.332    -7787376.766         868.799          38.750  
C 8  37046678.488    -2476704.2562        499.844          45.000  
C 7  38968169.201     9400365.8392      -1252.744          33.250  
C10  38010877.862     2869809.2202      -1286.006          35.750  
C 3  36293618.333    -6945679.3002        340.098          42.500  
C13  37063993.200    -6795250.5862        461.807          45.250  
C 2  37288267.565    -7406185.9452        380.830          38.250  
C 1  37727681.877    -6546270.9572        346.006          41.250  
C 4  38666720.424    -6550979.1282        329.941          38.250  
G 2  21764175.613   -23140450.705        1018.115          48.000  
C 5  39343464.058    -7172448.5712        370.801          35.750  
C12  22012184.468   -26111759.7652       1783.672          47.000  
G19  21699526.439   -18271914.699       -2125.615          42.500  
G 6  21919324.443   -21256682.510        -598.115          46.250  
C22  22865004.259   -27199836.6902      -1565.117          50.000  
G12  22401068.120   -17212053.862        -542.002          42.750  
G 5  20659344.681   -28238472.693        1425.264          45.250  
> 2020  6 29  8 16  3.0000000  0 23                     
C21  21957388.490   -16519833.0652       1407.246          47.750  
C16  38700312.137   -16666727.3102       2024.980          37.750  
G17  22957448.519    -4416328.051       -2490.859          39.750  
G 9  23367425.021   -16764544.088       -1410.840          40.750  
C 6  38037617.236   -17615851.5122       1886.484          36.750  
C11  25867161.161    -6314654.2632       3114.443          38.000  
G25  23758751.934    -7788245.104         868.154          38.750  
C 8  37046582.525    -2477204.1392        499.941          45.000  
C 7  38968409.927     9401618.5812      -1252.695          33.250  
C10  38011124.883     2871095.3292      -1286.162          35.750  
C 3  36293553.152    -6946019.3712        340.098          42.500  
C13  37063904.457    -6795712.3792        461.846          45.250  
C 2  37288194.484    -7406566.7382        380.840          38.500  
C 1  37727615.266    -6546616.9022        345.986          41.250  
C 4  38666657.088    -6551309.0692        329.902          38.250  
G 2  21763981.763   -23141468.732        1018.047          47.750  
C 5  39343392.805    -7172819.3482        370.840          35.750  
C12  22011842.178   -26113543.2352       1783.418          47.000  
G19  21699931.088   -18269788.759       -2126.045          42.500  
G 6  21919438.358   -21256084.253        -598.262          46.250  
C22  22865304.848   -27198271.2722      -1565.498          50.000  
G12  22401171.281   -17211511.437        -542.588          42.500  
G 5  20659073.727   -28239897.553        1424.746          45.250  
> 2020  6 29  8 16  4.0000000  0 23                     
C21  21957118.513   -16521239.7262       1406.357          47.750  
C16  38699923.555   -16668752.0252       2024.609          37.500  
G17  22957922.262    -4413836.778       -2491.582          40.000  
G 9  23367693.541   -16763132.603       -1411.836          40.750  
C 6  38037255.040   -17617737.6652       1885.918          36.750  
C11  25866562.993    -6317768.5212       3114.053          38.000  
G25  23758586.707    -7789112.616         867.158          38.750  
C 8  37046486.544    -2477703.8792        499.600          45.000  
C 7  38968650.644     9402871.4812      -1252.939          33.250  
C10  38011372.244     2872381.7112      -1286.592          35.500  
C 3  36293487.736    -6946359.2132        339.629          42.500  
C13  37063815.841    -6796174.0272        461.494          45.250  
C 2  37288121.441    -7406947.2972        380.391          38.250  
C 1  37727549.064    -6546962.6332        345.547          41.250  
C 4  38666593.980    -6551638.7912        329.561          38.250  
G 2  21763788.000   -23142486.512        1017.598          48.000  
C 5  39343321.555    -7173189.9122        370.449          35.750  
C12  22011499.560   -26115326.2522       1782.773          47.000  
G19  21700335.662   -18267662.177       -2126.914          42.500  
G 6  21919552.448   -21255485.674        -598.779          46.500  
C22  22865605.659   -27196705.2872      -1566.270          50.000  
G12  22401274.726   -17210968.213        -543.594          42.500  
G 5  20658802.669   -28241321.715        1423.848          45.500  
> 2020  6 29  8 16  5.0000000  0 23                     
C21  21956848.388   -16522645.8942       1406.084          47.750  
C16  38699534.690   -16670776.6692       2024.658          37.500  
G17  22958396.241    -4411345.117       -2491.680          39.750  
G 9  23367962.243   -16761720.551       -1412.129          40.750  
C 6  38036892.826   -17619623.7652       1886.045          36.750  
C11  25865964.953    -6320882.8082       3114.414          38.000  
G25  23758421.794    -7789979.546         866.807          38.750  
C 8  37046390.507    -2478203.6822        499.893          45.000  
C 7  38968891.160     9404124.4682      -1252.920          33.250  
C10  38011619.392     2873668.1552      -1286.367          35.750  
C 3  36293422.293    -6946699.0412        339.883          42.500  
C13  37063727.154    -6796635.7552        461.826          45.250  
C 2  37288048.451    -7407327.8572        380.566          38.250  
C 1  37727482.740    -6547308.3362        345.703          41.250  
C 4  38666530.731    -6551968.4662        329.775          38.250  
G 2  21763594.263   -23143504.230        1017.773          48.000  
C 5  39343250.354    -7173560.4282        370.615          35.750  
C12  22011157.366   -26117108.9852       1782.715          47.000  
G19  21700740.328   -18265535.142       -2127.080          42.500  
G 6  21919666.319   -21254886.958        -598.691          46.500  
C22  22865906.531   -27195138.9392      -1566.387          50.000  
G12  22401378.144   -17210424.395        -543.945          42.750  
G 5  20658531.915   -28242745.389        1423.574          45.500  
> 2020  6 29  8 16  6.0000000  0 23                     
C21  21956578.398   -16524051.5892       1405.654          47.750  
C16  38699145.991   -16672801.3282       2024.814          37.750  
G17  22958870.520    -4408853.101       -2491.992          39.750  
G 9  23368231.099   -16760307.978       -1412.627          40.750  
C 6  38036530.755   -17621509.8242       1886.191          36.750  
C11  25865366.881    -6323997.1702       3114.482          38.000  
G25  23758256.872    -7790845.881         866.260          38.500  
C 8  37046294.649    -2478703.6012        500.068          45.000  
C 7  38969131.960     9405377.3682      -1252.783          33.500  
C10  38011866.255     2874954.6332      -1286.348          35.750  
C 3  36293357.025    -6947038.8662        339.941          42.500  
C13  37063638.302    -6797097.5872        461.914          45.250  
C 2  37287975.475    -7407708.4022        380.713          38.250  
C 1  37727416.495    -6547654.0672        345.850          41.250  
C 4  38666467.418    -6552298.1722        329.736          38.250  
G 2  21763400.527   -23144521.920        1017.793          48.000  
C 5  39343179.227    -7173930.9622        370.635          35.750  
C12  22010815.097   -26118891.4832       1782.559          47.000  
G19  21701145.339   -18263407.679       -2127.461          42.500  
G 6  21919780.051   -21254288.131        -598.760          46.500  
C22  22866207.421   -27193572.2412      -1566.699          50.000  
G12  22401481.681   -17209880.031        -544.424          42.500  
G 5  20658261.062   -28244168.591        1423.174          45.500  
> 2020  6 29  8 16  7.0000000  0 23                     
C21  21956308.382   -16525456.8612       1405.010          47.750  
C16  38698756.982   -16674825.9822       2024.600          37.750  
G17  22959344.778    -4406360.850       -2492.451          39.750  
G 9  23368500.055   -16758894.938       -1413.340          40.750  
C 6  38036168.506   -17623395.9172       1885.957          37.000  
C11  25864768.762    -6327111.6692       3114.355          38.000  
G25  23758091.958    -7791711.707         865.488          38.750  
C 8  37046198.677    -2479203.6862        500.000          45.000  
C 7  38969372.577     9406630.1672      -1252.910          33.250  
C10  38012113.473     2876241.1482      -1286.582          35.750  
C 3  36293291.936    -6947378.7642        339.844          42.500  
C13  37063549.721    -6797559.5552        461.885          45.250  
C 2  37287902.349    -7408089.0212        380.498          38.500  
C 1  37727350.136    -6547999.8592        345.664          41.250  
C 4  38666404.012    -6552627.9282        329.648          38.250  
G 2  21763206.916   -23145539.638        1017.607          47.750  
C 5  39343108.087    -7174301.5492        370.498          35.500  
C12  22010472.903   -26120673.7942       1782.139          47.000  
G19  21701550.389   -18261279.844       -2128.076          42.500  
G 6  21919894.380   -21253689.264        -599.014          46.250  
C22  22866508.271   -27192005.2552      -1567.217          50.000  
G12  22401585.488   -17209335.167        -545.127          42.500  
G 5  20657990.226   -28245591.363        1422.520          45.500  
> 2020  6 29  8 16  8.0000000  0 23                     
C21  21956038.619   -16526861.7152       1404.756          47.750  
C16  38698368.235   -16676850.6552       2024.678          37.750  
G17  22959819.323    -4403868.300       -2492.617          39.750  
G 9  23368768.884   -16757481.411       -1413.652          40.750  
C 6  38035806.392   -17625281.9922       1886.123          36.750  
C11  25864170.926    -6330226.2942       3114.678          38.000  
G25  23757927.289    -7792577.031         865.146          38.500  
C 8  37046102.574    -2479703.9002        500.303          45.000  
C 7  38969613.180     9407882.9012      -1252.646          33.500  
C10  38012360.598     2877527.6272      -1286.514          35.750  
C 3  36293226.829    -6947718.7062        340.000          42.500  
C13  37063460.860    -6798021.6722        462.178          45.250  
C 2  37287829.368    -7408469.6952        380.723          38.500  
C 1  37727283.629    -6548345.6842        345.869          41.250  
C 4  38666340.629    -6552957.7442        329.805          38.250  
G 2  21763013.254   -23146557.365        1017.764          47.750  
C 5  39343036.589    -7174672.2192        370.762          35.500  
C12  22010130.547   -26122455.9272       1782.109          47.000  
G19  21701955.391   -18259151.643       -2128.301          42.500  
G 6  21920008.212   -21253090.343        -598.936          46.250  
C22  22866809.253   -27190437.9822      -1567.354          50.250  
G12  22401689.417   -17208789.800        -545.479          42.500  
G 5  20657719.451   -28247013.718        1422.236          45.500  
> 2020  6 29  8 16  9.0000000  0 23                     
C21  21955768.931   -16528266.0542       1404.287          47.750  
C16  38697979.278   -16678875.3012       2024.668          37.750  
G17  22960293.908    -4401375.371       -2492.949          40.000  
G 9  23369037.940   -16756067.316       -1414.199          40.750  
C 6  38035444.231   -17627168.0112       1886.074          36.750  
C11  25863573.117    -6333340.9382       3114.805          38.250  
G25  23757762.276    -7793441.704         864.551          38.250  
C 8  37046006.524    -2480204.1822        500.400          45.000  
C 7  38969853.649     9409135.6812      -1252.676          33.500  
C10  38012607.480     2878814.1802      -1286.494          35.500  
C 3  36293161.473    -6948058.6222        340.029          42.500  
C13  37063372.056    -6798483.8712        462.305          45.250  
C 2  37287756.278    -7408850.3362        380.723          38.500  
C 1  37727217.139    -6548691.5012        345.869          41.250  
C 4  38666277.184    -6553287.5362        329.814          38.250  
G 2  21762819.683   -23147575.015        1017.725          47.750  
C 5  39342965.462    -7175042.8282        370.713          35.750  
C12  22009788.409   -26124237.7642       1781.855          47.000  
G19  21702360.332   -18257022.941       -2128.750          42.500  
G 6  21920122.311   -21252491.264        -599.004          46.250  
C22  22867110.369   -27188870.3322      -1567.666          50.250  
G12  22401793.080   -17208243.822        -546.084          42.500  
G 5  20657448.885   -28248435.557        1421.758          45.250  
> 2020  6 29  8 16 10.0000000  0 23                     
C21  21955499.189   -16529669.8982       1403.633          47.750  
C16  38697590.623   -16680899.8462       2024.492          37.750  
G17  22960768.371    -4398882.113       -2493.447          39.750  
G 9  23369307.158   -16754652.683       -1414.844          40.750  
C 6  38035082.204   -17629053.9312       1885.889          36.750  
C11  25862975.015    -6336455.6212       3114.619          38.000  
G25  23757597.720    -7794305.818         863.887          38.250  
C 8  37045910.369    -2480704.5522        500.342          45.000  
C 7  38970094.248     9410388.4362      -1252.891          33.500  
C10  38012854.658     2880100.8092      -1286.807          35.500  
C 3  36293095.965    -6948398.5062        339.814          42.500  
C13  37063283.330    -6798946.0892        462.188          45.250  
C 2  37287683.188    -7409230.9402        380.527          38.250  
C 1  37727150.671    -6549037.2982        345.742          41.250  
C 4  38666213.783    -6553617.3252        329.717          38.250  
G 2  21762625.986   -23148592.624        1017.520          47.750  
C 5  39342894.160    -7175413.4242        370.547          35.750  
C12  22009446.210   -26126019.3332       1781.426          47.000  
G19  21702765.396   -18254893.820       -2129.326          42.500  
G 6  21920236.348   -21251892.057        -599.336          46.500  
C22  22867411.551   -27187302.3082      -1568.193          50.250  
G12  22401896.957   -17207697.275        -546.807          42.500  
G 5  20657178.197   -28249856.921        1421.182          45.250  
> 2020  6 29  8 16 11.0000000  0 23                     
C21  21955229.680   -16531073.1762       1403.184          47.750  
C16  38697201.919   -16682924.2752       2024.482          37.750  
G17  22961242.842    -4396388.403       -2493.740          39.750  
G 9  23369576.314   -16753237.403       -1415.430          40.750  
C 6  38034720.064   -17630939.7402       1885.889          36.750  
C11  25862376.747    -6339570.2782       3114.717          38.000  
G25  23757433.309    -7795169.243         863.330          38.250  
C 8  37045814.139    -2481204.9312        500.430          45.000  
C 7  38970334.760     9411641.2112      -1252.744          33.500  
C10  38013101.940     2881387.5552      -1286.816          35.500  
C 3  36293030.645    -6948738.3082        339.854          42.500  
C13  37063194.460    -6799408.3182        462.285          45.250  
C 2  37287610.163    -7409611.4822        380.508          38.250  
C 1  37727084.234    -6549383.0162        345.732          41.250  
C 4  38666150.500    -6553946.9942        329.688          38.250  
G 2  21762432.127   -23149610.091        1017.490          47.750  
C 5  39342822.942    -7175783.9222        370.518          35.750  
C12  22009104.212   -26127800.5592       1781.211          47.000  
G19  21703170.729   -18252764.173       -2129.707          42.500  
G 6  21920350.498   -21251292.656        -599.375          46.250  
C22  22867712.637   -27185733.8432      -1568.525          50.250  
G12  22402001.170   -17207150.076        -547.295          42.500  
G 5  20656907.950   -28251277.707        1420.693          45.250  
> 2020  6 29  8 16 12.0000000  0 23                     
C21  21954960.388   -16532475.9532       1402.646          47.750  
C16  38696813.093   -16684948.6882       2024.414          37.750  
G17  22961717.213    -4393894.358       -2494.111          39.500  
G 9  23369845.794   -16751821.608       -1415.947          40.750  
C 6  38034357.902   -17632825.4852       1885.723          36.750  
C11  25861778.571    -6342684.9932       3114.717          38.000  
G25  23757269.024    -7796032.066         862.686          38.250  
C 8  37045717.989    -2481705.3912        500.527          45.000  
C 7  38970575.333     9412893.9982      -1252.646          33.500  
C10  38013348.966     2882674.3822      -1286.758          35.750  
C 3  36292965.603    -6949078.0952        339.795          42.500  
C13  37063105.826    -6799870.6352        462.334          45.250  
C 2  37287536.990    -7409992.0042        380.527          38.500  
C 1  37727017.857    -6549728.6982        345.732          41.250  
C 4  38666087.304    -6554276.6752        329.707          38.250  
G 2  21762238.800   -23150627.513        1017.441          48.000  
C 5  39342751.723    -7176154.4172        370.420          35.500  
C12  22008762.293   -26129581.5352       1780.898          47.000  
G19  21703575.967   -18250634.040       -2130.254          42.500  
G 6  21920464.601   -21250693.118        -599.551          46.500  
C22  22868013.920   -27184165.0182      -1568.936          50.250  
G12  22402105.339   -17206602.302        -547.920          42.750  
G 5  20656637.864   -28252698.005        1420.156          45.250  
> 2020  6 29  8 16 13.0000000  0 23                     
C21  21954690.878   -16533878.3232       1402.207          47.750  
C16  38696424.206   -16686973.0992       2024.375          37.750  
G17  22962191.707    -4391400.014       -2494.492          39.500  
G 9  23370115.299   -16750405.289       -1416.484          40.750  
C 6  38033995.797   -17634711.2632       1885.771          37.000  
C11  25861180.229    -6345799.8072       3114.834          38.000  
G25  23757104.891    -7796894.390         862.051          38.000  
C 8  37045622.091    -2482206.0042        500.625          45.000  
C 7  38970815.910     9414146.7292      -1252.705          33.500  
C10  38013595.991     2883961.1752      -1286.865          35.500  
C 3  36292900.418    -6949417.9512        339.834          42.500  
C13  37063017.009    -6800333.0992        462.441          45.250  
C 2  37287463.904    -7410372.5982        380.527          38.500  
C 1  37726951.568    -6550074.4752        345.791          41.250  
C 4  38666023.912    -6554606.4182        329.648          38.250  
G 2  21762045.255   -23151644.955        1017.402          48.000  
C 5  39342680.753    -7176525.0072        370.439          35.500  
C12  22008420.103   -26131362.3112       1780.664          47.000  
G19  21703981.811   -18248503.588       -2130.615          42.250  
G 6  21920578.555   -21250093.534        -599.648          46.500  
C22  22868315.329   -27182595.9082      -1569.248          50.250  
G12  22402209.700   -17206054.027        -548.438          42.500  
G 5  20656367.608   -28254117.887        1419.707          45.250  
> 2020  6 29  8 16 14.0000000  0 23                     
C21  21954421.691   -16535280.1232       1401.709          47.750  
C16  38696035.538   -16688997.4232       2024.355          37.750  
G17  22962666.601    -4388905.279       -2494.805          39.500  
G 9  23370384.875   -16748988.391       -1417.012          40.750  
C 6  38033633.557   -17636596.8822       1885.713          36.750  
C11  25860581.896    -6348914.6262       3114.922          38.250  
G25  23756940.911    -7797756.049         861.523          38.000  
C 8  37045525.980    -2482706.6132        500.693          45.000  
C 7  38971056.627     9415399.4902      -1252.754          33.500  
C10  38013843.156     2885248.1032      -1286.973          35.500  
C 3  36292835.290    -6949757.7002        339.775          42.500  
C13  37062928.384    -6800795.5742        462.549          45.250  
C 2  37287390.914    -7410753.1092        380.586          38.500  
C 1  37726885.170    -6550420.1492        345.752          41.250  
C 4  38665960.554    -6554936.0582        329.707          38.250  
G 2  21761851.532   -23152662.281        1017.354          48.000  
C 5  39342609.805    -7176895.4732        370.518          35.500  
C12  22008078.270   -26133142.7532       1780.420          47.000  
G19  21704387.197   -18246372.593       -2131.074          42.250  
G 6  21920692.802   -21249493.758        -599.746          46.500  
C22  22868616.659   -27181026.3652      -1569.580          50.250  
G12  22402314.144   -17205505.114        -549.004          42.500  
G 5  20656097.566   -28255537.207        1419.229          45.250  
> 2020  6 29  8 16 15.0000000  0 23                     
C21  21954152.635   -16536681.3932       1401.133          47.750  
C16  38695646.830   -16691021.6342       2024.219          37.750  
G17  22963141.509    -4386410.114       -2495.312          39.750  
G 9  23370654.568   -16747570.890       -1417.686          40.750  
C 6  38033271.530   -17638482.4012       1885.508          36.750  
C11  25859983.960    -6352029.4512       3114.795          38.250  
G25  23756777.019    -7798617.070         860.830          38.250  
C 8  37045429.724    -2483207.2602        500.654          44.750  
C 7  38971297.323     9416652.3032      -1252.744          33.250  
C10  38014090.268     2886535.1172      -1287.061          35.500  
C 3  36292769.917    -6950097.4102        339.707          42.500  
C13  37062839.571    -6801258.0902        462.559          45.250  
C 2  37287317.789    -7411133.5232        380.459          38.250  
C 1  37726818.659    -6550765.7772        345.625          41.250  
C 4  38665897.123    -6555265.6752        329.668          38.000  
G 2  21761658.039   -23153679.502        1017.217          48.000  
C 5  39342538.643    -7177265.9212        370.439          35.750  
C12  22007736.312   -26134922.9072       1780.078          47.000  
G19  21704792.758   -18244241.111       -2131.641          42.250  
G 6  21920806.970   -21248893.805        -600.000          46.500  
C22  22868918.125   -27179456.4172      -1570.039          50.250  
G12  22402418.941   -17204955.570        -549.707          42.500  
G 5  20655827.472   -28256955.995        1418.643          45.500  
> 2020  6 29  8 16 16.0000000  0 23                     
C21  21953883.757   -16538082.3122       1400.742          47.750  
C16  38695258.087   -16693045.9602       2024.238          37.500  
G17  22963616.220    -4383914.766       -2495.430          39.500  
G 9  23370924.274   -16746152.988       -1418.125          40.750  
C 6  38032909.168   -17640368.0212       1885.596          36.750  
C11  25859385.675    -6355144.4862       3115.000          38.000  
G25  23756613.188    -7799477.625         860.371          38.250  
C 8  37045333.552    -2483708.1442        500.840          45.000  
C 7  38971537.870     9417904.9422      -1252.617          33.000  
C10  38014337.411     2887822.0812      -1287.061          35.500  
C 3  36292704.609    -6950437.2442        339.795          42.500  
C13  37062750.701    -6801720.8092        462.725          45.250  
C 2  37287244.590    -7411514.1182        380.586          38.500  
C 1  37726752.361    -6551111.5222        345.703          41.250  
C 4  38665833.739    -6555595.3892        329.775          38.250  
G 2  21761464.368   -23154696.823        1017.275          48.000  
C 5  39342467.533    -7177636.4392        370.479          35.500  
C12  22007394.457   -26136702.9392       1779.922          47.000  
G19  21705198.327   -18242109.331       -2131.953          42.250  
G 6  21920921.234   -21248293.884        -599.961          46.500  
C22  22869219.664   -27177886.2512      -1570.293          50.250  
G12  22402523.760   -17204405.607        -550.166          42.500  
G 5  20655557.500   -28258374.426        1418.262          45.250  
> 2020  6 29  8 16 17.0000000  0 23                     
C21  21953614.784   -16539482.7792       1400.332          47.500  
C16  38694869.161   -16695070.2522       2024.326          37.500  
G17  22964091.171    -4381419.093       -2495.762          39.750  
G 9  23371193.980   -16744734.589       -1418.525          40.750  
C 6  38032546.932   -17642253.6192       1885.566          36.750  
C11  25858787.573    -6358259.5712       3115.127          38.000  
G25  23756449.457    -7800337.636         859.844          38.000  
C 8  37045237.244    -2484209.1332        501.016          45.000  
C 7  38971778.425     9419157.5582      -1252.695          33.000  
C10  38014584.445     2889109.0532      -1286.963          35.500  
C 3  36292639.254    -6950777.1002        339.844          42.500  
C13  37062661.797    -6802183.6362        462.842          45.250  
C 2  37287171.408    -7411894.7412        380.723          38.500  
C 1  37726686.042    -6551457.3102        345.771          41.250  
C 4  38665770.312    -6555925.1372        329.785          38.000  
G 2  21761270.841   -23155714.135        1017.314          48.000  
C 5  39342396.183    -7178007.0062        370.557          35.500  
C12  22007052.852   -26138482.7342       1779.736          47.000  
G19  21705603.944   -18239977.138       -2132.285          42.250  
G 6  21921035.371   -21247693.860        -600.029          46.500  
C22  22869521.239   -27176315.7672      -1570.576          50.250  
G12  22402628.457   -17203855.104        -550.693          42.500  
G 5  20655287.793   -28259792.418        1417.832          45.250  
> 2020  6 29  8 16 18.0000000  0 23                     
C21  21953345.920   -16540882.8272       1400.078          47.750  
C16  38694480.414   -16697094.5972       2024.561          37.500  
G17  22964566.193    -4378923.131       -2495.928          39.750  
G 9  23371463.931   -16743315.701       -1418.857          40.750  
C 6  38032184.966   -17644139.2162       1885.801          37.000  
C11  25858189.415    -6361374.8052       3115.430          38.000  
G25  23756285.765    -7801197.127         859.502          38.000  
C 8  37045141.076    -2484710.2992        501.357          45.000  
C 7  38972019.081     9420410.0452      -1252.295          33.250  
C10  38014831.567     2890395.9962      -1286.826          35.750  
C 3  36292573.990    -6951117.0282        340.107          42.500  
C13  37062572.748    -6802646.6352        463.184          45.250  
C 2  37287098.466    -7412275.3812        380.869          38.500  
C 1  37726619.465    -6551803.1952        346.104          41.250  
C 4  38665707.020    -6556254.9662        330.010          38.250  
G 2  21761077.318   -23156731.474        1017.529          47.750  
C 5  39342325.183    -7178377.6812        370.830          35.500  
C12  22006711.233   -26140262.3492       1779.707          47.000  
G19  21706009.522   -18237844.583       -2132.490          42.250  
G 6  21921149.313   -21247093.798        -599.883          46.500  
C22  22869822.958   -27174745.0012      -1570.684          50.250  
G12  22402733.219   -17203304.112        -550.928          42.500  
G 5  20655017.764   -28261209.998        1417.627          45.250  
> 2020  6 29  8 16 19.0000000  0 23                     
C21  21953076.881   -16542282.4142       1399.355          47.500  
C16  38694091.544   -16699118.9502       2024.268          37.500  
G17  22965041.105    -4376426.900       -2496.338          39.750  
G 9  23371734.003   -16741896.314       -1419.590          40.750  
C 6  38031823.014   -17646024.8352       1885.576          37.000  
C11  25857590.872    -6364490.1362       3115.371          38.000  
G25  23756122.361    -7802056.075         858.711          38.000  
C 8  37045044.751    -2485211.5772        501.250          45.000  
C 7  38972259.536     9421662.5302      -1252.617          33.250  
C10  38015078.666     2891682.9882      -1287.100          35.750  
C 3  36292508.792    -6951456.9642        339.863          42.500  
C13  37062483.826    -6803109.7512        463.086          45.250  
C 2  37287025.293    -7412656.0792        380.635          38.250  
C 1  37726552.809    -6552149.0602        345.811          41.250  
C 4  38665643.785    -6556584.8102        329.814          38.250  
G 2  21760883.782   -23157748.785        1017.246          47.750  
C 5  39342254.038    -7178748.3612        370.635          35.750  
C12  22006369.419   -26142041.7472       1779.297          47.000  
G19  21706415.449   -18235711.621       -2133.135          42.250  
G 6  21921263.738   -21246493.642        -600.273          46.500  
C22  22870124.654   -27173173.9052      -1571.270          50.250  
G12  22402838.361   -17202752.565        -551.738          42.500  
G 5  20654748.206   -28262627.124        1416.924          45.250  
