     3.02           OBSERVATION DATA    M: Mixed            RINEX VERSION / TYPE
RTKCONV 2.4.3 b33                       20200930 090105 UTC PGM / RUN BY / DATE 
log: C:\Users\204\Desktop\b.txt                             COMMENT             
format: u-blox                                              COMMENT             
                                                            MARKER NAME         
                                                            MARKER NUMBER       
                                                            MARKER TYPE         
                                                            OBSERVER / AGENCY   
                                                            REC # / TYPE / VERS 
                                                            ANT # / TYPE        
 -2191140.6783  5198848.5719  2965383.0452                  APPROX POSITION XYZ 
        0.0000        0.0000        0.0000                  ANTENNA: DELTA H/E/N
G    4 C1C L1C D1C S1C                                      SYS / # / OBS TYPES 
C    4 C1I L1I D1I S1I                                      SYS / # / OBS TYPES 
  2020     9    30     8    30    0.0000000     GPS         TIME OF FIRST OBS   
  2020     9    30     8    31   34.0000000     GPS         TIME OF LAST OBS    
G                                                           SYS / PHASE SHIFT   
C                                                           SYS / PHASE SHIFT   
  0                                                         GLONASS SLOT / FRQ #
 C1C    0.000 C1P    0.000 C2C    0.000 C2P    0.000        GLONASS COD/PHS/BIS 
                                                            END OF HEADER       
> 2020  9 30  8 30  0.0000000  0 28                     
G10  21724674.209    -4677480.549        2758.486          46.750  
G15  23524606.496     3234231.033       -2010.342          42.250  
G18  21599251.049     3346620.745       -2420.781          45.000  
G20  19896085.943    -2049689.549         877.646          43.500  
G23  20298961.039    -2363383.834        1147.314          46.500  
G24  21010117.738     2542727.090       -1977.090          47.250  
G25  23795977.624    -5493217.156        3449.854          38.500  
C 6  36719697.076      -17393.8632         40.645          46.000  
C11  25993845.200      -78020.2642       -320.762          38.500  
C13  36087850.239     1040530.5772       -796.035          45.500  
C16  36641081.349       -5911.4512         23.828          46.750  
C21  22670528.850    -2668294.2072       1575.088          49.500  
C19  26465304.852     2604051.4722      -1720.371          40.500  
C26  23787314.464    -5735294.0462       3405.410          44.250  
C 9  36664017.183     -139270.7842         79.707          43.000  
C22  23057953.506      546420.2102       -497.676          48.500  
C 4  38752475.418     -474978.2323        308.242          34.500  
C10  40559045.873    -1852274.0852       1420.801          36.000  
C 2  37077711.850     -524694.3292        313.672          41.500  
C 3  36360946.652     -479846.5012        287.568          43.500  
G32  23127238.741    -3472294.361        2040.449          44.750  
C 8  37455598.410     1781372.8112      -1224.463          41.500  
C 5  39042757.714     -520745.0222        311.104          36.500  
C12  25192799.027     2841532.7912      -1885.674          35.000  
C 1  37554501.340     -543702.8292        330.537          38.500  
C 7  39462461.765    -2726308.9682       1776.553          38.500  
G12  23144068.376    -4216197.634        2642.256          35.500  
G21  25210335.397    -3688363.773        2623.037          37.250  
> 2020  9 30  8 30  1.0000000  0 28                     
G10  21724149.097    -4680238.812        2758.223          47.000  
G15  23524989.197     3236241.476       -2010.420          42.250  
G18  21599711.734     3349041.876       -2421.221          45.000  
G20  19895919.014    -2050566.773         877.109          43.500  
G23  20298742.894    -2364530.770        1146.855          46.500  
G24  21010493.947     2544704.605       -1977.617          47.250  
G25  23795321.095    -5496666.969        3449.941          38.500  
C 6  36719688.647      -17434.4122         40.605          46.000  
C11  25993906.730      -77699.0562       -321.299          38.500  
C13  36088003.382     1041326.9072       -796.318          45.500  
C16  36641076.812       -5935.1962         23.809          46.750  
C21  22670226.124    -2669869.1282       1574.932          49.500  
C19  26465635.045     2605772.0572      -1720.596          40.500  
C26  23786660.761    -5738699.1882       3405.127          44.500  
C 9  36664001.809     -139350.3942         79.619          43.000  
C22  23058049.256      546918.1092       -497.930          48.500  
C 4  38752416.192     -475286.3782        308.076          34.500  
C10  40558773.038    -1853694.8722       1420.918          36.000  
C 2  37077651.612     -525007.9142        313.643          41.500  
C 3  36360891.475     -480133.9222        287.490          43.500  
G32  23126850.561    -3474334.590        2040.254          45.000  
C 8  37455833.813     1782597.4482      -1224.668          41.250  
C 5  39042698.017     -521056.0172        310.986          36.500  
C12  25193161.381     2843418.6362      -1885.811          35.250  
C 1  37554437.822     -544033.2732        330.449          38.250  
C 7  39462120.718    -2728085.4632       1776.455          38.250  
G12  23143565.688    -4218839.714        2642.119          35.500  
G21  25209836.321    -3690986.466        2622.607          37.500  
> 2020  9 30  8 30  2.0000000  0 28                     
G10  21723624.143    -4682996.900        2758.057          46.750  
G15  23525371.810     3238251.902       -2010.420          42.250  
G18  21600172.664     3351463.365       -2421.562          45.250  
G20  19895752.295    -2051443.525         876.631          43.500  
G23  20298524.801    -2365677.316        1146.465          46.500  
G24  21010870.331     2546682.586       -1978.115          47.250  
G25  23794664.705    -5500116.814        3449.863          38.500  
C 6  36719680.516      -17475.0382         40.674          46.000  
C11  25993968.556      -77377.4402       -321.748          38.750  
C13  36088156.263     1042123.4022       -796.543          45.500  
C16  36641071.211       -5958.9862         23.848          46.750  
C21  22669923.851    -2671443.9822       1574.854          49.500  
C19  26465965.430     2607492.7422      -1720.732          40.750  
C26  23786006.797    -5742104.1582       3404.912          44.500  
C 9  36663986.750     -139430.0132         79.629          42.750  
C22  23058144.918      547416.1962       -498.125          48.500  
C 4  38752356.914     -475594.5722        308.154          34.500  
C10  40558500.117    -1855115.7732       1420.938          35.750  
C 2  37077591.287     -525321.5042        313.604          41.500  
C 3  36360836.297     -480421.3592        287.490          43.500  
G32  23126462.468    -3476374.726        2040.137          45.000  
C 8  37456069.007     1783822.2212      -1224.775          41.250  
C 5  39042638.215     -521367.0502        311.084          36.250  
C12  25193523.491     2845304.5012      -1885.820          35.000  
C 1  37554374.268     -544363.7352        330.469          38.250  
C 7  39461779.462    -2729862.0282       1776.592          38.250  
G12  23143062.895    -4221481.487        2641.709          35.500  
G21  25209337.157    -3693608.823        2622.305          37.500  
> 2020  9 30  8 30  3.0000000  0 28                     
G10  21723099.327    -4685754.926        2757.891          46.500  
G15  23525754.372     3240262.201       -2010.371          42.250  
G18  21600633.472     3353885.103       -2421.924          45.250  
G20  19895585.436    -2052319.878         876.094          43.500  
G23  20298306.604    -2366823.577        1146.074          46.500  
G24  21011246.836     2548660.865       -1978.496          47.250  
G25  23794008.001    -5503566.809        3449.893          38.250  
C 6  36719673.099      -17515.8482         40.732          46.000  
C11  25994030.364      -77055.5502       -322.041          38.750  
C13  36088309.232     1042919.9112       -796.650          45.500  
C16  36641065.592       -5982.9562         23.887          46.750  
C21  22669621.282    -2673018.8472       1574.736          49.500  
C19  26466295.868     2609213.4432      -1720.859          40.750  
C26  23785353.007    -5745509.0462       3404.727          44.500  
C 9  36663971.114     -139509.7732         79.648          43.000  
C22  23058240.615      547914.3652       -498.330          48.500  
C 4  38752297.792     -475902.8892        308.242          34.250  
C10  40558227.196    -1856536.8862       1421.016          35.750  
C 2  37077531.119     -525635.1982        313.564          41.500  
C 3  36360780.945     -480708.9082        287.451          43.500  
G32  23126074.201    -3478414.880        2040.020          45.000  
C 8  37456304.079     1785046.9902      -1224.912          41.250  
C 5  39042578.483     -521678.1422        311.025          36.250  
C12  25193885.932     2847190.3552      -1885.928          35.000  
C 1  37554310.679     -544694.3162        330.439          38.250  
C 7  39461438.188    -2731638.7562       1776.621          38.250  
G12  23142560.364    -4224123.158        2641.572          35.750  
G21  25208837.994    -3696230.999        2622.031          37.250  
> 2020  9 30  8 30  4.0000000  0 28                     
G10  21722574.303    -4688512.793        2757.695          46.750  
G15  23526137.160     3242272.494       -2010.410          42.500  
G18  21601094.647     3356307.201       -2422.314          45.250  
G20  19895418.594    -2053195.765         875.586          43.500  
G23  20298088.511    -2367969.430        1145.596          46.500  
G24  21011623.430     2550639.579       -1978.965          47.250  
G25  23793351.419    -5507016.894        3450.020          38.250  
C 6  36719665.945      -17556.7192         40.762          46.000  
C11  25994092.260      -76733.2252       -322.627          39.000  
C13  36088462.305     1043716.5992       -796.865          45.750  
C16  36641060.898       -6006.9802         23.906          46.750  
C21  22669318.852    -2674593.6412       1574.668          49.500  
C19  26466626.357     2610934.2852      -1720.957          41.000  
C26  23784699.426    -5748913.7512       3404.531          44.500  
C 9  36663955.828     -139589.5692         79.688          43.000  
C22  23058336.312      548412.7332       -498.525          48.500  
C 4  38752238.409     -476211.2282        308.174          34.500  
C10  40557954.204    -1857958.1952       1421.270          35.500  
C 2  37077470.968     -525948.9212        313.594          41.750  
C 3  36360725.820     -480996.4842        287.461          43.500  
G32  23125686.020    -3480454.936        2039.932          45.250  
C 8  37456539.238     1786271.8722      -1225.010          41.250  
C 5  39042518.646     -521989.3132        311.113          36.500  
C12  25194248.390     2849076.2622      -1885.986          35.250  
C 1  37554247.091     -545024.9182        330.508          38.000  
C 7  39461096.931    -2733415.5352       1776.680          38.250  
G12  23142057.850    -4226764.584        2641.182          35.750  
G21  25208338.935    -3698852.859        2621.660          37.500  
> 2020  9 30  8 30  5.0000000  0 28                     
G10  21722049.662    -4691270.493        2757.686          46.750  
G15  23526520.017     3244282.757       -2010.244          42.500  
G18  21601555.838     3358729.626       -2422.510          45.250  
G20  19895251.944    -2054071.188         875.312          43.750  
G23  20297870.348    -2369114.935        1145.420          46.500  
G24  21012000.215     2552618.697       -1979.209          47.500  
G25  23792694.837    -5510467.014        3450.156          38.000  
C 6  36719657.778      -17597.6892         41.035          46.000  
C11  25994154.104      -76410.5502       -322.783          39.000  
C13  36088615.396     1044513.4142       -796.826          45.500  
C16  36641056.780       -6031.0792         24.102          46.750  
C21  22669016.440    -2676168.3612       1574.697          49.500  
C19  26466956.760     2612655.2072      -1720.967          41.000  
C26  23784045.846    -5752318.3032       3404.531          44.500  
C 9  36663940.437     -139669.3862         79.854          43.000  
C22  23058431.974      548911.2622       -498.564          48.500  
C 4  38752179.393     -476519.5762        308.457          34.250  
C10  40557681.091    -1859379.5512       1421.406          35.500  
C 2  37077410.572     -526262.6992        313.838          41.500  
C 3  36360670.555     -481284.1112        287.686          43.750  
G32  23125298.067    -3482494.928        2039.980          45.250  
C 8  37456774.258     1787496.8422      -1225.020          41.250  
C 5  39042458.844     -522300.4772        311.123          36.250  
C12  25194610.849     2850962.2182      -1886.025          35.500  
C 1  37554183.572     -545355.5652        330.645          38.250  
C 7  39460755.849    -2735192.4122       1776.865          38.250  
G12  23141555.318    -4229405.782        2641.104          35.750  
G21  25207840.120    -3701474.437        2621.484          37.250  
> 2020  9 30  8 30  6.0000000  0 28                     
G10  21721524.812    -4694028.004        2757.500          46.750  
G15  23526902.596     3246293.059       -2010.273          42.500  
G18  21602017.170     3361152.463       -2422.920          45.500  
G20  19895085.609    -2054946.068         874.775          43.500  
G23  20297652.465    -2370259.975        1144.961          46.500  
G24  21012376.895     2554598.313       -1979.688          47.500  
G25  23792038.395    -5513917.110        3450.068          38.000  
C 6  36719649.489      -17638.6682         41.035          46.000  
C11  25994216.244      -76087.4032       -323.203          38.750  
C13  36088768.417     1045310.4442       -797.021          45.500  
C16  36641052.661       -6055.1922         24.141          46.500  
C21  22668714.097    -2677742.9512       1574.600          49.500  
C19  26467287.302     2614376.3012      -1721.094          41.000  
C26  23783392.266    -5755722.6092       3404.277          44.750  
C 9  36663925.063     -139749.1882         79.834          43.000  
C22  23058527.810      549410.0292       -498.760          48.500  
C 4  38752120.167     -476827.9012        308.486          34.250  
C10  40557408.013    -1860801.0152       1421.494          35.250  
C 2  37077350.317     -526576.4152        313.799          41.500  
C 3  36360615.360     -481571.6552        287.568          43.500  
G32  23124910.027    -3484534.774        2039.834          45.250  
C 8  37457009.417     1788722.0202      -1225.137          41.250  
C 5  39042399.182     -522611.6112        311.191          36.250  
C12  25194973.115     2852848.3022      -1886.025          35.250  
C 1  37554120.158     -545686.1502        330.596          38.250  
C 7  39460414.506    -2736969.3082       1776.973          38.250  
G12  23141052.543    -4232046.704        2640.947          35.500  
G21  25207341.271    -3704095.689        2621.143          37.000  
> 2020  9 30  8 30  7.0000000  0 28                     
G10  21721000.432    -4696785.274        2757.227          46.750  
G15  23527285.122     3248303.386       -2010.283          42.500  
G18  21602478.205     3363575.697       -2423.330          45.250  
G20  19894919.186    -2055820.437         874.287          43.750  
G23  20297434.738    -2371404.596        1144.541          46.500  
G24  21012753.802     2556578.395       -1980.205          47.500  
G25  23791381.638    -5517367.248        3450.205          38.000  
C 6  36719641.444      -17679.6942         41.064          46.000  
C11  25994278.402      -75763.8222       -323.643          38.750  
C13  36088921.525     1046107.6962       -797.256          45.500  
C16  36641048.718       -6079.3182         24.150          46.750  
C21  22668411.563    -2679317.4312       1574.482          49.250  
C19  26467617.687     2616097.5542      -1721.201          41.000  
C26  23782738.354    -5759126.7012       3404.033          44.500  
C 9  36663910.161     -139828.9872         79.854          42.750  
C22  23058623.577      549909.0322       -499.053          48.500  
C 4  38752060.906     -477136.2002        308.271          34.500  
C10  40557134.725    -1862222.5522       1421.582          35.000  
C 2  37077289.939     -526890.1072        313.750          41.500  
C 3  36360560.217     -481859.2092        287.578          43.500  
G32  23124522.091    -3486574.482        2039.678          45.250  
C 8  37457244.733     1789947.3212      -1225.332          41.250  
C 5  39042339.275     -522922.7172        311.172          36.250  
C12  25195335.155     2854734.5032      -1886.162          35.000  
C 1  37554056.656     -546016.7332        330.586          38.250  
C 7  39460073.197    -2738746.2412       1776.982          38.250  
G12  23140549.819    -4234687.335        2640.615          35.750  
G21  25206842.334    -3706716.569        2620.781          37.250  
> 2020  9 30  8 30  8.0000000  0 28                     
G10  21720475.827    -4699542.458        2756.953          46.750  
G15  23527667.561     3250313.646       -2010.479          42.500  
G18  21602939.553     3365999.211       -2423.760          45.250  
G20  19894752.921    -2056694.391         873.682          43.750  
G23  20297216.838    -2372548.887        1143.994          46.250  
G24  21013130.814     2558558.819       -1980.703          47.500  
G25  23790725.039    -5520817.480        3450.039          38.000  
C 6  36719634.185      -17720.8472         41.045          46.000  
C11  25994340.594      -75439.8952       -324.160          38.750  
C13  36089074.773     1046905.0342       -797.549          45.500  
C16  36641044.407       -6103.5812         24.141          46.750  
C21  22668109.151    -2680891.8922       1574.277          49.250  
C19  26467948.403     2617818.8682      -1721.523          41.000  
C26  23782084.511    -5762530.6932       3403.779          44.500  
C 9  36663894.822     -139908.8922         79.766          43.000  
C22  23058719.553      550408.1452       -499.326          48.500  
C 4  38752001.819     -477444.5832        308.271          34.500  
C10  40556861.489    -1863644.2822       1421.641          35.000  
C 2  37077229.666     -527203.8902        313.633          41.500  
C 3  36360505.005     -482146.8572        287.500          43.500  
G32  23124133.789    -3488614.161        2039.492          45.250  
C 8  37457480.032     1791172.6732      -1225.547          41.250  
C 5  39042279.665     -523233.8772        311.016          36.250  
C12  25195697.456     2856620.6772      -1886.318          35.250  
C 1  37553993.207     -546347.3742        330.498          38.250  
C 7  39459731.993    -2740523.2782       1776.885          38.250  
G12  23140047.585    -4237327.761        2640.186          36.000  
G21  25206343.415    -3709337.260        2620.420          37.000  
> 2020  9 30  8 30  9.0000000  0 28                     
G10  21719951.064    -4702299.475        2757.012          46.750  
G15  23528050.070     3252323.859       -2010.195          42.250  
G18  21603400.518     3368423.087       -2423.936          45.250  
G20  19894586.812    -2057567.846         873.350          43.750  
G23  20296999.007    -2373692.792        1143.838          46.500  
G24  21013507.722     2560539.638       -1980.908          47.500  
G25  23790068.527    -5524267.772        3450.332          38.500  
C 6  36719626.612      -17762.0702         41.299          46.000  
C11  25994402.944      -75115.5972       -324.375          38.750  
C13  36089227.916     1047702.5072       -797.461          45.500  
C16  36641039.661       -6127.9012         24.355          46.750  
C21  22667806.564    -2682466.2732       1574.404          49.250  
C19  26468278.963     2619540.2862      -1721.406          41.000  
C26  23781430.599    -5765934.4972       3403.789          44.500  
C 9  36663879.658     -139988.7942         79.941          43.000  
C22  23058815.599      550907.4422       -499.297          48.500  
C 4  38751942.593     -477752.9942        308.496          34.500  
C10  40556588.324    -1865066.1292       1421.885          34.750  
C 2  37077169.428     -527517.6812        313.867          41.500  
C 3  36360449.583     -482434.5112        287.754          43.500  
G32  23123745.644    -3490653.764        2039.648          45.250  
C 8  37457715.488     1792398.1402      -1225.449          41.500  
C 5  39042219.793     -523545.1052        311.201          36.250  
C12  25196059.845     2858506.9442      -1886.318          34.750  
C 1  37553929.846     -546678.0762        330.742          38.250  
C 7  39459390.649    -2742300.4182       1777.227          38.500  
G12  23139545.140    -4239967.964        2640.117          35.750  
G21  25205844.653    -3711957.587        2620.303          37.000  
> 2020  9 30  8 30 10.0000000  0 28                     
G10  21719426.458    -4705056.384        2756.973          47.000  
G15  23528432.491     3254334.010       -2010.039          42.500  
G18  21603861.780     3370847.254       -2424.209          45.250  
G20  19894420.721    -2058440.883         872.979          43.750  
G23  20296781.542    -2374836.366        1143.545          46.500  
G24  21013884.699     2562520.845       -1981.240          47.500  
G25  23789412.224    -5527718.154        3450.449          38.750  
C 6  36719618.026      -17803.4262         41.426          46.000  
C11  25994465.171      -74790.9432       -324.629          38.750  
C13  36089380.902     1048500.0922       -797.529          45.500  
C16  36641034.094       -6152.3452         24.551          46.750  
C21  22667504.064    -2684040.6442       1574.434          49.250  
C19  26468609.644     2621261.7582      -1721.445          41.250  
C26  23780776.897    -5769338.1762       3403.711          44.500  
C 9  36663864.249     -140068.8272         80.098          43.000  
C22  23058911.366      551406.8772       -499.414          48.750  
C 4  38751883.367     -478061.4492        308.457          34.500  
C10  40556315.088    -1866488.1592       1422.148          34.750  
C 2  37077109.137     -527831.5472        313.926          41.500  
C 3  36360394.126     -482722.2262        287.783          43.500  
G32  23123357.463    -3492693.337        2039.658          45.000  
C 8  37457950.908     1793623.6512      -1225.449          41.250  
C 5  39042159.887     -523856.3742        311.338          36.250  
C12  25196421.954     2860393.2202      -1886.221          34.500  
C 1  37553866.222     -547008.8122        330.840          38.250  
C 7  39459049.462    -2744077.6592       1777.354          38.500  
G12  23139042.871    -4242607.973        2640.049          36.000  
G21  25205346.048    -3714577.724        2620.098          37.250  
> 2020  9 30  8 30 11.0000000  0 28                     
G10  21718901.695    -4707813.159        2756.699          47.000  
G15  23528815.105     3256344.117       -2010.146          42.250  
G18  21604323.077     3373271.731       -2424.648          45.250  
G20  19894254.734    -2059313.494         872.422          43.500  
G23  20296563.973    -2375979.601        1143.047          46.250  
G24  21014262.060     2564502.417       -1981.768          47.500  
G25  23788755.904    -5531168.636        3450.479          38.500  
C 6  36719609.476      -17844.9042         41.416          46.000  
C11  25994527.608      -74465.9132       -325.166          38.750  
C13  36089534.185     1049297.7922       -797.793          45.500  
C16  36641028.301       -6176.8922         24.521          46.750  
C21  22667201.914    -2685614.9732       1574.229          49.250  
C19  26468940.152     2622983.2982      -1721.631          41.250  
C26  23780123.351    -5772741.7402       3403.457          44.500  
C 9  36663848.823     -140148.9082         80.010          43.000  
C22  23059007.395      551906.4482       -499.688          48.750  
C 4  38751824.019     -478369.9762        308.252          34.250  
C10  40556041.765    -1867910.3612       1422.129          34.500  
C 2  37077049.109     -528145.4892        313.867          41.500  
C 3  36360339.018     -483010.0472        287.764          43.500  
G32  23122969.179    -3494732.845        2039.404          45.000  
C 8  37458186.329     1794849.2342      -1225.674          41.250  
C 5  39042100.451     -524167.7062        311.328          36.250  
C12  25196783.942     2862279.4992      -1886.387          34.000  
C 1  37553802.738     -547339.6302        330.732          38.250  
C 7  39458708.276    -2745855.0142       1777.334          38.250  
G12  23138540.479    -4245247.796        2639.707          36.000  
G21  25204847.443    -3717197.562        2619.668          37.500  
> 2020  9 30  8 30 12.0000000  0 27                     
G10  21718377.211    -4710569.875        2756.777          46.750  
G15  23529197.561     3258354.102       -2009.863          42.250  
G18  21604784.181     3375696.456       -2424.756          45.000  
G20  19894088.783    -2060185.720         872.178          43.500  
G23  20296346.543    -2377122.539        1142.891          46.250  
G24  21014639.089     2566484.313       -1981.963          47.500  
G25  23788099.567    -5534619.269        3450.752          38.750  
C 6  36719601.588      -17886.5682         41.758          46.000  
C11  25994590.115      -74140.5972       -325.361          38.750  
C13  36089687.397     1050095.5032       -797.666          45.500  
C16  36641023.607       -6201.6112         24.834          46.750  
C21  22666899.467    -2687189.3312       1574.414          49.250  
C19  26469270.781     2624704.8642      -1721.504          41.000  
C26  23779469.910    -5776145.2082       3403.496          44.500  
C 9  36663833.729     -140229.1462         80.352          43.000  
C22  23059103.197      552406.0992       -499.619          48.750  
C10  40555768.722    -1869332.7892       1422.549          34.250  
C 2  37076988.783     -528459.5342        314.131          41.750  
C 3  36360283.875     -483297.9412        287.988          43.750  
G32  23122581.086    -3496772.405        2039.629          45.000  
C 8  37458421.663     1796074.8542      -1225.576          41.250  
C 5  39042040.614     -524479.1802        311.533          36.500  
C12  25197145.720     2864165.7292      -1886.201          33.750  
C 1  37553739.342     -547670.5832        331.025          38.250  
C 7  39458367.037    -2747632.5402       1777.598          38.250  
G12  23138038.454    -4247887.466        2639.619          36.000  
G21  25204349.152    -3719817.246        2619.727          37.250  
> 2020  9 30  8 30 13.0000000  0 28                     
G10  21717852.762    -4713326.233        2756.270          46.750  
G15  23529579.686     3260364.244       -2010.107          42.000  
G18  21605245.478     3378121.723       -2425.400          45.000  
G20  19893922.866    -2061057.279         871.377          43.500  
G23  20296129.096    -2378264.908        1142.236          46.250  
G24  21015016.171     2568466.817       -1982.676          47.750  
G25  23787442.967    -5538069.738        3450.439          38.750  
C 6  36719594.277      -17928.0992         41.514          46.250  
C11  25994652.936      -73814.7022       -326.055          38.750  
C13  36089840.488     1050893.6062       -798.174          45.500  
C16  36641019.454       -6226.1972         24.590          46.750  
C21  22666597.229    -2688763.4132       1574.033          49.250  
C19  26469601.323     2626426.7172      -1721.943          41.250  
C26  23778816.260    -5779548.3252       3403.057          44.500  
C 9  36663818.180     -140309.2052         80.049          43.250  
C22  23059199.330      552906.1302       -500.117          48.750  
C 4  38751705.427     -478987.1843        308.467          34.250  
C10  40555495.382    -1870755.1542       1422.305          34.000  
C 2  37076928.371     -528773.4262        313.887          41.500  
C 3  36360228.803     -483585.6882        287.725          43.500  
G32  23122192.993    -3498811.655        2039.209          45.000  
C 8  37458656.962     1797300.7472      -1225.908          41.000  
C 5  39041980.708     -524790.4612        311.240          36.250  
C12  25197507.672     2866052.2372      -1886.543          33.500  
C 1  37553675.613     -548001.3452        330.801          38.250  
C 7  39458025.711    -2749409.9622       1777.471          38.500  
G12  23137536.463    -4250526.698        2639.209          36.250  
G21  25203850.774    -3722436.404        2619.043          37.250  
> 2020  9 30  8 30 14.0000000  0 28                     
G10  21717328.226    -4716082.542        2756.387          46.750  
G15  23529962.143     3262374.289       -2009.932          42.000  
G18  21605706.861     3380547.223       -2425.488          44.750  
G20  19893757.141    -2061928.475         871.211          43.750  
G23  20295911.631    -2379407.004        1142.129          46.250  
G24  21015393.444     2570449.629       -1982.812          47.500  
G25  23786786.350    -5541520.387        3450.771          38.500  
C 6  36719586.406      -17969.8302         41.885          46.250  
C11  25994715.582      -73488.5232       -326.201          38.750  
C13  36089993.928     1051691.7532       -798.057          45.500  
C16  36641015.231       -6250.9632         24.922          46.750  
C21  22666295.009    -2690337.5332       1574.209          49.250  
C19  26469932.196     2628148.5832      -1721.797          41.250  
C26  23778162.575    -5782951.3582       3403.096          44.500  
C 9  36663802.999     -140389.3982         80.312          43.250  
C22  23059295.341      553406.2282       -500.020          48.750  
C 4  38751646.184     -479295.8092        308.672          34.250  
C10  40555222.129    -1872177.7542       1422.773          33.750  
C 2  37076868.185     -529087.4232        314.121          41.500  
C 3  36360173.433     -483873.5632        287.969          43.500  
G32  23121804.900    -3500850.927        2039.365          45.000  
C 8  37458892.278     1798526.6492      -1225.811          41.000  
C 5  39041920.819     -525101.8742        311.582          36.250  
C12  25197869.555     2867938.7052      -1886.387          33.250  
C 1  37553612.164     -548332.2422        331.016          38.250  
C 7  39457684.332    -2751187.5542       1777.754          38.750  
G12  23137034.089    -4253165.802        2639.141          36.000  
G21  25203352.273    -3725055.368        2619.023          37.250  
> 2020  9 30  8 30 15.0000000  0 28                     
G10  21716803.690    -4718838.761        2756.289          46.750  
G15  23530344.774     3264384.206       -2009.775          42.250  
G18  21606168.559     3382972.997       -2425.771          45.000  
G20  19893591.452    -2062799.264         870.732          43.750  
G23  20295694.376    -2380548.781        1141.777          46.250  
G24  21015771.050     2572432.796       -1983.184          47.500  
G25  23786129.524    -5544971.173        3450.908          38.500  
C 6  36719577.891      -18011.7222         42.051          46.000  
C11  25994778.211      -73162.0112       -326.494          38.750  
C13  36090147.211     1052489.9542       -798.115          45.500  
C16  36641010.920       -6275.8782         25.049          46.500  
C21  22665992.701    -2691911.6522       1574.209          49.250  
C19  26470263.140     2629870.4732      -1721.758          41.250  
C26  23777508.960    -5786354.3062       3403.037          44.500  
C 9  36663787.398     -140469.7202         80.410          43.250  
C22  23059391.631      553906.4422       -500.176          48.750  
C 4  38751586.836     -479604.5662        308.887          34.250  
C10  40554948.806    -1873600.5412       1422.871          34.000  
C 2  37076807.859     -529401.5372        314.229          41.500  
C 3  36360118.378     -484161.5402        288.076          43.500  
G32  23121416.650    -3502890.211        2039.355          45.250  
C 8  37459127.699     1799752.5982      -1225.879          41.000  
C 5  39041860.912     -525413.3762        311.553          36.250  
C12  25198231.821     2869825.1152      -1886.387          33.250  
C 1  37553548.698     -548663.2552        331.104          38.500  
C 7  39457343.128    -2752965.2982       1777.910          38.750  
G12  23136531.942    -4255804.755        2639.023          36.000  
G21  25202854.052    -3727674.142        2618.809          37.500  
> 2020  9 30  8 30 16.0000000  0 28                     
G10  21716279.276    -4721594.645        2755.781          47.000  
G15  23530727.178     3266394.294       -2010.127          42.500  
G18  21606630.327     3385399.300       -2426.484          45.000  
G20  19893425.866    -2063669.419         869.941          43.750  
G23  20295477.260    -2381689.994        1141.045          46.500  
G24  21016148.463     2574416.557       -1983.936          47.750  
G25  23785472.593    -5548421.812        3450.596          38.250  
C 6  36719569.515      -18053.5012         41.729          46.250  
C11  25994841.049      -72834.9452       -327.285          38.500  
C13  36090300.563     1053288.4992       -798.623          45.750  
C16  36641006.348       -6300.6592         24.746          46.500  
C21  22665690.341    -2693485.5272       1573.770          49.250  
C19  26470593.874     2631592.6562      -1722.246          41.500  
C26  23776855.780    -5789756.8982       3402.441          44.500  
C 9  36663772.042     -140549.9052         80.107          43.000  
C22  23059487.695      554406.9952       -500.684          48.750  
C 4  38751527.470     -479913.1402        308.584          34.250  
C10  40554675.535    -1875023.3082       1422.764          34.000  
C 2  37076747.691     -529715.4632        313.867          41.750  
C 3  36360062.816     -484449.3692        287.793          43.750  
G32  23121028.627    -3504929.222        2038.896          45.250  
C 8  37459362.928     1800978.8032      -1226.328          40.750  
C 5  39041801.145     -525724.7252        311.211          36.250  
C12  25198593.843     2871711.8042      -1886.807          33.000  
C 1  37553485.179     -548994.0992        330.781          38.500  
C 7  39457001.610    -2754742.9252       1777.646          38.750  
G12  23136029.689    -4258443.268        2638.379          35.750  
G21  25202355.936    -3730292.421        2618.115          37.500  
> 2020  9 30  8 30 17.0000000  0 28                     
G10  21715755.124    -4724350.388        2755.801          47.000  
G15  23531109.686     3268404.347       -2009.961          42.250  
G18  21607092.217     3387825.931       -2426.641          45.000  
G20  19893260.334    -2064539.085         869.600          43.750  
G23  20295260.075    -2382830.847        1140.801          46.250  
G24  21016525.929     2576400.704       -1984.180          47.500  
G25  23784815.697    -5551872.543        3450.859          38.250  
C 6  36719561.924      -18095.3712         41.973          46.250  
C11  25994903.922      -72507.4832       -327.549          38.750  
C13  36090453.794     1054087.1462       -798.594          45.750  
C16  36641001.236       -6325.5422         24.980          46.500  
C21  22665388.138    -2695059.3442       1573.896          49.250  
C19  26470924.922     2633314.9502      -1722.256          41.500  
C26  23776202.601    -5793159.3312       3402.461          44.500  
C 9  36663756.668     -140630.1542         80.342          43.250  
C22  23059583.810      554907.7312       -500.693          48.750  
C 4  38751468.174     -480221.7382        308.789          34.250  
C10  40554402.178    -1876446.2362       1423.047          33.750  
C 2  37076687.296     -530029.4512        314.072          41.500  
C 3  36360007.534     -484737.2282        287.939          43.750  
G32  23120640.552    -3506968.159        2038.984          45.250  
C 8  37459598.209     1802205.0872      -1226.211          41.000  
C 5  39041741.396     -526036.1142        311.426          36.250  
C12  25198955.883     2873598.5312      -1886.650          33.000  
C 1  37553421.678     -549324.9742        330.986          38.250  
C 7  39456660.179    -2756520.6282       1777.734          38.750  
G12  23135527.542    -4261081.555        2638.242          35.500  
G21  25201857.750    -3732910.439        2617.959          37.500  
> 2020  9 30  8 30 18.0000000  0 28                     
G10  21715230.815    -4727105.896        2755.439          47.000  
G15  23531492.213     3270414.437       -2010.117          42.250  
G18  21607554.159     3390252.959       -2427.178          45.000  
G20  19893095.063    -2065408.243         868.965          43.750  
G23  20295043.151    -2383971.253        1140.273          46.500  
G24  21016903.673     2578385.321       -1984.746          47.750  
G25  23784159.063    -5555323.274        3450.713          38.250  
C 6  36719554.804      -18137.2622         41.865          46.000  
C11  25994966.848      -72179.6102       -328.027          38.750  
C13  36090607.286     1054886.0342       -798.994          45.500  
C16  36640995.529       -6350.4302         24.873          46.500  
C21  22665085.935    -2696633.0322       1573.662          49.250  
C19  26471255.796     2635037.3722      -1722.471          41.500  
C26  23775549.143    -5796561.5382       3402.119          44.750  
C 9  36663741.068     -140710.3592         80.186          43.000  
C22  23059680.101      555408.6852       -501.045          48.750  
C 4  38751408.948     -480530.3852        308.672          34.250  
C10  40554129.047    -1877869.1802       1423.018          34.000  
C 2  37076627.162     -530343.4092        313.906          41.750  
C 3  36359952.164     -485025.0662        287.842          43.750  
G32  23120252.546    -3509006.956        2038.721          45.250  
C 8  37459833.735     1803431.5752      -1226.562          41.000  
C 5  39041681.419     -526347.4682        311.357          36.250  
C12  25199317.940     2875485.3782      -1886.953          32.750  
C 1  37553358.194     -549655.8312        330.898          38.250  
C 7  39456318.713    -2758298.3732       1777.695          38.750  
G12  23135025.482    -4263719.572        2637.949          35.500  
G21  25201359.616    -3735528.105        2617.598          37.500  
> 2020  9 30  8 30 19.0000000  0 27                     
G10  21714706.610    -4729861.356        2755.449          47.000  
G15  23531874.826     3272424.407       -2009.912          42.250  
G18  21608016.171     3392680.238       -2427.314          45.250  
G20  19892929.757    -2066277.024         868.711          43.750  
G23  20294826.140    -2385111.387        1140.059          46.500  
G24  21017281.506     2580370.260       -1985.010          47.500  
G25  23783502.289    -5558774.128        3450.879          38.250  
C 6  36719546.323      -18179.3532         42.158          46.000  
C11  25995029.843      -71851.4102       -328.242          38.500  
C13  36090760.708     1055684.9482       -798.906          45.500  
C16  36640989.980       -6375.4942         25.117          46.750  
C21  22664783.715    -2698206.7522       1573.760          49.250  
C19  26471586.460     2636759.8312      -1722.383          41.500  
C26  23774895.789    -5799963.6752       3402.168          44.750  
C 9  36663726.043     -140790.7292         80.371          43.000  
C22  23059776.286      555909.7322       -501.055          48.750  
C10  40553855.742    -1879292.3742       1423.135          34.250  
C 2  37076566.697     -530657.4842        314.131          41.750  
C 3  36359897.004     -485313.0292        288.066          43.750  
G32  23119864.767    -3511045.782        2038.857          45.250  
C 8  37460069.295     1804658.0522      -1226.445          41.000  
C 5  39041621.547     -526658.9602        311.533          36.500  
C12  25199679.927     2877372.1752      -1886.768          32.500  
C 1  37553294.553     -549986.7982        330.986          38.250  
C 7  39455977.299    -2760076.3012       1778.037          38.750  
G12  23134523.613    -4266357.437        2637.822          35.500  
G21  25200861.726    -3738145.570        2617.422          37.500  
> 2020  9 30  8 30 20.0000000  0 27                     
G10  21714182.301    -4732616.519        2754.990          47.000  
G15  23532257.282     3274434.482       -2010.195          42.250  
G18  21608478.218     3395107.998       -2427.959          45.250  
G20  19892764.503    -2067145.185         867.891          43.500  
G24  21017659.355     2582355.768       -1985.742          47.500  
G25  23782845.376    -5562224.950        3450.742          38.250  
C 6  36719537.703      -18221.3562         41.865          46.000  
C11  25995092.926      -71522.6822       -328.955          38.500  
C13  36090914.252     1056484.1512       -799.385          45.750  
C16  36640985.234       -6400.4862         24.902          46.500  
C21  22664481.512    -2699780.2612       1573.369          49.000  
C19  26471916.967     2638482.5252      -1722.871          41.500  
C26  23774242.558    -5803365.4972       3401.660          44.750  
C 9  36663710.373     -140871.0002         80.156          43.250  
C22  23059872.908      556411.0872       -501.514          48.750  
C 4  38751290.356     -481147.7023        308.545          34.250  
C10  40553582.524    -1880715.5392       1423.018          34.000  
C 2  37076506.355     -530971.4482        313.896          41.500  
C 3  36359841.530     -485600.8812        287.783          43.500  
G32  23119476.901    -3513084.392        2038.438          45.250  
C 8  37460305.065     1805884.7532      -1226.875          41.000  
C 5  39041561.641     -526970.2962        311.250          36.250  
C12  25200042.019     2879259.1462      -1887.041          32.500  
C 1  37553230.877     -550317.6752        330.752          38.250  
C 7  39455635.868    -2761854.1412       1777.686          38.750  
G12  23134021.623    -4268994.921        2637.295          35.750  
G21  25200363.697    -3740762.621        2616.924          37.500  
> 2020  9 30  8 30 21.0000000  0 28                     
G10  21713658.079    -4735371.274        2754.736          47.000  
G15  23532639.983     3276444.789       -2010.332          42.250  
G18  21608940.439     3397536.331       -2428.438          45.250  
G20  19892599.372    -2068012.642         867.305          43.500  
G23  20294392.799    -2387389.9723       1138.838          46.500  
G24  21018037.309     2584341.926       -1986.289          47.500  
G25  23782188.672    -5565675.567        3450.664          38.250  
C 6  36719529.589      -18263.2342         41.885          46.000  
C11  25995156.148      -71193.3282       -329.453          38.500  
C13  36091067.919     1057283.7382       -799.658          45.750  
C16  36640980.923       -6425.3142         24.824          46.500  
C21  22664179.327    -2701353.4662       1573.164          49.250  
C19  26472247.666     2640205.5652      -1723.076          41.500  
C26  23773589.239    -5806766.9072       3401.357          44.500  
C 9  36663695.244     -140951.0492         80.068          43.250  
C22  23059969.216      556912.8592       -501.836          48.750  
C 4  38751231.183     -481456.0842        308.340          34.250  
C10  40553309.271    -1882138.6362       1423.135          34.250  
C 2  37076445.959     -531285.1912        313.750          41.500  
C 3  36359786.370     -485888.4982        287.617          43.750  
G32  23119089.053    -3515122.662        2038.242          45.500  
C 8  37460540.660     1807111.8102      -1227.100          41.000  
C 5  39041501.874     -527281.4802        311.133          36.250  
C12  25200404.216     2881146.4392      -1887.373          32.250  
C 1  37553167.446     -550648.3322        330.615          38.250  
C 7  39455294.629    -2763631.8242       1777.686          38.750  
G12  23133519.702    -4271631.978        2637.002          35.500  
G21  25199865.877    -3743379.126        2616.436          37.500  
> 2020  9 30  8 30 22.0000000  0 27                     
G10  21713133.874    -4738125.852        2754.551          47.000  
G15  23533022.579     3278455.090       -2010.293          42.250  
G18  21609402.608     3399965.041       -2428.799          45.000  
G20  19892434.275    -2068879.600         866.826          43.750  
G24  21018415.316     2586328.516       -1986.709          47.750  
G25  23781532.072    -5569126.181        3450.596          38.250  
C 6  36719522.155      -18305.1622         41.982          46.000  
C11  25995219.579      -70863.5952       -329.863          38.500  
C13  36091221.464     1058083.4952       -799.795          45.750  
C16  36640976.701       -6450.1932         24.883          46.500  
C21  22663877.246    -2702926.5742       1573.086          49.250  
C19  26472578.662     2641928.7422      -1723.213          41.500  
C26  23772935.886    -5810168.1272       3401.162          44.750  
C 9  36663679.853     -141031.1272         80.127          43.250  
C22  23060065.489      557414.8282       -502.031          48.750  
C 4  38751171.922     -481764.5183        308.477          34.000  
C10  40553035.861    -1883561.8392       1423.291          34.250  
C 2  37076385.669     -531598.9572        313.760          41.750  
C 3  36359730.930     -486176.1502        287.695          43.500  
G32  23118701.344    -3517160.847        2038.184          45.500  
C 8  37460776.168     1808339.0002      -1227.266          41.000  
C 5  39041442.107     -527592.6092        311.182          36.250  
C12  25200766.256     2883033.8282      -1887.461          32.250  
C 1  37553104.032     -550978.9802        330.684          38.500  
C 7  39454953.425    -2765409.5672       1777.773          38.750  
G12  23133017.991    -4274268.713        2636.719          35.750  
G21  25199368.179    -3745995.319        2616.182          37.250  
> 2020  9 30  8 30 23.0000000  0 27                     
G10  21712609.530    -4740880.289        2754.570          46.750  
G15  23533405.140     3280465.368       -2010.127          42.500  
G18  21609864.986     3402394.079       -2429.023          45.250  
G20  19892269.371    -2069746.085         866.494          43.500  
G24  21018793.253     2588315.498       -1986.934          47.750  
G25  23780875.421    -5572576.917        3450.938          38.250  
C 6  36719514.459      -18347.1782         42.207          46.000  
C11  25995283.028      -70533.4242       -330.127          38.500  
C13  36091375.025     1058883.3682       -799.746          45.750  
C16  36640972.408       -6475.1542         25.137          46.500  
C21  22663575.235    -2704499.6182       1573.164          49.000  
C19  26472909.710     2643652.0032      -1723.125          41.750  
C26  23772282.811    -5813569.1902       3401.172          44.500  
C 9  36663664.252     -141111.2502         80.273          43.250  
C22  23060162.023      557916.9642       -502.002          48.750  
C 4  38751112.783     -482072.9602        308.662          34.250  
C10  40552762.800    -1884985.1752       1423.594          34.250  
C 2  37076325.378     -531912.7392        313.936          41.750  
C 3  36359675.735     -486463.8282        287.861          43.500  
G32  23118313.495    -3519198.947        2038.252          45.250  
C 8  37461011.799     1809566.2682      -1227.139          41.000  
C 5  39041382.235     -527903.7852        311.318          36.250  
C12  25201128.505     2884921.2152      -1887.236          32.500  
C 1  37553040.216     -551309.7022        330.869          38.250  
C 7  39454611.785    -2767187.4332       1778.057          38.750  
G12  23132516.332    -4276905.243        2636.641          36.000  
G21  25198870.220    -3748611.221        2616.006          37.000  
> 2020  9 30  8 30 24.0000000  0 27                     
G10  21712085.518    -4743634.731        2754.316          46.750  
G15  23533787.719     3282475.428       -2010.127          42.500  
G18  21610327.138     3404823.272       -2429.375          45.250  
G20  19892104.588    -2070612.304         865.986          43.500  
G23  20293743.005    -2390804.7913       1137.832          46.250  
G24  21019171.643     2590302.715       -1987.412          47.750  
G25  23780218.542    -5576027.857        3450.967          38.250  
C 6  36719506.031      -18389.4592         42.197          46.000  
C11  25995346.320      -70203.0952       -330.537          38.750  
C13  36091528.832     1059683.2242       -799.980          45.750  
C16  36640967.749       -6500.3572         25.137          46.500  
C21  22663273.050    -2706072.7792       1573.047          49.000  
C19  26473240.740     2645375.1922      -1723.291          41.750  
C26  23771629.475    -5816970.2742       3400.996          44.500  
C 9  36663649.158     -141191.6002         80.303          43.250  
C22  23060258.436      558419.1032       -502.266          48.750  
C10  40552489.198    -1886408.8132       1423.594          34.000  
C 2  37076265.158     -532226.7352        313.945          41.750  
C 3  36359620.366     -486751.7132        287.812          43.500  
G32  23117925.647    -3521237.167        2038.105          45.250  
C 8  37461247.656     1810793.4702      -1227.275          41.000  
C 5  39041322.521     -528215.1912        311.328          36.250  
C12  25201490.737     2886808.5042      -1887.490          32.500  
C 1  37552976.470     -551640.6072        330.859          38.250  
C 7  39454270.354    -2768965.5142       1778.047          38.500  
G12  23132014.918    -4279541.712        2636.309          35.750  
G21  25198372.522    -3751227.024        2615.605          37.500  
> 2020  9 30  8 30 25.0000000  0 28                     
G10  21711561.610    -4746388.983        2754.209          46.750  
G15  23534170.315     3284485.512       -2009.990          42.500  
G18  21610789.551     3407252.859       -2429.639          45.250  
G20  19891939.754    -2071477.993         865.625          43.500  
G23  20293526.570    -2391942.3702       1137.510          46.500  
G24  21019549.737     2592290.377       -1987.744          47.750  
G25  23779561.925    -5579478.811        3451.006          38.250  
C 6  36719497.236      -18431.7862         42.393          46.000  
C11  25995409.874      -69872.3242       -330.781          38.500  
C13  36091682.568     1060483.2772       -800.078          45.750  
C16  36640962.653       -6525.5992         25.293          46.500  
C21  22662970.951    -2707645.8242       1573.057          49.250  
C19  26473571.614     2647098.5382      -1723.379          41.750  
C26  23770976.017    -5820371.1302       3400.859          44.250  
C 9  36663633.487     -141271.9402         80.381          43.250  
C22  23060354.970      558921.4502       -502.344          48.750  
C 4  38750994.383     -482690.2613        308.818          34.500  
C10  40552215.596    -1887832.5452       1423.848          34.250  
C 2  37076204.815     -532540.7122        314.014          41.750  
C 3  36359565.415     -487039.5862        287.930          43.750  
G32  23117537.851    -3523275.254        2038.115          45.250  
C 8  37461483.321     1812020.7982      -1227.334          41.000  
C 5  39041262.684     -528526.5592        311.338          36.250  
C12  25201853.352     2888695.8952      -1887.373          32.750  
C 1  37552913.039     -551971.4862        330.918          38.250  
C 7  39453928.679    -2770743.6322       1778.184          38.500  
G12  23131513.189    -4282177.903        2636.191          35.750  
G21  25197874.825    -3753842.474        2615.439          37.750  
> 2020  9 30  8 30 26.0000000  0 28                     
G10  21711037.266    -4749143.324        2754.385          46.750  
G15  23534552.667     3286495.330       -2009.736          42.250  
G18  21611251.947     3409682.542       -2429.707          45.250  
G20  19891775.006    -2072343.454         865.430          43.500  
G23  20293310.065    -2393079.8172       1137.402          46.250  
G24  21019927.918     2594278.207       -1987.832          47.750  
G25  23778905.274    -5582930.059        3451.318          38.500  
C 6  36719489.052      -18474.4132         42.725          46.000  
C11  25995473.428      -69541.3862       -330.928          38.750  
C13  36091836.270     1061283.2382       -799.893          45.750  
C16  36640956.615       -6551.1462         25.674          46.750  
C21  22662668.609    -2709219.0492       1573.311          49.250  
C19  26473902.453     2648821.7522      -1723.174          41.750  
C26  23770322.855    -5823772.0652       3400.977          44.250  
C 9  36663618.218     -141352.5572         80.732          43.250  
C22  23060451.208      559423.7512       -502.256          48.750  
C 4  38750935.245     -482999.1692        309.121          34.500  
C10  40551942.238    -1889256.6392       1424.219          34.250  
C 2  37076144.385     -532854.9442        314.346          41.500  
C 3  36359509.923     -487327.7282        288.213          43.500  
G32  23117149.967    -3525313.493        2038.301          45.250  
C 8  37461719.021     1813248.0032      -1227.129          41.250  
C 5  39041202.969     -528838.1962        311.729          36.250  
C12  25202215.915     2890583.0462      -1887.109          33.250  
C 1  37552849.677     -552302.6502        331.260          38.000  
C 7  39453587.108    -2772522.0682       1778.477          38.250  
G12  23131011.443    -4284814.122        2636.221          35.500  
G21  25197376.935    -3756457.903        2615.459          37.500  
> 2020  9 30  8 30 27.0000000  0 28                     
G10  21710512.799    -4751897.513        2754.248          46.750  
G15  23534935.158     3288505.098       -2009.736          42.250  
G18  21611714.221     3412112.545       -2430.000          45.250  
G20  19891610.259    -2073208.474         864.990          43.500  
G23  20293093.595    -2394216.9142       1137.080          46.250  
G24  21020306.379     2596266.431       -1988.232          47.750  
G25  23778248.709    -5586381.378        3451.406          38.750  
C 6  36719481.461      -18517.1672         42.871          46.250  
C11  25995537.156      -69210.0722       -331.348          38.750  
C13  36091989.866     1062083.3262       -800.059          45.750  
C16  36640951.153       -6576.7892         25.771          46.750  
C21  22662366.755    -2710792.2162       1573.232          49.250  
C19  26474233.291     2650545.0382      -1723.262          41.500  
C26  23769669.624    -5827172.8402       3400.820          44.250  
C 9  36663602.810     -141433.2402         80.791          43.000  
C22  23060547.865      559926.1982       -502.402          48.750  
C 4  38750875.861     -483308.1222        309.082          34.500  
C10  40551668.863    -1890680.9122       1424.395          34.250  
C 2  37076084.286     -533169.2332        314.395          41.500  
C 3  36359454.659     -487615.9082        288.281          43.500  
G32  23116762.014    -3527351.687        2038.252          45.250  
C 8  37461954.494     1814475.3072      -1227.305          41.000  
C 5  39041142.940     -529149.8642        311.826          36.250  
C12  25202578.426     2892470.3172      -1887.168          33.500  
C 1  37552785.966     -552633.8372        331.279          38.250  
C 7  39453245.415    -2774300.6142       1778.613          38.250  
G12  23130510.011    -4287450.117        2636.064          35.250  
G21  25196879.028    -3759073.041        2615.107          37.500  
> 2020  9 30  8 30 28.0000000  0 28                     
G10  21709988.804    -4754651.677        2754.121          46.750  
G15  23535317.824     3290514.725       -2009.600          42.500  
G18  21612176.791     3414542.747       -2430.293          45.250  
G20  19891445.581    -2074073.150         864.551          43.500  
G23  20292877.283    -2395353.7582       1136.758          46.250  
G24  21020684.804     2598254.929       -1988.623          47.750  
G25  23777592.302    -5589832.893        3451.514          38.750  
C 6  36719473.102      -18560.1282         43.008          46.000  
C11  25995600.832      -68878.5192       -331.680          38.750  
C13  36092143.428     1062883.4232       -800.137          45.750  
C16  36640946.459       -6602.6362         25.889          46.750  
C21  22662064.587    -2712365.4432       1573.223          49.000  
C19  26474564.165     2652268.3082      -1723.340          41.500  
C26  23769016.637    -5830573.5852       3400.703          44.250  
C 9  36663586.965     -141514.1112         80.908          43.250  
C22  23060644.278      560428.6962       -502.568          48.750  
C 4  38750816.426     -483617.2292        309.238          34.500  
C10  40551395.226    -1892105.4392       1424.482          34.000  
C 2  37076023.751     -533483.6952        314.482          41.500  
C 3  36359399.429     -487904.2652        288.359          43.500  
G32  23116374.218    -3529389.935        2038.223          45.250  
C 8  37462190.317     1815702.5372      -1227.285          41.000  
C 5  39041082.877     -529461.7172        311.982          36.250  
C12  25202941.234     2894357.4402      -1887.119          33.500  
C 1  37552722.256     -552965.2062        331.406          38.250  
C 7  39452903.792    -2776079.3702       1778.818          38.250  
G12  23130008.439    -4290085.982        2635.869          35.500  
G21  25196381.627    -3761688.017        2614.912          37.000  
> 2020  9 30  8 30 29.0000000  0 28                     
G10  21709464.722    -4757405.427        2753.672          46.750  
G15  23535700.228     3292524.566       -2009.863          42.250  
G18  21612639.152     3416973.566       -2430.957          45.250  
G20  19891281.252    -2074937.083         863.760          43.500  
G23  20292661.301    -2396489.9532       1136.084          46.250  
G24  21021063.387     2600244.078       -1989.307          47.750  
G25  23776935.511    -5593284.194        3451.260          38.750  
C 6  36719464.272      -18602.9172         42.812          46.000  
C11  25995664.717      -68546.3192       -332.354          38.750  
C13  36092296.973     1063683.9272       -800.586          45.750  
C16  36640942.219       -6628.2932         25.664          46.750  
C21  22661762.716    -2713938.3392       1572.852          49.000  
C19  26474895.143     2653991.9462      -1723.721          41.750  
C26  23768363.702    -5833973.9012       3400.244          44.250  
C 9  36663571.609     -141594.7502         80.605          43.250  
C22  23060740.620      560931.6182       -503.018          48.750  
C 4  38750757.148     -483926.1382        308.926          34.500  
C10  40551121.537    -1893529.8452       1424.375          34.250  
C 2  37075963.339     -533797.8962        314.199          41.500  
C 3  36359343.989     -488192.3802        288.086          43.500  
G32  23115986.230    -3531427.830        2037.871          45.250  
C 8  37462425.930     1816930.1522      -1227.666          41.000  
C 5  39041022.953     -529773.2962        311.562          36.250  
C12  25203303.814     2896244.8802      -1887.373          33.750  
C 1  37552658.754     -553296.3302        331.084          38.250  
C 7  39452562.239    -2777857.9272       1778.555          38.250  
G12  23129506.815    -4292721.362        2635.254          35.750  
G21  25195884.069    -3764302.426        2614.297          37.500  
> 2020  9 30  8 30 30.0000000  0 28                     
G10  21708940.727    -4760159.267        2753.789          46.750  
G15  23536082.545     3294534.134       -2009.531          42.500  
G18  21613101.513     3419404.471       -2431.006          45.000  
G20  19891116.941    -2075800.802         863.574          43.500  
G23  20292444.831    -2397626.0212       1135.938          46.250  
G24  21021441.812     2602233.379       -1989.424          47.750  
G25  23776278.649    -5596735.819        3451.611          38.750  
C 6  36719455.652      -18646.0452         43.174          46.250  
C11  25995728.497      -68213.9832       -332.461          38.500  
C13  36092450.727     1064484.3202       -800.430          45.750  
C16  36640937.769       -6654.2692         25.967          46.750  
C21  22661460.653    -2715511.4192       1573.037          49.000  
C19  26475226.226     2655715.4192      -1723.477          41.750  
C26  23767710.680    -5837374.2852       3400.293          44.250  
C 9  36663555.659     -141675.6932         81.006          43.250  
C22  23060837.399      561434.4752       -502.920          48.750  
C 4  38750697.747     -484235.2852        309.170          34.250  
C10  40550848.127    -1894954.6172       1424.766          34.000  
C 2  37075902.961     -534112.3992        314.512          41.500  
C 3  36359288.672     -488480.7712        288.389          43.750  
G32  23115598.276    -3533465.905        2038.057          45.250  
C 8  37462661.699     1818157.6022      -1227.461          41.000  
C 5  39040963.151     -530085.1802        311.875          36.000  
C12  25203666.587     2898132.1412      -1887.256          34.000  
C 1  37552595.218     -553627.7442        331.436          38.500  
C 7  39452220.564    -2779636.8782       1778.994          38.500  
G12  23129005.453    -4295356.737        2635.332          35.500  
G21  25195386.511    -3766916.834        2614.268          37.250  
> 2020  9 30  8 30 31.0000000  0 28                     
G10  21708416.662    -4762912.814        2753.418          46.750  
G15  23536465.141     3296543.826       -2009.775          42.750  
G18  21613563.996     3421835.861       -2431.562          45.000  
G20  19890952.595    -2076663.910         862.871          43.500  
G23  20292228.780    -2398761.5702       1135.381          46.250  
G24  21021820.447     2604223.223       -1990.049          47.750  
G25  23775621.666    -5600187.346        3451.475          38.500  
C 6  36719447.991      -18689.1192         43.027          46.250  
C11  25995792.365      -67881.0882       -333.086          38.500  
C13  36092604.341     1065285.0022       -800.781          45.500  
C16  36640933.110       -6680.1792         25.840          46.750  
C21  22661158.450    -2717084.2942       1572.773          49.250  
C19  26475557.292     2657439.1582      -1723.848          41.500  
C26  23767057.658    -5840774.3772       3399.951          44.250  
C 9  36663540.181     -141756.5252         80.771          43.250  
C22  23060933.951      561937.6372       -503.291          48.750  
C 4  38750638.434     -484544.3482        308.828          34.500  
C10  40550574.560    -1896379.3462       1424.736          34.250  
C 2  37075842.670     -534426.7792        314.316          41.500  
C 3  36359233.058     -488769.0532        288.242          43.500  
G32  23115210.480    -3535503.768        2037.793          45.250  
C 8  37462897.539     1819385.3042      -1227.822          41.000  
C 5  39040903.279     -530396.9522        311.650          36.250  
C12  25204029.272     2900019.6202      -1887.559          34.250  
C 1  37552531.507     -553959.0592        331.240          38.500  
C 7  39451878.749    -2781415.6932       1778.770          38.250  
G12  23128503.951    -4297991.763        2634.893          35.500  
G21  25194888.516    -3769530.796        2613.779          37.250  
> 2020  9 30  8 30 32.0000000  0 28                     
G10  21707892.946    -4765666.250        2753.379          46.750  
G15  23536847.702     3298553.458       -2009.668          42.500  
G18  21614026.497     3424267.533       -2431.797          45.000  
G20  19890788.441    -2077526.588         862.500          43.500  
G23  20292012.572    -2399896.7762       1135.098          46.250  
G24  21022199.309     2606213.438       -1990.371          47.750  
G25  23774964.526    -5603638.987        3451.621          38.500  
C 6  36719440.209      -18732.3062         43.174          46.250  
C11  25995856.181      -67547.8622       -333.369          38.500  
C13  36092758.234     1066085.7962       -800.859          45.750  
C16  36640928.032       -6706.2272         26.045          46.750  
C21  22660856.334    -2718657.1382       1572.793          49.250  
C19  26475888.235     2659162.9472      -1723.828          41.250  
C26  23766404.810    -5844174.3342       3399.834          44.250  
C 9  36663524.354     -141837.4332         80.869          43.000  
C22  23061030.730      562440.9452       -503.398          48.750  
C 4  38750579.208     -484853.4642        309.053          34.500  
C10  40550300.888    -1897804.2902       1424.902          34.250  
C 2  37075782.240     -534741.2332        314.463          41.500  
C 3  36359177.514     -489057.4082        288.330          43.750  
G32  23114822.579    -3537541.573        2037.754          45.250  
C 8  37463133.292     1820613.0742      -1227.812          41.250  
C 5  39040843.564     -530708.8082        311.826          36.250  
C12  25204391.957     2901907.0542      -1887.432          34.500  
C 1  37552468.198     -554290.4182        331.436          38.250  
C 7  39451537.004    -2783194.6432       1778.955          38.250  
G12  23128002.502    -4300626.583        2634.727          35.000  
G21  25194391.273    -3772144.510        2613.672          37.250  
> 2020  9 30  8 30 33.0000000  0 28                     
G10  21707368.933    -4768419.584        2753.242          46.750  
G15  23537230.158     3300562.994       -2009.561          42.750  
G18  21614489.347     3426699.495       -2432.119          45.000  
G20  19890624.356    -2078388.856         862.090          43.500  
G23  20291796.468    -2401031.6782       1134.736          46.250  
G24  21022578.153     2608204.015       -1990.771          47.750  
G25  23774307.560    -5607090.749        3451.689          38.500  
C 6  36719431.675      -18775.6562         43.340          46.000  
C11  25995920.136      -67214.3282       -333.760          38.250  
C13  36092911.814     1066886.6642       -800.957          45.750  
C16  36640922.465       -6732.3772         26.133          46.750  
C21  22660554.428    -2720229.9812       1572.764          49.250  
C19  26476219.353     2660886.7762      -1723.916          41.250  
C26  23765751.893    -5847574.1872       3399.736          44.250  
C 9  36663509.050     -141918.4832         80.977          43.250  
C22  23061127.247      562944.3562       -503.535          48.750  
C 4  38750519.912     -485162.7082        309.180          34.500  
C10  40550027.024    -1899229.4402       1425.225          34.500  
C 2  37075721.758     -535055.7772        314.512          41.500  
C 3  36359121.988     -489345.8792        288.408          43.500  
G32  23114434.940    -3539579.385        2037.715          45.250  
C 8  37463369.079     1821840.8762      -1227.881          41.000  
C 5  39040783.728     -531020.7422        311.924          36.250  
C12  25204754.713     2903794.5192      -1887.461          34.750  
C 1  37552404.540     -554621.8872        331.445          38.250  
C 7  39451195.085    -2784973.7592       1779.072          38.500  
G12  23127501.087    -4303261.267        2634.600          35.000  
G21  25193893.784    -3774757.989        2613.350          37.250  
> 2020  9 30  8 30 34.0000000  0 28                     
G10  21706845.147    -4771172.670        2753.066          46.750  
G15  23537612.737     3302572.599       -2009.590          42.750  
G18  21614952.266     3429131.883       -2432.471          45.000  
G20  19890460.289    -2079250.561         861.592          43.250  
G23  20291580.662    -2402166.0972       1134.336          46.250  
G24  21022957.049     2610195.072       -1991.133          47.750  
G25  23773650.647    -5610542.476        3451.797          38.500  
C 6  36719422.776      -18819.0002         43.418          46.000  
C11  25995984.161      -66880.2972       -334.092          38.000  
C13  36093065.760     1067687.7612       -801.113          45.750  
C16  36640916.462       -6758.5302         26.162          46.500  
C21  22660252.522    -2721802.6702       1572.715          49.250  
C19  26476550.488     2662610.8152      -1724.004          41.250  
C26  23765099.237    -5850973.7632       3399.551          44.500  
C 9  36663493.676     -141999.4392         81.006          43.250  
C22  23061223.939      563448.0482       -503.740          48.750  
C 4  38750460.581     -485471.8732        309.102          34.250  
C10  40549753.248    -1900654.6322       1425.244          34.500  
C 2  37075661.467     -535370.2382        314.463          41.500  
C 3  36359066.670     -489634.2552        288.408          43.500  
G32  23114047.196    -3541617.033        2037.637          45.250  
C 8  37463604.762     1823068.8792      -1227.988          41.250  
C 5  39040723.926     -531332.5842        311.846          36.250  
C12  25205117.485     2905682.1312      -1887.754          34.750  
C 1  37552341.091     -554953.2692        331.377          38.500  
C 7  39450853.182    -2786752.8152       1779.072          38.250  
G12  23126999.481    -4305895.561        2634.268          35.000  
G21  25193396.331    -3777371.088        2613.115          36.750  
> 2020  9 30  8 30 35.0000000  0 28                     
G10  21706321.362    -4773925.396        2752.598          46.750  
G15  23537995.123     3304582.383       -2009.844          42.750  
G18  21615415.412     3431564.808       -2433.105          45.250  
G20  19890296.397    -2080111.595         860.840          43.250  
G23  20291364.820    -2403299.9422       1133.633          46.000  
G24  21023336.016     2612186.742       -1991.885          47.750  
G25  23772993.751    -5613994.049        3451.514          38.750  
C 6  36719414.644      -18862.2112         43.164          46.000  
C11  25996048.255      -66545.6772       -334.795          38.250  
C13  36093219.653     1068489.2222       -801.562          45.750  
C16  36640911.140       -6784.5472         25.938          46.500  
C21  22659950.546    -2723375.0832       1572.305          49.250  
C19  26476881.798     2664335.1502      -1724.463          41.250  
C26  23764446.372    -5854372.9902       3399.121          44.500  
C 9  36663478.006     -142080.2572         80.762          43.250  
C22  23061320.892      563952.1032       -504.170          48.750  
C 4  38750401.198     -485780.8812        308.877          34.250  
C10  40549479.541    -1902079.7512       1424.971          34.500  
C 2  37075601.090     -535684.5552        314.277          41.500  
C 3  36359011.249     -489922.4592        288.086          43.500  
G32  23113659.540    -3543654.384        2037.246          45.250  
C 8  37463840.758     1824297.1692      -1228.418          41.250  
C 5  39040664.089     -531644.2702        311.582          36.250  
C12  25205480.519     2907569.9532      -1887.881          35.250  
C 1  37552277.485     -555284.5082        331.162          38.250  
C 7  39450511.699    -2788531.7972       1778.926          38.250  
G12  23126498.049    -4308529.473        2633.662          35.000  
G21  25192898.895    -3779983.702        2612.480          36.750  
> 2020  9 30  8 30 36.0000000  0 28                     
G10  21705797.506    -4776678.071        2752.617          46.750  
G15  23538377.685     3306592.036       -2009.678          42.500  
G18  21615878.593     3433997.965       -2433.291          45.250  
G20  19890132.417    -2080972.255         860.488          43.250  
G23  20291148.838    -2404433.5062       1133.418          46.000  
G24  21023715.052     2614178.737       -1992.139          47.750  
G25  23772337.291    -5617445.780        3451.738          39.000  
C 6  36719406.914      -18905.6222         43.408          46.000  
C11  25996112.681      -66210.7932       -335.088          38.250  
C13  36093373.704     1069290.6972       -801.572          45.500  
C16  36640906.533       -6810.7472         26.172          46.500  
C21  22659648.482    -2724947.5332       1572.412          49.250  
C19  26477213.021     2666059.4882      -1724.424          41.000  
C26  23763793.560    -5857772.1442       3399.102          44.500  
C 9  36663462.807     -142161.2272         80.928          43.000  
C22  23061417.584      564456.2302       -504.219          48.750  
C 4  38750341.832     -486090.0222        309.170          34.250  
C10  40549206.026    -1903505.1132       1425.381          34.250  
C 2  37075540.642     -535998.9932        314.385          41.500  
C 3  36358955.949     -490210.8192        288.301          43.500  
G32  23113271.639    -3545691.764        2037.314          45.000  
C 8  37464076.598     1825525.4612      -1228.350          41.250  
C 5  39040604.217     -531956.0952        311.797          36.500  
C12  25205843.397     2909457.7332      -1887.861          35.500  
C 1  37552213.634     -555615.8722        331.348          38.250  
C 7  39450170.059    -2790310.9522       1779.111          38.250  
G12  23125996.722    -4311163.218        2633.691          34.750  
G21  25192401.651    -3782596.118        2612.285          36.500  
> 2020  9 30  8 30 37.0000000  0 28                     
G10  21705273.703    -4779430.855        2752.842          46.750  
G15  23538759.722     3308601.374       -2009.258          42.500  
G18  21616341.914     3436431.187       -2433.223          45.250  
G20  19889968.909    -2081832.730         860.410          43.250  
G23  20290933.171    -2405566.967        1133.447          46.000  
G24  21024094.193     2616170.871       -1992.139          47.750  
G25  23771680.779    -5620897.840        3452.227          39.000  
C 6  36719398.607      -18949.3852         43.857          46.000  
C11  25996176.933      -65875.7852       -335.020          38.500  
C13  36093527.405     1070092.0432       -801.270          45.500  
C16  36640902.048       -6837.2882         26.641          46.500  
C21  22659346.419    -2726520.1972       1572.734          49.000  
C19  26477544.034     2667783.6462      -1724.053          40.750  
C26  23763140.747    -5861171.4032       3399.297          44.250  
C 9  36663447.136     -142242.4982         81.396          43.250  
C22  23061514.415      564960.2592       -503.975          48.500  
C 4  38750282.432     -486399.4732        309.561          34.500  
C10  40548932.093    -1904930.8782       1425.977          34.750  
C 2  37075480.090     -536313.7182        314.805          41.500  
C 3  36358900.387     -490499.4882        288.779          43.500  
G32  23112883.982    -3547729.347        2037.666          45.000  
C 8  37464312.525     1826753.5742      -1228.066          41.250  
C 5  39040544.206     -532268.2052        312.178          36.500  
C12  25206206.640     2911345.3022      -1887.520          35.500  
C 1  37552149.522     -555947.5362        331.777          38.250  
C 7  39449828.523    -2792090.4662       1779.619          38.250  
G12  23125495.307    -4313797.021        2633.828          35.000  
G21  25191904.372    -3785208.531        2612.451          36.500  
> 2020  9 30  8 30 38.0000000  0 28                     
G10  21704749.970    -4782183.477        2752.656          46.750  
G15  23539142.126     3310610.698       -2009.229          42.750  
G18  21616805.060     3438864.775       -2433.613          45.250  
G20  19889805.348    -2082692.720         859.912          43.250  
G23  20290717.521    -2406700.039        1133.037          46.000  
G24  21024473.211     2618163.422       -1992.598          47.750  
G25  23771024.337    -5624349.944        3452.217          39.250  
C 6  36719389.551      -18993.2082         43.936          46.250  
C11  25996241.167      -65540.4082       -335.439          38.250  
C13  36093681.316     1070893.5492       -801.465          45.750  
C16  36640897.354       -6863.9042         26.680          46.500  
C21  22659044.513    -2728092.7752       1572.656          49.250  
C19  26477875.117     2669507.9332      -1724.229          40.750  
C26  23762487.812    -5864570.4742       3399.062          44.250  
C 9  36663431.641     -142323.8162         81.406          43.000  
C22  23061611.212      565464.4802       -504.209          48.750  
C 4  38750223.153     -486708.9252        309.561          34.500  
C10  40548658.194    -1906356.7712       1426.045          34.750  
C 2  37075419.764     -536628.4882        314.844          41.500  
C 3  36358845.070     -490788.1632        288.770          43.500  
G32  23112495.872    -3549766.852        2037.539          45.000  
C 8  37464548.557     1827981.8072      -1228.203          41.250  
C 5  39040484.195     -532580.3232        312.178          36.250  
C12  25206569.500     2913232.9212      -1887.578          35.500  
C 1  37552085.881     -556279.2162        331.787          38.250  
C 7  39449486.761    -2793870.0112       1779.600          38.250  
G12  23124993.945    -4316430.555        2633.516          34.750  
G21  25191407.285    -3787820.621        2612.090          36.000  
> 2020  9 30  8 30 39.0000000  0 27                     
G10  21704226.114    -4784935.864        2752.178          46.500  
G15  23539524.321     3312620.078       -2009.541          42.500  
G18  21617268.433     3441298.738       -2434.189          45.250  
G20  19889641.699    -2083552.169         859.170          43.250  
G23  20290501.837    -2407832.667        1132.344          46.000  
G24  21024852.492     2620156.430       -1993.232          47.750  
G25  23770367.510    -5627802.053        3452.021          39.250  
C 6  36719380.825      -19037.0762         43.770          46.000  
C11  25996305.436      -65204.5802       -336.074          38.000  
C13  36093835.279     1071695.2522       -801.885          45.750  
C16  36640892.416       -6890.5352         26.543          46.500  
C21  22658742.659    -2729665.2182       1572.295          49.250  
C19  26478206.304     2671232.3612      -1724.629          40.500  
C26  23761834.982    -5867969.3322       3398.662          44.250  
C 9  36663416.075     -142405.1052         81.211          43.000  
C22  23061708.217      565968.9372       -504.658          48.750  
C10  40548384.278    -1907782.7042       1425.830          34.750  
C 2  37075359.369     -536943.1932        314.590          41.750  
C 3  36358789.648     -491076.8092        288.525          43.500  
G32  23112107.901    -3551804.203        2037.197          44.750  
C 8  37464784.693     1829210.1872      -1228.555          41.250  
C 5  39040424.271     -532892.4572        311.963          36.250  
C12  25206932.238     2915120.6832      -1887.920          35.500  
C 1  37552022.205     -556610.8802        331.475          38.000  
C 7  39449145.050    -2795649.6022       1779.492          38.250  
G12  23124492.879    -4319063.832        2633.037          35.000  
G21  25190910.111    -3790432.323        2611.455          36.000  
> 2020  9 30  8 30 40.0000000  0 28                     
G10  21703702.433    -4787687.702        2751.660          46.500  
G15  23539906.812     3314629.827       -2009.834          42.500  
G18  21617731.684     3443733.457       -2434.902          45.250  
G20  19889478.226    -2084410.754         858.379          43.250  
G23  20290286.414    -2408964.509        1131.621          46.000  
G24  21025231.912     2622150.269       -1994.072          47.750  
G25  23769710.422    -5631253.785        3451.631          39.000  
C 6  36719372.990      -19080.6082         43.428          46.250  
C11  25996370.316      -64867.9152       -336.904          37.250  
C13  36093989.452     1072497.5222       -802.422          45.750  
C16  36640887.024       -6916.8132         26.221          46.500  
C21  22658440.892    -2731237.1912       1571.846          49.250  
C19  26478537.545     2672957.3252      -1725.127          40.500  
C26  23761182.274    -5871367.6012       3398.096          44.250  
C 9  36663400.597     -142486.0392         80.850          43.000  
C22  23061805.153      566473.9682       -505.205          48.750  
C 4  38750104.300     -487327.3743        308.916          34.500  
C10  40548110.362    -1909208.4352       1425.771          34.750  
C 2  37075299.253     -537257.5302        314.238          41.500  
C 3  36358734.436     -491365.0702        288.154          43.500  
G32  23111720.210    -3553841.062        2036.738          44.750  
C 8  37465020.655     1830439.1152      -1229.023          41.250  
C 5  39040364.434     -533204.1802        311.719          36.250  
C12  25207295.168     2917008.9052      -1888.359          35.250  
C 1  37551958.582     -556942.1622        331.230          38.000  
C 7  39448803.270    -2797428.8562       1779.170          38.250  
G12  23123991.971    -4321696.424        2632.354          34.750  
G21  25190413.426    -3793043.374        2610.889          36.000  
> 2020  9 30  8 30 41.0000000  0 28                     
G10  21703178.682    -4790439.429        2751.777          46.500  
G15  23540288.937     3316639.487       -2009.580          42.500  
G18  21618194.918     3446168.462       -2434.990          45.250  
G20  19889314.997    -2085268.899         858.115          43.250  
G23  20290071.253    -2410096.020        1131.494          46.000  
G24  21025611.210     2624144.470       -1994.248          47.750  
G25  23769053.474    -5634705.647        3451.982          39.000  
C 6  36719365.155      -19124.2922         43.789          46.250  
C11  25996434.743      -64530.9582       -336.953          37.750  
C13  36094143.642     1073299.8912       -802.305          45.750  
C16  36640881.091       -6943.2292         26.543          46.500  
C21  22658139.126    -2732809.1482       1572.031          49.250  
C19  26478868.854     2674682.3352      -1724.961          40.250  
C26  23760529.950    -5874765.7582       3398.174          44.250  
C 9  36663385.066     -142567.0592         81.162          43.000  
C22  23061902.246      566979.1232       -505.127          48.750  
C 4  38750044.847     -487636.5172        309.131          34.500  
C10  40547836.673    -1910634.2782       1425.996          34.750  
C 2  37075238.875     -537571.9612        314.541          41.500  
C 3  36358678.822     -491653.4332        288.486          43.500  
G32  23111332.553    -3555877.914        2036.973          45.000  
C 8  37465256.529     1831668.0672      -1228.896          41.250  
C 5  39040304.632     -533515.9592        311.934          36.500  
C12  25207657.818     2918897.0772      -1888.096          34.750  
C 1  37551894.784     -557273.5122        331.416          38.250  
C 7  39448461.490    -2799208.2562       1779.619          38.250  
G12  23123490.801    -4324328.861        2632.490          34.500  
G21  25189916.461    -3795654.165        2610.840          36.250  
> 2020  9 30  8 30 42.0000000  0 28                     
G10  21702654.774    -4793191.054        2751.475          46.500  
G15  23540671.498     3318649.091       -2009.756          42.500  
G18  21618658.116     3448603.760       -2435.488          45.250  
G20  19889151.662    -2086126.635         857.500          43.250  
G23  20289856.091    -2411227.205        1130.967          46.000  
G24  21025990.770     2626139.018       -1994.785          47.750  
G25  23768396.316    -5638157.624        3451.787          39.000  
C 6  36719356.221      -19168.1042         43.750          46.250  
C11  25996499.378      -64193.6332       -337.559          38.000  
C13  36094297.850     1074102.3592       -802.627          45.750  
C16  36640875.611       -6969.7822         26.504          46.500  
C21  22657837.097    -2734381.0912       1571.826          49.250  
C19  26479200.182     2676407.3832      -1725.146          40.250  
C26  23759877.260    -5878163.7942       3397.891          44.250  
C 9  36663369.378     -142648.1852         81.006          43.000  
C22  23061999.427      567484.4082       -505.430          48.750  
C 4  38749985.202     -487945.7212        309.111          34.500  
C10  40547562.931    -1912060.3062       1425.947          34.750  
C 2  37075178.463     -537886.4682        314.443          41.500  
C 3  36358623.487     -491941.8582        288.330          43.500  
G32  23110944.966    -3557914.715        2036.689          45.000  
C 8  37465492.701     1832897.0702      -1229.131          41.250  
C 5  39040244.656     -533827.8602        311.836          36.250  
C12  25208020.346     2920785.2782      -1888.193          34.500  
C 1  37551831.352     -557604.9472        331.318          38.000  
C 7  39448119.833    -2800987.7562       1779.443          38.250  
G12  23122989.473    -4326961.051        2631.982          34.250  
G21  25189419.793    -3798264.686        2610.303          36.500  
> 2020  9 30  8 30 43.0000000  0 28                     
G10  21702131.268    -4795942.363        2751.211          46.500  
G15  23541054.199     3320658.803       -2009.775          42.500  
G18  21619121.524     3451039.539       -2435.928          45.250  
G20  19888988.433    -2086983.743         856.895          43.250  
G23  20289640.895    -2412357.859        1130.469          45.750  
G24  21026370.417     2628134.111       -1995.273          47.750  
G25  23767739.542    -5641609.512        3451.836          39.000  
C 6  36719347.164      -19211.8502         43.691          46.000  
C11  25996564.293      -63855.7842       -338.027          38.000  
C13  36094452.249     1074905.1012       -802.812          45.750  
C16  36640870.621       -6996.2442         26.445          46.500  
C21  22657535.401    -2735952.8092       1571.641          49.250  
C19  26479531.683     2678132.7232      -1725.410          40.000  
C26  23759224.517    -5881561.5112       3397.646          44.250  
C 9  36663353.987     -142729.1892         80.996          43.000  
C22  23062096.397      567990.0112       -505.703          48.750  
C 4  38749925.941     -488254.7932        308.945          34.500  
C10  40547289.137    -1913486.3772       1426.104          34.750  
C 2  37075117.928     -538200.8472        314.336          41.500  
C 3  36358568.100     -492230.1602        288.291          43.500  
G32  23110557.764    -3559951.301        2036.514          45.250  
C 8  37465728.802     1834126.3412      -1229.365          41.250  
C 5  39040184.854     -534139.5892        311.719          36.250  
C12  25208382.997     2922673.6952      -1888.477          34.250  
C 1  37551767.659     -557936.2632        331.270          38.000  
C 7  39447778.053    -2802767.2042       1779.404          38.250  
G12  23122488.268    -4329592.947        2631.768          34.000  
G21  25188923.020    -3800874.805        2609.951          36.250  
> 2020  9 30  8 30 44.0000000  0 28                     
G10  21701607.482    -4798693.495        2751.152          46.500  
G15  23541436.498     3322668.497       -2009.668          42.500  
G18  21619585.107     3453475.673       -2436.172          45.250  
G20  19888825.396    -2087840.369         856.494          43.250  
G23  20289425.734    -2413488.116        1130.225          45.750  
G24  21026750.029     2630129.641       -1995.605          47.750  
G25  23767082.891    -5645061.425        3451.973          39.000  
C 6  36719338.718      -19255.6762         43.906          46.000  
C11  25996629.295      -63517.5182       -338.301          38.000  
C13  36094606.684     1075707.9872       -802.891          45.750  
C16  36640866.223       -7022.7582         26.602          46.500  
C21  22657233.616    -2737524.4432       1571.660          49.250  
C19  26479862.976     2679858.1452      -1725.469          40.000  
C26  23758572.140    -5884959.0352       3397.539          44.500  
C 9  36663338.125     -142810.2232         81.104          43.000  
C22  23062193.630      568495.8132       -505.811          48.750  
C 4  38749866.576     -488563.9182        309.199          34.250  
C10  40547015.623    -1914912.5082       1426.221          34.750  
C 2  37075057.550     -538515.2462        314.463          41.500  
C 3  36358512.975     -492518.4892        288.408          43.500  
G32  23110170.072    -3561987.795        2036.543          45.250  
C 8  37465964.938     1835355.7012      -1229.336          41.250  
C 5  39040125.052     -534451.3482        311.846          36.250  
C12  25208745.333     2924562.1612      -1888.311          34.000  
C 1  37551704.158     -558267.5802        331.416          38.000  
C 7  39447436.343    -2804546.7152       1779.570          38.250  
G12  23121987.360    -4332224.528        2631.494          33.750  
G21  25188426.387    -3803484.618        2609.844          36.250  
> 2020  9 30  8 30 45.0000000  0 28                     
G10  21701083.679    -4801444.674        2751.211          46.250  
G15  23541818.641     3324677.978       -2009.385          42.250  
G18  21620048.864     3455911.950       -2436.299          45.250  
G20  19888662.777    -2088696.729         856.318          43.250  
G23  20289210.433    -2414618.198        1130.059          45.750  
G24  21027129.745     2632125.363       -1995.742          47.750  
G25  23766425.838    -5648513.594        3452.246          39.000  
C 6  36719331.075      -19299.7732         44.209          46.000  
C11  25996694.454      -63179.1012       -338.418          38.000  
C13  36094760.682     1076510.8182       -802.744          45.750  
C16  36640861.686       -7049.5572         26.904          46.500  
C21  22656931.571    -2739096.2132       1571.826          49.250  
C19  26480194.059     2681583.4962      -1725.264          39.750  
C26  23757919.694    -5888356.6002       3397.598          44.250  
C 9  36663322.315     -142891.4932         81.338          43.250  
C22  23062290.636      569001.5852       -505.742          48.750  
C 4  38749807.297     -488873.2792        309.434          34.750  
C10  40546741.707    -1916339.0212       1426.572          34.750  
C 2  37074996.998     -538829.8732        314.736          41.500  
C 3  36358457.396     -492807.0372        288.691          43.500  
G32  23109782.450    -3564024.412        2036.689          45.000  
C 8  37466200.900     1836584.9422      -1229.160          41.250  
C 5  39040064.866     -534763.3702        312.100          36.250  
C12  25209107.687     2926450.5262      -1888.350          33.750  
C 1  37551640.709     -558599.1312        331.602          38.000  
C 7  39447094.493    -2806326.4852       1779.912          38.250  
G12  23121486.660    -4334856.114        2631.553          34.000  
G21  25187929.771    -3806094.337        2609.717          36.750  
> 2020  9 30  8 30 46.0000000  0 28                     
G10  21700560.120    -4804195.810        2750.967          46.500  
G15  23542201.045     3326687.311       -2009.434          42.500  
G18  21620512.621     3458348.435       -2436.689          45.250  
G20  19888499.844    -2089552.741         855.771          43.250  
G23  20288995.517    -2415748.012        1129.561          45.750  
G24  21027509.532     2634121.373       -1996.250          47.750  
G25  23765769.203    -5651965.909        3452.148          39.000  
C 6  36719322.350      -19344.0832         44.238          46.000  
C11  25996759.439      -62840.4102       -338.848          37.750  
C13  36094914.889     1077313.6832       -803.057          45.750  
C16  36640856.870       -7076.5472         26.914          46.750  
C21  22656629.734    -2740668.0342       1571.680          49.250  
C19  26480525.212     2683308.8322      -1725.430          39.750  
C26  23757267.248    -5891754.1062       3397.363          44.250  
C 9  36663306.732     -142972.9292         81.328          43.250  
C22  23062387.991      569507.4152       -505.996          48.750  
C 4  38749747.705     -489182.7802        309.355          34.500  
C10  40546467.843    -1917765.7512       1426.641          34.750  
C 2  37074936.428     -539144.6322        314.619          41.500  
C 3  36358401.870     -493095.7352        288.613          43.500  
G32  23109395.003    -3566061.072        2036.533          45.000  
C 8  37466437.002     1837814.1842      -1229.404          41.250  
C 5  39040005.081     -535075.4912        312.012          36.250  
C12  25209470.180     2928338.7872      -1888.457          33.500  
C 1  37551576.858     -558930.8762        331.670          38.250  
C 7  39446752.818    -2808106.4782       1779.873          38.500  
G12  23120985.787    -4337487.538        2631.260          34.250  
G21  25187433.155    -3808703.866        2609.336          36.750  
> 2020  9 30  8 30 47.0000000  0 28                     
G10  21700036.683    -4806946.851        2751.025          46.250  
G15  23542583.170     3328696.558       -2009.238          42.500  
G18  21620976.639     3460785.206       -2436.855          45.500  
G20  19888337.086    -2090408.327         855.498          43.500  
G23  20288780.565    -2416877.499        1129.404          45.750  
G24  21027889.249     2636117.746       -1996.465          47.500  
G25  23765112.395    -5655418.379        3452.549          39.250  
C 6  36719313.345      -19388.5212         44.512          46.250  
C11  25996824.546      -62501.3792       -339.209          37.750  
C13  36095069.202     1078116.6622       -803.008          45.750  
C16  36640851.670       -7103.6602         27.168          46.750  
C21  22656328.107    -2742239.8372       1571.816          49.500  
C19  26480856.556     2685034.2152      -1725.391          39.750  
C26  23756614.784    -5895151.4992       3397.363          44.250  
C 9  36663290.870     -143054.4752         81.514          43.250  
C22  23062485.031      570013.3662       -505.977          48.750  
C 4  38749688.130     -489492.3402        309.590          34.500  
C10  40546193.857    -1919192.6502       1426.885          34.500  
C 2  37074876.120     -539459.4852        314.883          41.500  
C 3  36358346.465     -493384.5222        288.818          43.500  
G32  23109007.172    -3568097.716        2036.699          45.000  
C 8  37466673.121     1839043.4812      -1229.287          41.250  
C 5  39039944.965     -535387.7002        312.275          36.250  
C12  25209832.325     2930227.0292      -1888.203          33.000  
C 1  37551513.060     -559262.6542        331.816          38.000  
C 7  39446411.125    -2809886.5622       1780.098          38.500  
G12  23120484.896    -4340118.810        2631.260          34.250  
G21  25186936.592    -3811313.174        2609.297          37.000  
> 2020  9 30  8 30 48.0000000  0 28                     
G10  21699513.299    -4809697.671        2750.850          46.250  
G15  23542965.678     3330705.837       -2009.111          42.250  
G18  21621440.868     3463222.373       -2437.158          45.500  
G20  19888174.433    -2091263.398         855.020          43.500  
G23  20288565.630    -2418006.556        1129.023          45.750  
G24  21028269.122     2638114.568       -1996.846          47.500  
G25  23764455.377    -5658870.808        3452.607          39.000  
C 6  36719304.708      -19432.9852         44.580          46.000  
C11  25996889.984      -62161.8902       -339.463          38.000  
C13  36095223.287     1078919.8592       -803.154          45.750  
C16  36640845.754       -7130.7942         27.266          46.500  
C21  22656026.218    -2743811.5162       1571.729          49.500  
C19  26481187.692     2686759.7532      -1725.449          39.500  
C26  23755962.635    -5898548.6522       3397.158          44.250  
C 9  36663275.514     -143136.0062         81.689          43.250  
C22  23062582.037      570519.5562       -506.162          48.750  
C 4  38749628.694     -489801.8802        309.707          34.250  
C10  40545919.924    -1920619.6432       1427.041          35.000  
C 2  37074815.725     -539774.3082        314.873          41.500  
C 3  36358290.921     -493673.2692        288.838          43.500  
G32  23108619.742    -3570134.208        2036.553          45.000  
C 8  37466909.344     1840272.9322      -1229.326          41.250  
C 5  39039885.181     -535699.8842        312.334          36.500  
C12  25210194.818     2932115.3892      -1888.242          33.250  
C 1  37551449.402     -559594.4002        331.787          38.000  
C 7  39446069.240    -2811666.7372       1780.254          38.500  
G12  23119984.214    -4342749.752        2630.938          34.250  
G21  25186439.854    -3813922.151        2609.023          36.750  
> 2020  9 30  8 30 49.0000000  0 28                     
G10  21698989.827    -4812448.402        2750.693          46.250  
G15  23543347.891     3332715.016       -2009.150          42.250  
G18  21621905.009     3465659.795       -2437.559          45.500  
G20  19888011.622    -2092118.070         854.521          43.500  
G23  20288350.871    -2419135.312        1128.613          45.500  
G24  21028649.136     2640111.712       -1997.266          47.500  
G25  23763798.201    -5662323.402        3452.607          38.750  
C 6  36719296.838      -19477.6232         44.639          46.000  
C11  25996954.951      -61822.1142       -339.902          38.000  
C13  36095377.530     1079723.0842       -803.291          46.000  
C16  36640839.681       -7158.0842         27.324          46.500  
C21  22655724.312    -2745383.2152       1571.680          49.500  
C19  26481519.001     2688485.3072      -1725.586          39.500  
C26  23755310.503    -5901945.7402       3397.012          44.500  
C 9  36663259.669     -143217.6442         81.611          43.250  
C22  23062679.305      571025.8282       -506.328          48.750  
C 4  38749569.172     -490111.5542        309.707          34.500  
C10  40545645.955    -1922046.8832       1427.314          35.000  
C 2  37074755.278     -540089.2452        314.941          41.500  
C 3  36358235.709     -493962.1522        288.857          43.500  
G32  23108232.243    -3572170.706        2036.445          44.750  
C 8  37467145.376     1841502.4042      -1229.551          41.250  
C 5  39039825.222     -536012.1792        312.363          36.250  
C12  25210557.381     2934003.7442      -1888.418          33.000  
C 1  37551385.604     -559926.2842        331.875          38.000  
C 7  39445727.321    -2813447.0412       1780.381          38.250  
G12  23119483.672    -4345380.617        2630.859          34.250  
G21  25185943.605    -3816530.909        2608.682          37.000  
> 2020  9 30  8 30 50.0000000  0 28                     
G10  21698466.408    -4815198.989        2750.547          46.500  
G15  23543729.789     3334724.156       -2009.092          42.000  
G18  21622368.818     3468097.560       -2437.891          45.500  
G20  19887849.178    -2092972.265         854.053          43.500  
G23  20288136.128    -2420263.677        1128.223          45.500  
G24  21029029.411     2642109.276       -1997.705          47.750  
G25  23763140.852    -5665776.030        3452.646          38.500  
C 6  36719288.549      -19522.3432         44.717          46.000  
C11  25997020.250      -61481.9282       -340.264          37.750  
C13  36095531.824     1080526.4632       -803.428          45.750  
C16  36640834.359       -7185.4412         27.383          46.500  
C21  22655422.581    -2746954.8282       1571.582          49.500  
C19  26481850.451     2690210.9882      -1725.732          39.500  
C26  23754658.318    -5905342.6412       3396.865          44.750  
C 9  36663244.086     -143299.3232         81.709          43.000  
C22  23062776.450      571532.2912       -506.553          48.750  
C 4  38749509.806     -490421.2432        309.697          34.500  
C10  40545372.056    -1923474.2142       1427.344          35.000  
C 2  37074694.708     -540404.1902        314.922          41.500  
C 3  36358180.112     -494251.0372        288.867          43.500  
G32  23107844.918    -3574207.137        2036.377          45.000  
C 8  37467381.669     1842731.9812      -1229.658          41.250  
C 5  39039765.315     -536324.4942        312.383          36.250  
C12  25210919.665     2935892.1282      -1888.477          33.500  
C 1  37551321.893     -560258.1832        331.904          38.250  
C 7  39445385.261    -2815227.4222       1780.420          38.250  
G12  23118983.235    -4348011.156        2630.508          34.500  
G21  25185447.478    -3819139.360        2608.330          37.000  
> 2020  9 30  8 30 51.0000000  0 28                     
G10  21697943.146    -4817949.342        2750.332          46.500  
G15  23544112.070     3336733.372       -2009.209          42.000  
G18  21622832.854     3470535.718       -2438.223          45.500  
G20  19887686.734    -2093825.922         853.584          43.250  
G23  20287921.543    -2421391.594        1127.832          45.750  
G24  21029409.669     2644107.303       -1998.145          47.750  
G25  23762483.659    -5669228.663        3452.725          38.750  
C 6  36719279.579      -19567.0782         44.756          46.250  
C11  25997085.723      -61141.3372       -340.674          37.500  
C13  36095686.137     1081330.0422       -803.633          45.750  
C16  36640829.613       -7212.7972         27.402          46.500  
C21  22655120.814    -2748526.3142       1571.494          49.500  
C19  26482181.761     2691936.8332      -1725.840          39.500  
C26  23754006.273    -5908739.3042       3396.670          44.750  
C 9  36663228.346     -143380.9792         81.699          43.000  
C22  23062873.927      572038.9922       -506.738          48.500  
C 4  38749450.144     -490730.8963        309.775          34.750  
C10  40545098.106    -1924901.6382       1427.520          35.000  
C 2  37074634.400     -540719.1092        314.990          41.500  
C 3  36358124.568     -494539.9012        288.906          43.500  
G32  23107457.314    -3576243.418        2036.270          44.750  
C 8  37467617.718     1843961.7452      -1229.805          41.250  
C 5  39039705.496     -536636.7722        312.256          36.250  
C12  25211281.984     2937780.6072      -1888.379          33.250  
C 1  37551258.025     -560590.0362        331.846          38.000  
C 7  39445043.429    -2817007.7902       1780.439          38.000  
G12  23118482.920    -4350641.404        2630.186          34.750  
G21  25184951.333    -3821747.464        2608.145          37.250  
> 2020  9 30  8 30 52.0000000  0 28                     
G10  21697419.953    -4820699.566        2750.088          46.500  
G15  23544494.422     3338742.500       -2009.199          42.250  
G18  21623296.960     3472974.190       -2438.643          45.500  
G20  19887524.657    -2094679.146         852.998          43.250  
G23  20287706.835    -2422519.174        1127.393          45.500  
G24  21029789.979     2646105.701       -1998.594          47.750  
G25  23761826.554    -5672681.379        3452.676          38.500  
C 6  36719270.261      -19611.9462         44.824          46.250  
C11  25997151.179      -60800.3592       -341.143          37.500  
C13  36095840.571     1082133.7362       -803.818          45.750  
C16  36640824.901       -7240.2852         27.461          46.500  
C21  22654819.344    -2750097.7582       1571.357          49.500  
C19  26482513.105     2693662.7382      -1726.035          39.500  
C26  23753353.757    -5912135.8222       3396.406          44.750  
C 9  36663212.623     -143462.7112         81.680          43.000  
C22  23062970.950      572545.8292       -506.973          48.500  
C 4  38749390.639     -491040.6002        309.688          34.500  
C10  40544823.910    -1926329.2112       1427.441          35.250  
C 2  37074573.970     -541034.0972        314.893          41.500  
C 3  36358069.111     -494828.8202        288.828          43.500  
G32  23107069.762    -3578279.660        2036.172          44.750  
C 8  37467853.994     1845191.5082      -1229.873          41.250  
C 5  39039645.764     -536949.1082        312.207          36.250  
C12  25211644.442     2939669.1402      -1888.682          33.000  
C 1  37551194.158     -560921.9742        331.904          38.250  
C 7  39444701.422    -2818788.2802       1780.400          38.000  
G12  23117982.570    -4353271.483        2630.039          34.750  
G21  25184455.206    -3824355.312        2607.734          37.250  
> 2020  9 30  8 30 53.0000000  0 28                     
G10  21696896.813    -4823449.488        2749.854          46.500  
G15  23544876.425     3340751.756       -2009.287          42.250  
G18  21623761.014     3475413.141       -2439.072          45.500  
G20  19887362.474    -2095531.744         852.432          43.500  
G23  20287492.058    -2423646.220        1126.924          45.500  
G24  21030170.463     2648104.648       -1999.053          47.750  
G25  23761169.658    -5676133.988        3452.568          38.750  
C 6  36719262.042      -19656.7302         44.775          46.250  
C11  25997216.739      -60458.8162       -341.650          37.500  
C13  36095994.796     1082937.7332       -804.072          45.750  
C16  36640820.120       -7267.6792         27.422          46.500  
C21  22654517.542    -2751668.9812       1571.162          49.500  
C19  26482844.520     2695388.8892      -1726.172          39.500  
C26  23752701.730    -5915532.0302       3396.113          44.750  
C 9  36663196.953     -143544.3382         81.592          43.000  
C22  23063068.340      573052.9962       -507.236          48.500  
C 4  38749331.308     -491350.2012        309.619          34.250  
C10  40544549.994    -1927756.7612       1427.539          35.250  
C 2  37074513.400     -541348.9402        314.805          41.500  
C 3  36358013.655     -495117.6302        288.799          43.500  
G32  23106682.367    -3580315.658        2035.977          45.000  
C 8  37468090.357     1846421.5642      -1230.137          41.500  
C 5  39039585.805     -537261.3382        312.285          36.250  
C12  25212007.023     2941557.9032      -1888.896          33.000  
C 1  37551130.412     -561253.7872        331.855          38.250  
C 7  39444359.241    -2820568.6942       1780.469          37.750  
G12  23117482.429    -4355901.143        2629.600          34.500  
G21  25183959.183    -3826962.693        2607.256          37.000  
> 2020  9 30  8 30 54.0000000  0 28                     
G10  21696373.394    -4826199.362        2749.785          46.500  
G15  23545258.777     3342760.881       -2009.102          42.250  
G18  21624225.015     3477852.331       -2439.316          45.500  
G20  19887200.222    -2096383.975         852.041          43.500  
G23  20287277.682    -2424772.985        1126.621          45.500  
G24  21030550.930     2650103.895       -1999.414          47.750  
G25  23760512.727    -5679586.776        3452.783          39.000  
C 6  36719254.085      -19701.7062         44.932          46.250  
C11  25997282.212      -60117.0172       -341.982          37.500  
C13  36096149.039     1083741.7822       -804.121          46.000  
C16  36640814.536       -7295.2552         27.588          46.500  
C21  22654215.723    -2753240.2502       1571.191          49.500  
C19  26483175.935     2697115.0652      -1726.270          39.750  
C26  23752049.685    -5918928.1742       3396.045          44.750  
C 9  36663181.090     -143626.1352         81.797          43.000  
C22  23063165.956      573560.2322       -507.324          48.500  
C 4  38749271.925     -491659.9372        309.648          34.250  
C10  40544275.939    -1929184.5852       1427.812          35.500  
C 2  37074452.935     -541663.9322        314.961          41.500  
C 3  36357958.058     -495406.5672        288.926          43.500  
G32  23106294.571    -3582351.698        2035.957          45.000  
C 8  37468326.319     1847651.6052      -1230.078          41.250  
C 5  39039525.602     -537573.6802        312.363          36.000  
C12  25212369.534     2943446.5352      -1888.740          33.500  
C 1  37551066.562     -561585.7192        331.934          38.250  
C 7  39444017.147    -2822349.3172       1780.674          38.000  
G12  23116982.201    -4358530.685        2629.463          34.500  
G21  25183462.899    -3829569.927        2607.070          36.750  
> 2020  9 30  8 30 55.0000000  0 28                     
G10  21695850.393    -4828949.159        2749.795          46.750  
G15  23545640.884     3344769.871       -2008.887          42.250  
G18  21624689.418     3480291.760       -2439.482          45.500  
G20  19887038.022    -2097235.841         851.768          43.500  
G23  20287063.184    -2425899.471        1126.416          45.500  
G24  21030931.537     2652103.445       -1999.629          47.750  
G25  23759855.464    -5683039.718        3452.998          39.000  
C 6  36719245.272      -19746.8832         45.234          46.250  
C11  25997347.686      -59774.9752       -342.168          37.250  
C13  36096303.421     1084545.8652       -804.111          46.000  
C16  36640808.446       -7323.0082         27.842          46.500  
C21  22653913.922    -2754811.5542       1571.348          49.500  
C19  26483507.593     2698841.2242      -1726.152          39.750  
C26  23751397.344    -5922324.2472       3396.084          44.750  
C 9  36663165.612     -143708.0552         82.012          43.000  
C22  23063263.224      574067.5542       -507.314          48.500  
C 4  38749212.367     -491969.7982        310.020          34.250  
C10  40544001.743    -1930612.6292       1428.086          35.250  
C 2  37074392.400     -541979.0482        315.176          41.500  
C 3  36357902.689     -495695.6332        289.092          43.500  
G32  23105907.089    -3584387.750        2036.074          44.750  
C 8  37468562.578     1848881.6662      -1230.078          41.250  
C 5  39039465.503     -537886.1412        312.529          36.000  
C12  25212732.376     2945335.1402      -1888.604          33.750  
C 1  37551002.868     -561917.7852        332.197          38.250  
C 7  39443675.123    -2824130.0822       1780.879          38.250  
G12  23116481.798    -4361160.071        2629.268          34.750  
G21  25182966.667    -3832176.964        2607.012          36.750  
> 2020  9 30  8 30 56.0000000  0 28                     
G10  21695327.253    -4831698.848        2749.600          46.750  
G15  23546023.044     3346778.814       -2008.965          42.000  
G18  21625153.419     3482731.478       -2439.873          45.500  
G20  19886876.014    -2098087.283         851.270          43.500  
G23  20286849.018    -2427025.611        1125.977          45.500  
G24  21031312.196     2654103.358       -2000.088          47.750  
G25  23759198.498    -5686492.727        3452.969          39.000  
C 6  36719235.919      -19792.1812         45.303          46.250  
C11  25997413.386      -59432.5342       -342.607          37.000  
C13  36096457.925     1085350.0402       -804.238          46.000  
C16  36640802.530       -7350.8612         27.832          46.500  
C21  22653612.208    -2756382.8242       1571.211          49.500  
C19  26483839.060     2700567.4652      -1726.289          39.750  
C26  23750745.020    -5925720.1862       3395.830          44.750  
C 9  36663149.506     -143790.0642         82.021          43.000  
C22  23063360.718      574575.0032       -507.529          48.500  
C 4  38749152.775     -492279.7182        309.863          34.500  
C10  40543727.321    -1932040.8382       1428.301          35.250  
C 2  37074331.796     -542294.2252        315.146          41.500  
C 3  36357847.110     -495984.7612        289.082          43.500  
G32  23105519.624    -3586423.777        2035.977          44.750  
C 8  37468799.081     1850111.7912      -1230.176          41.250  
C 5  39039405.352     -538198.7322        312.676          36.250  
C12  25213095.236     2947223.7532      -1888.672          34.000  
C 1  37550939.315     -562249.9252        332.178          38.250  
C 7  39443332.889    -2825910.9952       1780.938          38.000  
G12  23115981.518    -4363789.287        2629.121          34.500  
G21  25182470.627    -3834783.725        2606.631          36.750  
> 2020  9 30  8 30 57.0000000  0 27                     
G10  21694804.253    -4834448.330        2749.355          46.750  
G15  23546405.361     3348787.767       -2009.072          42.250  
G18  21625617.856     3485171.571       -2440.244          45.500  
G20  19886713.972    -2098938.199         850.723          43.500  
G23  20286634.851    -2428151.338        1125.576          45.500  
G24  21031692.733     2656103.729       -2000.527          47.500  
G25  23758541.655    -5689945.775        3452.998          39.000  
C 6  36719227.264      -19837.5312         45.352          46.250  
C11  25997479.173      -59089.6812       -343.037          37.250  
C13  36096612.481     1086154.4062       -804.453          45.750  
C16  36640797.138       -7378.7572         27.871          46.500  
C21  22653310.581    -2757953.9862       1571.113          49.500  
C19  26484170.684     2702293.8242      -1726.396          39.500  
C26  23750092.922    -5929115.9112       3395.625          44.750  
C 9  36663133.765     -143872.0722         82.012          43.000  
C22  23063458.195      575082.6652       -507.754          48.500  
C10  40543453.039    -1933469.1532       1428.398          35.500  
C 2  37074271.243     -542609.4032        315.146          41.500  
C 3  36357791.601     -496273.8882        289.111          43.500  
G32  23105131.950    -3588459.682        2035.869          44.750  
C 8  37469035.374     1851342.0442      -1230.293          41.250  
C 5  39039345.376     -538511.2192        312.529          36.250  
C12  25213458.044     2949112.4872      -1888.750          33.750  
C 1  37550875.534     -562582.0412        332.109          38.250  
C 7  39442990.969    -2827691.9242       1780.957          38.000  
G12  23115481.185    -4366418.167        2628.701          34.500  
G21  25181974.343    -3837390.173        2606.357          36.750  
> 2020  9 30  8 30 58.0000000  0 28                     
G10  21694280.903    -4837197.773        2749.463          46.750  
G15  23546787.643     3350796.582       -2008.838          42.250  
G18  21626082.015     3487611.892       -2440.371          45.250  
G20  19886552.156    -2099788.763         850.488          43.500  
G23  20286420.597    -2429276.800        1125.381          45.250  
G24  21032073.427     2658104.405       -2000.742          47.500  
G25  23757884.549    -5693398.994        3453.291          39.000  
C 6  36719219.236      -19883.0622         45.596          46.250  
C11  25997545.013      -58746.5422       -343.223          37.500  
C13  36096767.038     1086958.8022       -804.404          46.000  
C16  36640792.374       -7406.8492         28.154          46.500  
C21  22653008.884    -2759525.1822       1571.201          49.500  
C19  26484502.099     2704020.1952      -1726.328          39.250  
C26  23749440.878    -5932511.5922       3395.703          44.750  
C 9  36663117.990     -143954.2352         82.197          43.000  
C22  23063555.602      575590.3902       -507.734          48.500  
C 4  38749033.939     -492899.7133        310.107          34.500  
C10  40543178.739    -1934897.6872       1428.682          35.500  
C 2  37074210.674     -542924.7192        315.352          41.250  
C 3  36357735.899     -496563.1642        289.307          43.500  
G32  23104744.450    -3590495.631        2035.986          44.750  
C 8  37469271.598     1852572.2922      -1230.264          41.250  
C 5  39039285.400     -538823.8712        312.725          36.500  
C12  25213820.956     2951001.1562      -1888.643          34.000  
C 1  37550811.509     -562914.2932        332.256          38.000  
C 7  39442648.910    -2829473.0692       1781.211          38.000  
G12  23114981.097    -4369046.965        2628.711          34.500  
G21  25181478.181    -3839996.432        2606.182          36.500  
> 2020  9 30  8 30 59.0000000  0 27                     
G10  21693757.781    -4839946.908        2749.062          46.750  
G15  23547170.047     3352805.503       -2008.945          42.250  
G18  21626546.417     3490052.690       -2440.928          45.250  
G20  19886390.410    -2100638.703         849.775          43.500  
G23  20286206.570    -2430401.724        1124.805          45.250  
G24  21032454.278     2660105.628       -2001.348          47.500  
G25  23757227.793    -5696852.101        3453.135          39.000  
C 6  36719210.511      -19928.5312         45.488          46.250  
C11  25997610.852      -58402.9062       -343.799          37.250  
C13  36096921.507     1087763.4782       -804.775          45.750  
C16  36640787.627       -7434.8572         28.027          46.500  
C21  22652707.309    -2761096.1692       1570.928          49.750  
C19  26484833.443     2705746.8152      -1726.709          39.000  
C26  23748788.763    -5935906.9302       3395.225          44.500  
C 9  36663102.111     -144036.2862         82.021          43.000  
C22  23063653.271      576098.4412       -508.125          48.500  
C10  40542904.439    -1936326.2002       1428.545          35.500  
C 2  37074149.999     -543239.9162        315.176          41.500  
C 3  36357680.320     -496852.3172        289.121          43.500  
G32  23104357.213    -3592531.341        2035.654          44.750  
C 8  37469508.065     1853802.7802      -1230.527          41.250  
C 5  39039225.441     -539136.4562        312.559          36.500  
C12  25214183.467     2952889.9782      -1888.779          34.000  
C 1  37550747.659     -563246.4742        332.158          38.250  
C 7  39442307.060    -2831254.1502       1781.162          38.000  
G12  23114480.834    -4371675.399        2628.252          34.750  
G21  25180982.019    -3842602.264        2605.693          36.750  
> 2020  9 30  8 31  0.0000000  0 28                     
G10  21693234.693    -4842695.961        2749.053          46.750  
G15  23547552.416     3354814.329       -2008.750          42.250  
G18  21627010.768     3492493.743       -2441.094          45.250  
G20  19886228.960    -2101488.259         849.473          43.500  
G23  20285992.823    -2431526.355        1124.580          45.500  
G24  21032835.112     2662107.169       -2001.611          47.750  
G25  23756570.531    -5700305.358        3453.359          39.000  
C 6  36719201.315      -19974.1752         45.742          46.250  
C11  25997676.762      -58058.9592       -343.975          37.000  
C13  36097076.064     1088568.1962       -804.727          45.750  
C16  36640782.689       -7463.0262         28.242          46.500  
C21  22652405.560    -2762667.1752       1571.064          49.750  
C19  26485165.033     2707473.4472      -1726.582          39.250  
C26  23748136.666    -5939302.1992       3395.303          44.750  
C 9  36663086.580     -144118.4892         82.305          43.000  
C22  23063750.835      576606.5832       -508.115          48.500  
C 4  38748914.771     -493519.7223        310.039          34.500  
C10  40542630.034    -1937754.9672       1428.877          35.500  
C 2  37074089.569     -543555.2222        315.371          41.250  
C 3  36357624.829     -497141.5872        289.375          43.500  
G32  23103969.940    -3594567.074        2035.781          45.000  
C 8  37469744.324     1855033.2882      -1230.488          41.500  
C 5  39039165.534     -539449.0632        312.715          36.250  
C12  25214546.588     2954778.8142      -1888.740          34.500  
C 1  37550684.035     -563578.7362        332.422          38.250  
C 7  39441965.001    -2833035.3692       1781.338          38.000  
G12  23113980.816    -4374303.663        2628.262          34.500  
G21  25180486.101    -3845207.888        2605.615          36.250  
> 2020  9 30  8 31  1.0000000  0 28                     
G10  21692711.448    -4845444.797        2748.672          46.750  
G15  23547934.767     3356823.202       -2009.014          42.250  
G18  21627475.327     3494935.198       -2441.670          45.000  
G20  19886067.441    -2102337.287         848.779          43.500  
G23  20285778.883    -2432650.554        1123.945          45.500  
G24  21033215.893     2664109.189       -2002.266          47.500  
G25  23755913.233    -5703758.607        3453.115          39.000  
C 6  36719192.398      -20019.8492         45.586          46.000  
C11  25997742.863      -57714.5612       -344.648          37.000  
C13  36097230.725     1089373.1422       -805.117          45.750  
C16  36640777.227       -7491.2072         28.066          46.500  
C21  22652103.846    -2764238.0592       1570.752          49.750  
C19  26485496.796     2709200.2402      -1726.885          39.500  
C26  23747484.569    -5942697.2362       3394.863          44.750  
C 9  36663070.561     -144200.6592         82.031          43.000  
C22  23063848.748      577114.9602       -508.535          48.500  
C 4  38748855.126     -493829.7842        309.951          34.500  
C10  40542355.664    -1939183.8182       1428.809          35.500  
C 2  37074028.947     -543870.4852        315.117          41.500  
C 3  36357569.546     -497430.8132        289.141          43.500  
G32  23103582.650    -3596602.652        2035.430          45.000  
C 8  37469980.652     1856263.9352      -1230.801          41.250  
C 5  39039105.750     -539761.6902        312.490          36.500  
C12  25214909.029     2956667.7102      -1889.004          34.000  
C 1  37550620.272     -563910.9672        332.129          38.250  
C 7  39441622.925    -2834816.6112       1781.230          38.000  
G12  23113480.832    -4376931.620        2627.822          34.500  
G21  25179990.149    -3847813.130        2605.010          36.250  
> 2020  9 30  8 31  2.0000000  0 28                     
G10  21692188.099    -4848193.632        2748.857          46.750  
G15  23548317.015     3358831.851       -2008.574          42.250  
G18  21627939.748     3497376.826       -2441.660          45.000  
G20  19885906.288    -2103185.998         848.633          43.500  
G23  20285564.943    -2433774.522        1123.896          45.250  
G24  21033596.848     2666111.481       -2002.344          47.500  
G25  23755256.442    -5707212.068        3453.535          39.000  
C 6  36719183.987      -20065.7542         45.986          46.000  
C11  25997808.930      -57369.9122       -344.668          36.750  
C13  36097385.299     1090178.0772       -804.912          45.750  
C16  36640770.875       -7519.6312         28.506          46.500  
C21  22651802.289    -2765809.0092       1571.006          49.750  
C19  26485828.507     2710927.0062      -1726.748          39.750  
C26  23746832.454    -5946092.2622       3395.020          44.750  
C 9  36663054.943     -144283.0242         82.441          43.000  
C22  23063946.400      577623.3552       -508.369          48.500  
C 4  38748795.656     -494140.0342        310.391          34.500  
C10  40542081.277    -1940612.9092       1429.219          35.500  
C 2  37073968.308     -544185.9312        315.547          41.500  
C 3  36357513.741     -497720.2342        289.482          43.500  
G32  23103195.360    -3598638.322        2035.684          45.000  
C 8  37470216.963     1857494.5562      -1230.576          41.250  
C 5  39039045.494     -540074.5112        312.881          36.500  
C12  25215272.011     2958556.5522      -1888.896          34.250  
C 1  37550556.649     -564243.3962        332.480          38.250  
C 7  39441280.918    -2836598.0782       1781.543          38.000  
G12  23112980.796    -4379559.505        2627.910          34.250  
G21  25179494.301    -3850418.283        2605.127          36.000  
> 2020  9 30  8 31  3.0000000  0 28                     
G10  21691665.081    -4850942.246        2748.584          46.750  
G15  23548699.139     3360840.544       -2008.672          42.500  
G18  21628404.237     3499818.843       -2442.119          45.000  
G20  19885744.874    -2104034.187         848.037          43.500  
G23  20285351.265    -2434898.048        1123.438          45.250  
G24  21033978.083     2668114.226       -2002.891          47.500  
G25  23754599.319    -5710665.528        3453.486          39.250  
C 6  36719175.297      -20111.6882         45.977          46.000  
C11  25997875.241      -57024.8382       -345.127          36.750  
C13  36097539.873     1090983.2232       -805.186          45.750  
C16  36640764.611       -7548.0612         28.486          46.500  
C21  22651500.714    -2767379.8462       1570.820          49.750  
C19  26486160.271     2712653.9102      -1726.992          40.000  
C26  23746180.566    -5949487.0462       3394.736          44.750  
C 9  36663038.941     -144365.3882         82.363          43.000  
C22  23064043.877      578131.9892       -508.672          48.500  
C 4  38748736.063     -494450.2172        310.205          34.500  
C10  40541806.837    -1942042.0712       1429.258          35.750  
C 2  37073907.878     -544501.3792        315.400          41.500  
C 3  36357458.162     -498009.6272        289.346          43.500  
G32  23102807.947    -3600673.858        2035.508          44.750  
C 8  37470453.431     1858725.3192      -1230.762          41.500  
C 5  39038985.291     -540387.2482        312.715          36.500  
C12  25215634.906     2960445.4542      -1888.916          34.000  
C 1  37550492.868     -564575.7662        332.324          38.250  
C 7  39440938.754    -2838379.5982       1781.562          38.000  
G12  23112480.778    -4382187.072        2627.490          34.250  
G21  25178998.331    -3853023.060        2604.736          36.250  
> 2020  9 30  8 31  4.0000000  0 28                     
G10  21691142.028    -4853690.521        2748.271          46.750  
G15  23549081.439     3362849.436       -2008.867          42.250  
G18  21628868.954     3502261.385       -2442.607          45.000  
G20  19885583.582    -2104881.709         847.383          43.500  
G23  20285137.553    -2436021.005        1122.891          45.250  
G24  21034359.371     2670117.558       -2003.438          47.500  
G25  23753942.179    -5714118.834        3453.369          39.250  
C 6  36719165.909      -20157.5172         45.889          46.250  
C11  25997941.534      -56679.2112       -345.703          36.750  
C13  36097694.465     1091788.6862       -805.498          45.750  
C16  36640759.218       -7576.3812         28.350          46.500  
C21  22651198.930    -2768950.4262       1570.586          49.750  
C19  26486492.069     2714381.1042      -1727.148          40.000  
C26  23745528.905    -5952881.4862       3394.414          44.750  
C 9  36663023.253     -144447.6112         82.236          43.000  
C22  23064141.895      578640.9722       -508.994          48.500  
C 4  38748676.384     -494760.2583        310.010          34.250  
C10  40541532.398    -1943471.2342       1429.268          35.750  
C 2  37073847.290     -544816.6742        315.371          41.500  
C 3  36357402.478     -498298.8802        289.248          43.500  
G32  23102420.273    -3602709.125        2035.273          44.750  
C 8  37470689.916     1859956.3782      -1231.045          41.500  
C 5  39038925.314     -540699.9032        312.656          36.500  
C12  25215997.609     2962334.6022      -1889.053          34.000  
C 1  37550429.088     -564908.0192        332.295          38.250  
C 7  39440596.625    -2840160.9752       1781.377          38.000  
G12  23111980.811    -4384814.223        2627.139          34.500  
G21  25178502.622    -3855627.381        2604.365          36.000  
> 2020  9 30  8 31  5.0000000  0 28                     
G10  21690618.870    -4856438.759        2748.359          46.750  
G15  23549463.564     3364858.126       -2008.457          42.250  
G18  21629333.653     3504704.146       -2442.715          45.000  
G20  19885422.411    -2105728.880         847.188          43.500  
G23  20284923.753    -2437143.701        1122.734          45.500  
G24  21034740.640     2672121.190       -2003.633          47.500  
G25  23753285.161    -5717572.331        3453.672          39.000  
C 6  36719156.730      -20203.5572         46.221          46.000  
C11  25998007.915      -56333.3162       -345.840          37.000  
C13  36097849.109     1092594.1722       -805.361          45.750  
C16  36640754.297       -7604.8982         28.672          46.500  
C21  22650897.338    -2770521.0552       1570.752          49.750  
C19  26486823.850     2716108.2872      -1727.070          40.000  
C26  23744876.948    -5956275.8702       3394.473          44.750  
C 9  36663007.356     -144529.9842         82.520          43.000  
C22  23064239.424      579150.0262       -508.945          48.500  
C 4  38748617.018     -495070.4382        310.312          34.250  
C10  40541258.046    -1944900.6262       1429.619          35.750  
C 2  37073786.703     -545132.0852        315.615          41.500  
C 3  36357347.091     -498588.2792        289.541          43.500  
G32  23102033.001    -3604744.440        2035.449          44.750  
C 8  37470926.053     1861187.3902      -1230.889          41.500  
C 5  39038864.954     -541012.6832        312.881          36.500  
C12  25216360.468     2964223.7092      -1888.887          34.000  
C 1  37550365.220     -565240.4122        332.627          38.250  
C 7  39440254.322    -2841942.5732       1781.719          38.000  
G12  23111480.793    -4387441.261        2627.188          34.500  
G21  25178006.792    -3858231.499        2604.141          36.000  
> 2020  9 30  8 31  6.0000000  0 28                     
G10  21690096.097    -4859186.994        2748.066          47.000  
G15  23549845.985     3366866.667       -2008.604          42.500  
G18  21629798.527     3507147.070       -2443.145          45.000  
G20  19885261.067    -2106575.752         846.621          43.250  
G23  20284710.040    -2438266.192        1122.236          45.500  
G24  21035122.085     2674125.048       -2004.141          47.500  
G25  23752627.654    -5721026.052        3453.662          39.000  
C 6  36719148.354      -20249.8482         46.191          46.000  
C11  25998074.068      -55987.1802       -346.260          37.000  
C13  36098003.875     1093399.6502       -805.625          45.750  
C16  36640749.673       -7633.6562         28.662          46.500  
C21  22650595.606    -2772091.7832       1570.586          49.750  
C19  26487155.422     2717835.4142      -1727.324          39.750  
C26  23744225.287    -5959670.2462       3394.209          45.000  
C 9  36662991.250     -144612.5662         82.500          42.750  
C22  23064337.023      579659.0802       -509.219          48.500  
C 4  38748557.478     -495380.8323        310.254          34.250  
C10  40540983.344    -1946330.3182       1429.648          36.000  
C 2  37073726.046     -545447.7142        315.527          41.500  
C 3  36357291.442     -498877.8502        289.473          43.500  
G32  23101645.850    -3606779.829        2035.225          44.750  
C 8  37471162.521     1862418.3762      -1231.182          41.500  
C 5  39038804.908     -541325.6212        312.852          36.250  
C12  25216723.119     2966112.6672      -1889.160          34.250  
C 1  37550301.387     -565572.9752        332.461          38.250  
C 7  39439912.193    -2843724.4002       1781.748          38.000  
G12  23110980.705    -4390068.232        2626.709          34.250  
G21  25177511.241    -3860835.505        2603.770          36.000  
> 2020  9 30  8 31  7.0000000  0 28                     
G10  21689573.445    -4861935.001        2748.037          47.000  
G15  23550228.145     3368875.246       -2008.486          42.500  
G18  21630263.663     3509590.389       -2443.320          45.000  
G20  19885099.966    -2107422.081         846.299          43.250  
G23  20284496.449    -2439388.232        1122.021          45.500  
G24  21035503.442     2676129.353       -2004.307          47.500  
G25  23751970.304    -5724479.767        3453.848          38.500  
C 6  36719139.978      -20296.1612         46.465          46.250  
C11  25998140.885      -55640.5912       -346.650          37.000  
C13  36098158.361     1094205.3282       -805.625          45.750  
C16  36640744.525       -7662.4182         28.887          46.500  
C21  22650293.909    -2773662.3832       1570.684          49.750  
C19  26487487.203     2719562.6912      -1727.178          39.500  
C26  23743573.888    -5963064.3942       3394.219          45.000  
C 9  36662975.579     -144695.1512         82.676          43.000  
C22  23064434.901      580168.3702       -509.258          48.500  
C 4  38748498.165     -495691.2082        310.459          34.500  
C10  40540708.730    -1947760.0622       1429.912          36.000  
C 2  37073665.250     -545763.2692        315.674          41.500  
C 3  36357236.055     -499167.4162        289.629          43.500  
G32  23101258.612    -3608815.100        2035.322          44.750  
C 8  37471399.006     1863649.4802      -1231.055          41.500  
C 5  39038745.019     -541638.5542        313.057          36.250  
C12  25217085.979     2968001.7702      -1889.072          34.250  
C 1  37550237.362     -565905.5472        332.686          38.250  
C 7  39439569.889    -2845506.2322       1781.934          38.000  
G12  23110480.895    -4392694.899        2626.738          34.000  
G21  25177015.829    -3863439.173        2603.711          36.000  
> 2020  9 30  8 31  8.0000000  0 27                     
G10  21689050.497    -4864682.936        2747.988          47.000  
G15  23550610.427     3370883.686       -2008.311          42.500  
G18  21630728.467     3512033.973       -2443.584          45.000  
G20  19884939.023    -2108268.018         845.889          43.250  
G23  20284283.120    -2440509.961        1121.689          45.500  
G24  21035885.148     2678134.015       -2004.668          47.750  
G25  23751312.850    -5727933.589        3453.916          38.500  
C 6  36719130.712      -20342.6312         46.602          46.000  
C11  25998207.371      -55293.7032       -346.924          37.000  
C13  36098313.127     1095011.0882       -805.674          45.750  
C16  36640738.819       -7691.3262         29.023          46.500  
C21  22649992.335    -2775232.9792       1570.674          49.750  
C19  26487818.809     2721290.0102      -1727.246          39.250  
C26  23742922.314    -5966458.4282       3394.033          45.000  
C 9  36662959.630     -144777.8282         82.812          43.000  
C22  23064532.605      580677.7742       -509.346          48.500  
C10  40540434.133    -1949190.0402       1430.156          36.000  
C 2  37073604.837     -546078.9712        315.820          41.500  
C 3  36357180.302     -499457.0732        289.814          43.500  
G32  23100871.078    -3610850.354        2035.371          44.750  
C 8  37471635.509     1864880.6082      -1231.025          41.500  
C 5  39038684.798     -541951.5722        313.184          36.500  
C12  25217449.118     2969890.7992      -1889.004          34.500  
C 1  37550173.285     -566238.1872        332.783          38.250  
C 7  39439227.830    -2847288.2542       1782.158          38.000  
G12  23109980.999    -4395321.394        2626.514          34.000  
G21  25176520.400    -3866042.589        2603.320          36.000  
> 2020  9 30  8 31  9.0000000  0 28                     
G10  21688527.759    -4867430.557        2747.598          47.000  
G15  23550992.761     3372892.268       -2008.574          42.500  
G18  21631193.620     3514478.035       -2444.141          45.000  
G20  19884778.219    -2109113.334         845.215          43.500  
G23  20284069.756    -2441631.170        1121.133          45.500  
G24  21036266.592     2680139.203       -2005.264          47.750  
G25  23750655.378    -5731387.346        3453.809          38.250  
C 6  36719121.149      -20389.0512         46.475          46.000  
C11  25998273.996      -54946.2862       -347.471          37.000  
C13  36098467.998     1095817.1102       -806.045          45.750  
C16  36640732.310       -7720.1702         28.926          46.500  
C21  22649690.655    -2776803.3592       1570.361          49.750  
C19  26488150.259     2723017.5672      -1727.568          39.000  
C26  23742270.636    -5969852.1782       3393.730          45.000  
C 9  36662943.872     -144860.4172         82.637          42.750  
C22  23064630.501      581187.4952       -509.727          48.500  
C 4  38748378.753     -496312.0253        310.391          34.250  
C10  40540159.484    -1950619.9882       1430.068          36.000  
C 2  37073544.337     -546394.5272        315.605          41.500  
C 3  36357124.723     -499746.6122        289.590          43.500  
G32  23100483.875    -3612885.402        2035.039          44.750  
C 8  37471872.169     1866112.0012      -1231.357          41.500  
C 5  39038624.961     -542264.4482        312.900          36.500  
C12  25217812.222     2971780.0462      -1889.258          34.750  
C 1  37550109.714     -566570.7352        332.656          38.000  
C 7  39438885.526    -2849070.2062       1782.080          37.750  
G12  23109480.998    -4397947.512        2626.221          33.750  
G21  25176025.198    -3868645.601        2602.998          36.000  
> 2020  9 30  8 31 10.0000000  0 28                     
G10  21688005.142    -4870177.991        2747.461          47.000  
G15  23551374.938     3374900.850       -2008.545          42.500  
G18  21631658.686     3516922.462       -2444.443          45.000  
G20  19884617.572    -2109958.145         844.795          43.250  
G23  20283856.567    -2442751.964        1120.791          45.500  
G24  21036648.281     2682144.819       -2005.654          47.750  
G25  23749998.098    -5734841.107        3453.867          38.500  
C 6  36719112.267      -20435.5242         46.592          46.250  
C11  25998340.708      -54598.4592       -347.734          37.000  
C13  36098622.886     1096623.3142       -806.152          45.750  
C16  36640725.993       -7749.0682         28.994          46.500  
C21  22649389.133    -2778373.6522       1570.361          49.750  
C19  26488481.900     2724745.2722      -1727.617          38.750  
C26  23741618.818    -5973245.6972       3393.564          45.000  
C 9  36662928.027     -144942.9972         82.676          42.750  
C22  23064728.222      581697.4222       -509.922          48.500  
C 4  38748319.038     -496622.4062        310.488          34.500  
C10  40539885.027    -1952050.0542       1430.225          36.250  
C 2  37073483.750     -546710.0732        315.615          41.500  
C 3  36357069.144     -500036.1482        289.600          43.500  
G32  23100096.707    -3614920.333        2034.971          44.750  
C 8  37472108.828     1867343.5152      -1231.396          41.500  
C 5  39038564.793     -542577.4042        313.018          36.250  
C12  25218175.588     2973669.3542      -1889.248          34.750  
C 1  37550045.811     -566903.2632        332.715          38.250  
C 7  39438543.328    -2850852.1952       1782.139          37.750  
G12  23108981.293    -4400573.338        2625.811          33.750  
G21  25175529.925    -3871248.247        2602.695          36.000  
> 2020  9 30  8 31 11.0000000  0 28                     
G10  21687482.403    -4872925.345        2747.383          47.000  
G15  23551757.150     3376909.323       -2008.408          42.500  
G18  21632123.420     3519367.152       -2444.727          44.750  
G20  19884456.856    -2110802.560         844.355          43.250  
G23  20283643.535    -2443872.454        1120.430          45.500  
G24  21037030.022     2684150.751       -2005.967          47.750  
G25  23749340.905    -5738294.987        3453.945          38.500  
C 6  36719104.065      -20482.1612         46.719          46.250  
C11  25998407.629      -54250.3282       -348.164          37.000  
C13  36098777.617     1097429.5772       -806.201          45.750  
C16  36640720.671       -7778.1042         29.131          46.500  
C21  22649087.593    -2779943.9482       1570.342          49.750  
C19  26488813.786     2726472.9982      -1727.715          38.750  
C26  23740967.052    -5976639.1332       3393.477          45.000  
C 9  36662911.799     -145025.7342         82.812          42.750  
C22  23064826.310      582207.4382       -510.020          48.500  
C 4  38748259.690     -496932.8342        310.439          34.500  
C10  40539610.605    -1953480.3292       1430.410          36.250  
C 2  37073423.163     -547025.7372        315.723          41.500  
C 3  36357013.530     -500325.8022        289.746          43.500  
G32  23099709.644    -3616955.273        2035.000          45.000  
C 8  37472345.593     1868575.0622      -1231.475          41.750  
C 5  39038504.694     -542890.4162        313.115          36.250  
C12  25218538.587     2975558.6432      -1889.238          34.750  
C 1  37549981.874     -567235.9082        332.725          38.000  
C 7  39438200.989    -2852634.3242       1782.236          37.750  
G12  23108481.223    -4403199.028        2625.674          33.750  
G21  25175034.374    -3873850.683        2602.461          36.250  
> 2020  9 30  8 31 12.0000000  0 28                     
G10  21686959.612    -4875672.589        2747.109          47.250  
G15  23552139.642     3378917.707       -2008.496          42.750  
G18  21632588.730     3521812.107       -2445.137          44.750  
G20  19884296.279    -2111646.561         843.799          43.250  
G23  20283430.363    -2444992.629        1119.961          45.500  
G24  21037411.571     2686157.041       -2006.494          47.750  
G25  23748683.625    -5741749.003        3453.926          38.500  
C 6  36719094.991      -20528.9342         46.719          46.250  
C11  25998474.411      -53901.8682       -348.730          36.750  
C13  36098932.523     1098235.9262       -806.484          45.750  
C16  36640715.541       -7807.2942         29.141          46.500  
C21  22648786.210    -2781514.2422       1570.195          49.750  
C19  26489145.706     2728200.7682      -1727.920          38.750  
C26  23740315.496    -5980032.4532       3393.203          45.000  
C 9  36662895.832     -145108.5502         82.744          42.750  
C22  23064924.275      582717.5782       -510.234          48.500  
C 4  38748200.045     -497243.3892        310.459          34.500  
C10  40539335.852    -1954910.7812       1430.400          36.250  
C 2  37073362.401     -547341.5172        315.732          41.500  
C 3  36356957.550     -500615.5422        289.668          43.500  
G32  23099322.389    -3618990.187        2034.775          45.000  
C 8  37472581.921     1869806.6212      -1231.602          41.750  
C 5  39038444.648     -543203.4682        312.998          36.250  
C12  25218901.604     2977447.9112      -1889.316          34.750  
C 1  37549917.971     -567568.6542        332.695          38.000  
C 7  39437858.721    -2854416.6172       1782.197          37.750  
G12  23107981.658    -4405824.530        2625.420          33.750  
G21  25174539.381    -3876452.881        2602.041          36.250  
> 2020  9 30  8 31 13.0000000  0 28                     
G10  21686436.873    -4878419.527        2746.846          47.000  
G15  23552521.836     3380926.222       -2008.486          42.750  
G18  21633053.935     3524257.547       -2445.547          44.750  
G20  19884135.545    -2112489.951         843.213          43.250  
G23  20283217.331    -2446112.273        1119.502          45.750  
G24  21037793.591     2688163.896       -2006.992          47.750  
G25  23748026.572    -5745202.894        3453.857          38.500  
C 6  36719085.341      -20575.6622         46.758          46.000  
C11  25998541.438      -53552.8692       -349.111          36.750  
C13  36099087.551     1099042.5762       -806.719          45.750  
C16  36640710.620       -7836.3872         29.102          46.500  
C21  22648484.601    -2783084.3012       1570.010          49.750  
C19  26489477.610     2729928.7962      -1728.076          38.750  
C26  23739663.765    -5983425.4512       3392.920          45.000  
C 9  36662879.690     -145191.2792         82.734          42.750  
C22  23065022.345      583228.0412       -510.527          48.250  
C 4  38748140.243     -497553.8332        310.273          34.500  
C10  40539061.185    -1956341.2222       1430.430          36.000  
C 2  37073301.814     -547657.1662        315.654          41.500  
C 3  36356902.233     -500905.1672        289.619          43.500  
G32  23098934.662    -3621024.877        2034.629          44.750  
C 8  37472818.721     1871038.4582      -1231.904          41.500  
C 5  39038384.637     -543516.4562        312.930          36.250  
C12  25219264.307     2979337.3862      -1889.492          34.750  
C 1  37549854.086     -567901.2702        332.607          38.250  
C 7  39437516.487    -2856198.8122       1782.148          37.750  
G12  23107482.215    -4408449.642        2625.049          33.750  
G21  25174044.354    -3879054.649        2601.621          36.250  
> 2020  9 30  8 31 14.0000000  0 28                     
G10  21685914.257    -4881166.350        2746.777          47.250  
G15  23552904.014     3382934.662       -2008.398          42.500  
G18  21633519.193     3526703.284       -2445.811          44.750  
G20  19883974.986    -2113332.906         842.812          43.250  
G23  20283004.211    -2447231.565        1119.180          45.750  
G24  21038175.663     2690171.093       -2007.295          47.750  
G25  23747369.450    -5748656.904        3454.004          38.500  
C 6  36719076.598      -20622.4932         46.865          46.000  
C11  25998608.307      -53203.5432       -349.463          36.250  
C13  36099242.439     1099849.3152       -806.768          45.750  
C16  36640705.123       -7865.6152         29.258          46.500  
C21  22648183.218    -2784654.3512       1570.049          49.750  
C19  26489809.617     2731656.8722      -1728.086          38.750  
C26  23739011.947    -5986818.3322       3392.852          45.000  
C 9  36662864.212     -145274.0822         82.871          42.750  
C22  23065120.258      583738.6432       -510.645          48.250  
C 4  38748080.371     -497864.3172        310.459          34.500  
C10  40538786.414    -1957771.8512       1430.664          36.000  
C 2  37073241.105     -547972.8752        315.742          41.500  
C 3  36356846.235     -501194.8512        289.668          43.500  
G32  23098547.407    -3623059.539        2034.648          44.750  
C 8  37473055.189     1872270.3372      -1231.904          41.500  
C 5  39038324.591     -543829.4962        313.066          36.250  
C12  25219627.498     2981226.8722      -1889.541          34.750  
C 1  37549790.148     -568233.9462        332.764          38.250  
C 7  39437174.149    -2857981.1492       1782.266          37.750  
G12  23106982.493    -4411074.561        2624.922          34.000  
G21  25173549.343    -3881656.172        2601.484          36.250  
> 2020  9 30  8 31 15.0000000  0 28                     
G10  21685391.379    -4883913.017        2746.709          47.250  
G15  23553286.086     3384943.090       -2008.350          42.750  
G18  21633984.294     3529149.345       -2446.084          44.750  
G20  19883814.758    -2114175.382         842.422          43.250  
G23  20282791.545    -2448350.480        1118.887          45.750  
G24  21038557.771     2692178.682       -2007.607          47.750  
G25  23746711.978    -5752110.966        3454.121          38.250  
C 6  36719068.152      -20669.4302         47.041          46.000  
C11  25998675.211      -52853.8332       -349.746          36.500  
C13  36099397.309     1100656.1862       -806.807          45.750  
C16  36640699.242       -7894.9212         29.414          46.500  
C21  22647881.556    -2786224.3292       1570.029          49.750  
C19  26490141.259     2733385.0672      -1728.174          38.750  
C26  23738360.269    -5990211.0312       3392.734          45.000  
C 9  36662848.036     -145356.9282         82.930          42.750  
C22  23065218.329      584249.4152       -510.762          48.500  
C 4  38748020.639     -498174.8842        310.469          34.250  
C10  40538511.748    -1959202.6222       1430.908          36.000  
C 2  37073180.413     -548288.6192        315.908          41.500  
C 3  36356790.656     -501484.5832        289.785          43.500  
G32  23098160.117    -3625094.118        2034.619          44.750  
C 8  37473291.709     1873502.3292      -1231.982          41.750  
C 5  39038264.352     -544142.5592        313.154          36.250  
C12  25219990.533     2983116.3752      -1889.414          34.750  
C 1  37549726.402     -568566.6792        332.871          38.250  
C 7  39436831.915    -2859763.5882       1782.559          37.750  
G12  23106483.068    -4413699.213        2624.639          33.750  
G21  25173054.473    -3884257.377        2601.211          36.250  
> 2020  9 30  8 31 16.0000000  0 27                     
G10  21684868.692    -4886659.569        2746.533          47.250  
G15  23553668.054     3386951.439       -2008.350          42.500  
G18  21634449.621     3531595.699       -2446.426          44.500  
G20  19883654.355    -2115017.429         841.953          43.250  
G23  20282578.775    -2449469.067        1118.486          45.750  
G24  21038940.140     2694186.629       -2008.037          47.750  
G25  23746054.384    -5755565.146        3454.248          38.250  
C 6  36719058.729      -20716.5122         47.119          46.250  
C11  25998742.359      -52503.7732       -350.117          36.250  
C13  36099552.023     1101463.1932       -806.992          45.750  
C16  36640692.733       -7924.3352         29.463          46.500  
C21  22647580.139    -2787794.2872       1569.971          49.750  
C19  26490473.424     2735113.3002      -1728.252          38.750  
C26  23737708.520    -5993603.6182       3392.578          44.750  
C 9  36662832.191     -145439.8782         82.988          42.750  
C22  23065316.224      584760.3052       -510.918          48.250  
C10  40538236.907    -1960633.5522       1430.957          36.250  
C 2  37073120.087     -548604.4002        315.811          41.500  
C 3  36356734.920     -501774.3952        289.834          43.500  
G32  23097772.739    -3627128.692        2034.561          44.750  
C 8  37473528.456     1874734.3612      -1232.041          41.500  
C 5  39038203.992     -544455.6952        313.164          36.500  
C12  25220353.672     2985005.8792      -1889.375          34.750  
C 1  37549662.377     -568899.4572        332.764          38.250  
C 7  39436489.315    -2861546.1182       1782.549          37.750  
G12  23105983.660    -4416323.742        2624.404          33.750  
G21  25172559.549    -3886858.371        2600.947          36.500  
> 2020  9 30  8 31 17.0000000  0 28                     
G10  21684346.111    -4889405.955        2746.348          47.250  
G15  23554050.353     3388959.731       -2008.281          42.500  
G18  21634915.140     3534042.371       -2446.758          44.500  
G20  19883494.250    -2115859.011         841.465          43.250  
G23  20282366.092    -2450587.274        1118.115          45.750  
G24  21039322.143     2696194.991       -2008.496          47.750  
G25  23745396.685    -5759019.355        3454.170          38.000  
C 6  36719049.236      -20763.6562         47.188          46.000  
C11  25998809.822      -52153.3322       -350.508          36.500  
C13  36099706.876     1102270.3122       -807.129          45.750  
C16  36640686.678       -7953.8202         29.541          46.500  
C21  22647278.337    -2789364.1712       1569.873          49.750  
C19  26490805.379     2736841.6572      -1728.379          38.500  
C26  23737056.894    -5996996.0262       3392.344          44.750  
C 9  36662816.172     -145522.8552         83.047          42.750  
C22  23065414.330      585271.3842       -511.104          48.250  
C 4  38747901.385     -498796.1673        310.752          34.250  
C10  40537962.136    -1962064.6152       1431.123          36.250  
C 2  37073059.430     -548920.2562        315.811          41.500  
C 3  36356679.498     -502064.2362        289.844          43.500  
G32  23097385.310    -3629163.174        2034.492          44.500  
C 8  37473764.976     1875966.4992      -1232.188          41.500  
C 5  39038143.737     -544768.8802        313.154          36.250  
C12  25220716.793     2986895.4592      -1889.561          34.500  
C 1  37549598.475     -569232.2752        332.861          38.250  
C 7  39436147.081    -2863328.7312       1782.666          37.750  
G12  23105484.409    -4418947.995        2624.229          34.000  
G21  25172064.749    -3889459.044        2600.605          36.750  
> 2020  9 30  8 31 18.0000000  0 28                     
G10  21683823.511    -4892152.143        2746.035          47.500  
G15  23554432.653     3390968.087       -2008.447          42.500  
G18  21635380.677     3536489.443       -2447.266          44.500  
G20  19883334.266    -2116700.071         840.830          43.250  
G23  20282153.373    -2451705.046        1117.578          45.750  
G24  21039704.425     2698203.813       -2009.043          47.750  
G25  23744739.196    -5762473.576        3454.141          37.750  
C 6  36719040.110      -20810.8542         47.129          46.000  
C11  25998877.197      -51802.4832       -351.045          36.250  
C13  36099861.782     1103077.6192       -807.402          45.750  
C16  36640681.373       -7983.3502         29.453          46.500  
C21  22646976.867    -2790933.9412       1569.668          49.750  
C19  26491137.352     2738570.1432      -1728.643          38.250  
C26  23736405.286    -6000388.2162       3392.090          44.750  
C 9  36662800.362     -145605.8342         82.930          42.750  
C22  23065512.574      585782.6782       -511.436          48.250  
C 4  38747841.757     -499106.7992        310.508          34.500  
C10  40537687.120    -1963495.7692       1431.113          36.500  
C 2  37072998.861     -549236.0952        315.732          41.500  
C 3  36356623.762     -502354.0552        289.736          43.500  
G32  23096998.002    -3631197.527        2034.297          44.500  
C 8  37474001.689     1877198.7662      -1232.344          41.500  
C 5  39038083.708     -545082.0562        313.135          36.250  
C12  25221079.426     2988785.1372      -1889.766          34.250  
C 1  37549534.502     -569565.0792        332.695          38.250  
C 7  39435804.848    -2865111.3762       1782.607          37.750  
G12  23104985.229    -4421571.920        2623.838          34.000  
G21  25171569.965    -3892059.399        2600.166          37.000  
> 2020  9 30  8 31 19.0000000  0 28                     
G10  21683301.226    -4894898.023        2745.889          47.500  
G15  23554814.708     3392976.517       -2008.369          42.500  
G18  21635846.441     3538936.988       -2447.598          44.500  
G20  19883174.282    -2117540.517         840.332          43.250  
G23  20281940.830    -2452822.297        1117.158          45.750  
G24  21040086.846     2700213.193       -2009.463          47.750  
G25  23744081.741    -5765927.707        3454.141          38.000  
C 6  36719031.839      -20857.9922         47.217          46.000  
C11  25998944.695      -51451.0852       -351.475          36.000  
C13  36100016.949     1103885.2282       -807.598          45.750  
C16  36640676.400       -8012.8112         29.541          46.500  
C21  22646675.519    -2792503.5022       1569.580          49.750  
C19  26491469.395     2740298.8752      -1728.740          38.000  
C26  23735753.677    -6003780.0992       3391.895          44.750  
C 9  36662784.534     -145688.7152         82.949          42.750  
C22  23065610.924      586294.2842       -511.611          48.250  
C 4  38747782.095     -499417.3212        310.576          34.250  
C10  40537412.297    -1964926.9062       1431.289          36.500  
C 2  37072938.274     -549551.7882        315.732          41.500  
C 3  36356568.078     -502643.7722        289.766          43.500  
G32  23096611.044    -3633231.657        2034.170          44.500  
C 8  37474238.174     1878431.3042      -1232.578          41.750  
C 5  39038023.574     -545395.1032        313.135          36.250  
C12  25221442.408     2990674.9982      -1889.824          34.250  
C 1  37549470.757     -569897.7972        332.783          38.000  
C 7  39435462.474    -2866893.9722       1782.637          38.000  
G12  23104485.943    -4424195.509        2623.643          34.000  
G21  25171075.147    -3894659.329        2599.873          37.000  
> 2020  9 30  8 31 20.0000000  0 27                     
G10  21682778.732    -4897643.885        2745.938          47.500  
G15  23555196.833     3394984.816       -2008.223          42.500  
G18  21636312.205     3541384.732       -2447.754          44.500  
G20  19883014.246    -2118380.620         840.059          43.000  
G23  20281728.199    -2453939.305        1116.982          45.750  
G24  21040469.372     2702222.816       -2009.619          47.750  
G25  23743424.444    -5769382.047        3454.443          38.250  
C 6  36719022.625      -20905.3502         47.510          46.000  
C11  25999011.965      -51099.4222       -351.660          36.250  
C13  36100172.204     1104692.8532       -807.549          45.750  
C16  36640671.008       -8042.4722         29.824          46.500  
C21  22646374.049    -2794073.1192       1569.707          49.750  
C19  26491801.542     2742027.5912      -1728.662          37.750  
C26  23735102.313    -6007171.9192       3391.875          44.500  
C 9  36662768.236     -145771.7712         83.203          42.750  
C22  23065709.029      586805.9502       -511.621          48.250  
C 4  38747722.345     -499728.0022        310.781          34.250  
C10  40537137.421    -1966358.3022       1431.514          36.500  
C 2  37072877.495     -549867.6712        316.025          41.500  
C 3  36356512.412     -502933.6432        289.990          43.500  
G32  23096223.963    -3635265.855        2034.287          44.500  
C 8  37474475.043     1879663.7812      -1232.383          41.500  
C12  25221804.971     2992564.7662      -1889.697          34.000  
C 1  37549406.819     -570230.6522        332.969          38.250  
C 7  39435120.241    -2868676.7492       1782.930          37.750  
G12  23103986.797    -4426818.997        2623.604          34.250  
G21  25170580.520    -3897259.093        2599.814          37.250  
> 2020  9 30  8 31 21.0000000  0 28                     
G10  21682256.238    -4900389.559        2745.732          47.500  
G15  23555579.167     3396993.070       -2008.105          42.500  
G18  21636778.196     3543832.806       -2448.076          44.500  
G20  19882854.647    -2119220.246         839.609          43.250  
G23  20281515.899    -2455055.917        1116.611          45.750  
G24  21040851.829     2704232.867       -2010.088          47.750  
G25  23742767.269    -5772836.393        3454.502          38.250  
C 6  36719012.870      -20952.7932         47.588          46.000  
C11  25999079.550      -50747.3962       -351.982          36.250  
C13  36100327.249     1105500.6202       -807.695          45.750  
C16  36640665.336       -8072.2082         29.863          46.500  
C21  22646072.667    -2795642.6652       1569.639          49.750  
C19  26492133.620     2743756.4322      -1728.760          38.000  
C26  23734450.774    -6010563.5782       3391.719          44.750  
C 9  36662752.583     -145854.8552         83.213          42.750  
C22  23065807.151      587317.7852       -511.768          48.250  
C 4  38747662.491     -500038.7682        310.898          34.500  
C10  40536862.423    -1967789.8302       1431.699          36.750  
C 2  37072816.820     -550183.5472        316.016          41.500  
C 3  36356456.973     -503223.5432        290.010          43.500  
G32  23095836.725    -3637299.956        2034.189          44.500  
C 8  37474711.441     1880896.3842      -1232.520          41.500  
C 5  39037903.377     -546021.5243        313.291          36.250  
C12  25222167.883     2994454.5992      -1889.824          34.000  
C 1  37549342.881     -570563.5342        333.018          38.250  
C 7  39434777.902    -2870459.6282       1783.047          37.750  
G12  23103487.546    -4429442.180        2623.193          34.000  
G21  25170085.946    -3899858.538        2599.463          37.500  
> 2020  9 30  8 31 22.0000000  0 28                     
G10  21681733.743    -4903134.940        2745.234          47.500  
G15  23555961.362     3399001.472       -2008.555          42.500  
G18  21637244.500     3546281.354       -2448.770          44.750  
G20  19882694.558    -2120059.268         838.711          43.250  
G23  20281303.705    -2456172.015        1115.869          45.750  
G24  21041234.215     2706243.468       -2010.840          47.750  
G25  23742110.198    -5776290.666        3454.199          38.250  
C 6  36719003.639      -21000.1792         47.295          46.000  
C11  25999147.187      -50394.8422       -352.725          36.000  
C13  36100482.591     1106308.6462       -808.203          45.750  
C16  36640659.037       -8101.8822         29.609          46.500  
C21  22645771.563    -2797212.0092       1569.209          49.750  
C19  26492465.820     2745485.4822      -1729.258          38.000  
C26  23733799.602    -6013954.9272       3391.172          44.750  
C 9  36662736.616     -145937.8662         82.881          42.750  
C22  23065905.414      587829.9352       -512.324          48.250  
C 4  38747603.108     -500349.3632        310.479          34.500  
C10  40536587.355    -1969221.3792       1431.445          37.000  
C 2  37072756.041     -550499.3262        315.635          41.500  
C 3  36356401.307     -503513.3382        289.688          43.500  
G32  23095449.819    -3639333.868        2033.818          44.500  
C 8  37474948.136     1882129.2272      -1232.930          41.500  
C 5  39037843.296     -546334.6412        312.969          36.500  
C12  25222530.708     2996344.6102      -1890.049          34.000  
C 1  37549279.014     -570896.3262        332.705          38.250  
C 7  39434435.581    -2872242.4332       1782.744          38.000  
G12  23102988.487    -4432065.044        2622.773          34.250  
G21  25169591.529    -3902457.568        2598.838          37.750  
> 2020  9 30  8 31 23.0000000  0 28                     
G10  21681211.214    -4905880.079        2745.020          47.500  
G15  23556343.731     3401009.918       -2008.467          42.500  
G18  21637710.613     3548730.326       -2449.141          44.750  
G20  19882534.959    -2120897.730         838.262          43.000  
G23  20281091.283    -2457287.631        1115.459          45.750  
G24  21041616.672     2708254.573       -2011.279          47.750  
G25  23741453.023    -5779744.893        3454.248          38.250  
C 6  36718995.228      -21047.5512         47.344          46.000  
C11  25999214.999      -50041.8222       -353.232          36.000  
C13  36100637.706     1107116.9102       -808.379          45.500  
C16  36640652.388       -8131.5372         29.648          46.500  
C21  22645470.058    -2798781.1912       1569.102          49.750  
C19  26492797.915     2747214.7292      -1729.258          38.250  
C26  23733148.534    -6017346.0242       3390.967          44.750  
C 9  36662720.824     -146020.8322         82.920          42.750  
C22  23066003.798      588342.3552       -512.549          48.000  
C 4  38747543.585     -500659.8922        310.518          34.500  
C10  40536312.671    -1970652.9752       1431.572          36.750  
C 2  37072695.279     -550815.0652        315.703          41.500  
C 3  36356345.466     -503803.0612        289.688          43.500  
G32  23095062.756    -3641367.591        2033.643          44.500  
C 8  37475184.970     1883362.2252      -1233.047          41.500  
C 5  39037783.424     -546647.7112        313.066          36.250  
C12  25222893.778     2998234.7632      -1890.234          33.750  
C 1  37549215.059     -571229.0542        332.607          38.250  
C 7  39434093.243    -2874025.2542       1782.822          38.000  
G12  23102489.481    -4434687.555        2622.480          34.250  
G21  25169097.042    -3905056.212        2598.496          37.000  
> 2020  9 30  8 31 24.0000000  0 28                     
G10  21680688.754    -4908624.971        2744.883          47.500  
G15  23556725.856     3403018.417       -2008.438          42.750  
G18  21638176.761     3551179.709       -2449.434          45.000  
G20  19882375.534    -2121735.631         837.773          43.000  
G23  20280879.228    -2458402.787        1115.088          45.750  
G24  21041999.373     2710266.137       -2011.660          47.500  
G25  23740795.708    -5783199.099        3454.287          38.250  
C 6  36718986.136      -21094.9322         47.451          46.000  
C11  25999282.601      -49688.3152       -353.584          35.750  
C13  36100792.803     1107925.3982       -808.486          45.500  
C16  36640646.891       -8161.1812         29.707          46.750  
C21  22645168.763    -2800350.2172       1569.033          49.750  
C19  26493130.115     2748944.1742      -1729.531          38.250  
C26  23732497.501    -6020736.8552       3390.820          44.750  
C 9  36662704.525     -146103.7612         83.027          42.750  
C22  23066102.496      588855.0262       -512.705          48.250  
C 4  38747483.993     -500970.3912        310.459          34.500  
C10  40536038.144    -1972084.6292       1431.748          37.000  
C 2  37072634.832     -551130.7422        315.664          41.500  
C 3  36356289.939     -504092.7552        289.727          43.500  
G32  23094675.762    -3643401.170        2033.594          44.500  
C 8  37475421.770     1884595.3992      -1233.184          41.500  
C 5  39037723.413     -546960.6922        313.086          36.500  
C12  25223256.446     3000125.0382      -1890.322          33.750  
C 1  37549150.859     -571561.7152        332.744          38.250  
C 7  39433751.044    -2875808.0192       1782.793          38.250  
G12  23101990.806    -4437309.754        2622.266          34.250  
G21  25168602.451    -3907654.499        2598.184          37.250  
> 2020  9 30  8 31 25.0000000  0 28                     
G10  21680166.469    -4911369.801        2744.766          47.500  
G15  23557108.085     3405026.807       -2008.467          42.750  
G18  21638643.118     3553629.331       -2449.756          45.000  
G20  19882216.283    -2122573.161         837.383          43.000  
G23  20280666.894    -2459517.656        1114.736          45.750  
G24  21042382.108     2712278.021       -2012.041          47.500  
G25  23740138.184    -5786653.461        3454.365          38.000  
C 6  36718976.539      -21142.5012         47.588          46.000  
C11  25999350.465      -49334.5412       -353.877          35.750  
C13  36100947.988     1108733.9312       -808.613          45.750  
C16  36640641.691       -8191.0062         29.834          46.750  
C21  22644867.310    -2801919.2752       1569.014          49.750  
C19  26493462.262     2750673.6172      -1729.541          38.250  
C26  23731846.120    -6024127.6202       3390.703          44.750  
C 9  36662688.715     -146186.8202         83.096          42.750  
C22  23066201.073      589367.7822       -512.861          48.250  
C 4  38747424.522     -501281.0352        310.439          34.500  
C10  40535763.181    -1973516.4922       1431.934          37.000  
C 2  37072574.157     -551446.5562        315.781          41.500  
C 3  36356234.343     -504382.5672        289.805          43.500  
G32  23094289.170    -3645434.759        2033.594          44.750  
C 8  37475658.482     1885828.5932      -1233.223          41.500  
C 5  39037663.210     -547273.8332        313.184          36.500  
C12  25223619.340     3002015.2412      -1890.176          33.500  
C 1  37549087.009     -571894.5032        332.744          38.250  
C 7  39433408.758    -2877591.0152       1782.920          38.250  
G12  23101491.765    -4439931.785        2622.080          34.500  
G21  25168107.912    -3910252.575        2598.086          37.250  
> 2020  9 30  8 31 26.0000000  0 28                     
G10  21679644.254    -4914114.522        2744.678          47.500  
G15  23557490.454     3407035.065       -2008.262          42.750  
G18  21639109.475     3556079.221       -2450.010          45.000  
G20  19882056.945    -2123410.282         836.963          43.000  
G23  20280454.665    -2460632.215        1114.453          45.750  
G24  21042765.402     2714290.233       -2012.344          47.500  
G25  23739480.590    -5790107.926        3454.453          38.000  
C 6  36718967.290      -21190.2182         47.734          46.000  
C11  25999418.363      -48980.4702       -354.248          35.750  
C13  36101103.155     1109542.5302       -808.613          45.500  
C16  36640636.700       -8220.9682         30.000          46.750  
C21  22644565.858    -2803488.3312       1569.053          49.750  
C19  26493794.305     2752403.1092      -1729.482          38.250  
C26  23731195.087    -6027518.2722       3390.596          44.750  
C 9  36662672.905     -146269.9772         83.184          42.750  
C22  23066299.265      589880.6442       -512.910          48.250  
C 4  38747364.738     -501591.7932        310.752          34.500  
C10  40535488.550    -1974948.5402       1432.119          37.000  
C 2  37072513.186     -551762.4412        315.879          41.500  
C 3  36356178.677     -504672.4812        289.951          43.500  
G32  23093902.124    -3647468.327        2033.506          44.750  
C 8  37475895.473     1887061.8422      -1233.252          41.750  
C 5  39037603.059     -547587.0372        313.213          36.750  
C12  25223982.305     3003905.4662      -1890.303          33.500  
C 1  37549023.124     -572227.3792        332.852          38.250  
C 7  39433066.490    -2879374.1322       1783.174          38.250  
G12  23100992.863    -4442553.687        2621.885          34.250  
G21  25167613.530    -3912850.434        2597.910          37.000  
> 2020  9 30  8 31 27.0000000  0 27                     
G10  21679122.091    -4916859.216        2744.697          47.250  
G15  23557872.597     3409043.210       -2008.145          42.750  
G18  21639575.937     3558529.326       -2450.156          45.000  
G20  19881897.869    -2124247.047         836.689          43.000  
G23  20280242.784    -2461746.498        1114.219          45.750  
G24  21043148.295     2716302.740       -2012.549          47.750  
G25  23738823.153    -5793562.578        3454.736          38.000  
C 6  36718958.670      -21238.1222         47.988          46.000  
C11  25999486.402      -48626.0962       -354.375          35.750  
C13  36101258.497     1110351.1782       -808.604          45.500  
C16  36640631.082       -8251.1172         30.215          46.500  
C21  22644264.475    -2805057.4362       1569.150          49.500  
C19  26494126.365     2754132.5942      -1729.395          38.000  
C26  23730544.194    -6030908.8702       3390.664          44.750  
C 9  36662656.851     -146353.3132         83.467          42.750  
C22  23066397.911      590393.5742       -512.939          48.000  
C10  40535213.360    -1976380.8492       1432.373          37.000  
C 2  37072452.599     -552078.4682        316.084          41.750  
C 3  36356123.098     -504962.5182        290.107          43.500  
G32  23093515.131    -3649501.968        2033.691          44.750  
C 8  37476132.343     1888295.0522      -1233.184          41.500  
C 5  39037542.838     -547900.4022        313.457          36.500  
C12  25224345.042     3005795.5912      -1890.107          33.250  
C 1  37548959.343     -572560.4232        333.115          38.250  
C 7  39432724.099    -2881157.4542       1783.398          38.250  
G12  23100494.014    -4445175.409        2621.709          34.500  
G21  25167119.235    -3915448.062        2597.568          37.250  
> 2020  9 30  8 31 28.0000000  0 28                     
G10  21678599.789    -4919603.649        2744.434          47.500  
G15  23558254.826     3411051.397       -2008.154          42.500  
G18  21640042.294     3560979.837       -2450.576          45.000  
G20  19881738.583    -2125083.256         836.123          43.000  
G23  20280030.834    -2462860.329        1113.779          45.750  
G24  21043531.449     2718315.738       -2013.066          47.500  
G25  23738165.803    -5797017.161        3454.639          38.000  
C 6  36718949.718      -21286.0502         47.979          46.000  
C11  25999554.597      -48271.2432       -354.912          36.000  
C13  36101413.787     1111160.0412       -808.857          45.500  
C16  36640625.201       -8281.2612         30.234          46.500  
C21  22643963.319    -2806626.3862       1568.975          49.750  
C19  26494458.512     2755862.2582      -1729.697          38.000  
C26  23729893.353    -6034299.2022       3390.371          44.750  
C 9  36662641.093     -146436.5872         83.350          42.750  
C22  23066496.609      590906.7492       -513.184          48.250  
C 4  38747245.204     -502213.4903        310.938          34.500  
C10  40534938.135    -1977813.2262       1432.461          37.000  
C 2  37072391.785     -552394.4542        315.977          41.500  
C 3  36356067.502     -505252.5272        290.098          43.500  
G32  23093128.504    -3651535.430        2033.486          45.000  
C 8  37476369.142     1889528.4292      -1233.369          41.500  
C 5  39037482.653     -548213.7222        313.428          36.750  
C12  25224707.553     3007685.8632      -1890.352          33.000  
C 1  37548895.510     -572893.4132        333.076          38.250  
C 7  39432381.534    -2882940.7462       1783.311          38.250  
G12  23099995.775    -4447796.831        2621.328          34.500  
G21  25166624.783    -3918045.380        2597.178          36.750  
> 2020  9 30  8 31 29.0000000  0 28                     
G10  21678077.608    -4922347.900        2744.258          47.500  
G15  23558636.916     3413059.623       -2008.174          42.500  
G18  21640508.947     3563430.731       -2450.928          45.000  
G20  19881579.367    -2125918.940         835.615          43.000  
G23  20279818.761    -2463973.719        1113.350          45.750  
G24  21043914.656     2720329.167       -2013.447          47.750  
G25  23737508.523    -5800471.808        3454.785          38.250  
C 6  36718939.998      -21334.0182         48.047          46.000  
C11  25999622.897      -47916.0022       -355.322          35.750  
C13  36101569.216     1111969.0762       -808.994          45.500  
C16  36640618.587       -8311.4432         30.273          46.750  
C21  22643662.041    -2808195.2282       1568.896          49.750  
C19  26494790.590     2757592.0592      -1729.717          37.750  
C26  23729242.233    -6037689.3232       3390.137          45.000  
C 9  36662624.847     -146519.9022         83.350          42.750  
C22  23066595.064      591420.1512       -513.379          48.250  
C 4  38747185.681     -502524.2912        310.869          34.500  
C10  40534663.067    -1979245.6742       1432.578          37.000  
C 2  37072331.285     -552710.4472        316.064          41.500  
C 3  36356011.696     -505542.5192        290.078          43.750  
G32  23092741.789    -3653568.781        2033.389          45.000  
C 8  37476606.186     1890761.9432      -1233.516          41.500  
C 5  39037422.606     -548527.0072        313.301          36.500  
C12  25225070.326     3009576.1892      -1890.195          32.500  
C 1  37548831.381     -573226.3792        333.096          38.250  
C 7  39432039.021    -2884724.1132       1783.389          38.250  
G12  23099497.170    -4450417.998        2621.162          35.000  
G21  25166130.348    -3920642.346        2596.914          36.500  
> 2020  9 30  8 31 30.0000000  0 28                     
G10  21677555.184    -4925092.038        2744.131          47.500  
G15  23559018.902     3415067.734       -2008.076          42.500  
G18  21640975.322     3565881.894       -2451.221          45.000  
G20  19881420.361    -2126754.207         835.137          43.000  
G23  20279607.160    -2465086.797        1113.018          45.750  
G24  21044297.915     2722342.942       -2013.867          47.500  
G25  23736851.086    -5803926.509        3454.717          38.250  
C 6  36718930.366      -21382.1402         48.174          46.000  
C11  25999691.337      -47560.4232       -355.684          35.750  
C13  36101724.593     1112778.1942       -809.141          45.500  
C16  36640612.183       -8341.7492         30.352          46.500  
C21  22643360.676    -2809764.0482       1568.848          49.750  
C19  26495122.738     2759321.8992      -1729.883          37.500  
C26  23728591.270    -6041079.3292       3389.961          45.000  
C 9  36662608.863     -146603.2992         83.428          42.750  
C22  23066693.553      591933.6702       -513.525          48.250  
C 4  38747126.002     -502835.2152        311.016          34.500  
C10  40534387.877    -1980678.3262       1432.822          37.250  
C 2  37072270.454     -553026.5152        316.113          41.500  
C 3  36355956.012     -505832.5892        290.117          43.500  
G32  23092354.883    -3655602.119        2033.359          44.750  
C 8  37476842.741     1891995.5352      -1233.623          41.500  
C 5  39037362.490     -548840.3822        313.428          36.250  
C12  25225433.029     3011466.5372      -1890.283          32.500  
C 1  37548767.216     -573559.4412        333.105          38.000  
C 7  39431696.648    -2886507.5642       1783.525          38.000  
G12  23098998.670    -4453038.938        2620.947          34.750  
G21  25165635.931    -3923239.050        2596.709          36.250  
> 2020  9 30  8 31 31.0000000  0 28                     
G10  21677033.195    -4927835.780        2743.789          47.500  
G15  23559400.817     3417076.057       -2008.184          42.500  
G18  21641441.853     3568333.615       -2451.748          45.000  
G20  19881261.407    -2127588.780         834.512          43.000  
G23  20279395.646    -2466199.263        1112.412          45.750  
G24  21044681.331     2724357.340       -2014.463          47.750  
G25  23736193.527    -5807381.069        3454.639          38.250  
C 6  36718921.623      -21430.1212         48.057          46.000  
C11  25999759.829      -47204.2602       -356.240          35.750  
C13  36101880.091     1113587.7242       -809.521          45.500  
C16  36640606.704       -8371.9172         30.273          46.500  
C21  22643059.520    -2811332.5882       1568.574          49.750  
C19  26495454.868     2761052.0912      -1730.176          37.250  
C26  23727940.412    -6044468.9472       3389.619          45.000  
C 9  36662593.001     -146686.5102         83.301          42.750  
C22  23066792.356      592447.5922       -513.916          48.250  
C 4  38747066.182     -503145.9262        310.820          34.500  
C10  40534112.844    -1982110.8782       1432.705          37.250  
C 2  37072209.884     -553342.3892        315.928          41.750  
C 3  36355900.206     -506122.4802        289.961          43.500  
G32  23091967.872    -3657635.148        2033.086          44.750  
C 8  37477079.540     1893229.4432      -1233.887          41.500  
C 5  39037302.357     -549153.5522        313.193          36.500  
C12  25225795.941     3013357.1682      -1890.615          32.750  
C 1  37548703.191     -573892.3192        332.979          38.250  
C 7  39431354.239    -2888290.8922       1783.438          38.000  
G12  23098500.065    -4455659.423        2620.508          34.750  
G21  25165141.636    -3925835.290        2596.299          36.000  
> 2020  9 30  8 31 32.0000000  0 28                     
G10  21676510.928    -4930579.506        2743.779          47.500  
G15  23559782.872     3419084.211       -2008.125          42.500  
G18  21641908.368     3570785.533       -2451.904          45.000  
G20  19881102.941    -2128423.007         834.180          43.000  
G23  20279183.817    -2467311.486        1112.217          45.750  
G24  21045064.695     2726371.984       -2014.629          47.750  
G25  23735536.073    -5810835.816        3454.854          38.250  
C 6  36718912.863      -21478.3092         48.330          46.000  
C11  25999828.217      -46847.8322       -356.367          35.750  
C13  36102035.521     1114397.2532       -809.492          45.500  
C16  36640601.538       -8402.2912         30.537          46.500  
C21  22642758.329    -2812901.1822       1568.662          49.750  
C19  26495787.032     2762782.2252      -1730.020          37.500  
C26  23727289.554    -6047858.5252       3389.629          45.000  
C 9  36662576.650     -146769.9092         83.555          42.750  
C22  23066890.932      592961.5512       -513.906          48.250  
C 4  38747006.520     -503456.8082        310.918          34.500  
C10  40533837.672    -1983543.6882       1432.969          37.250  
C 2  37072149.227     -553658.4412        316.260          41.500  
C 3  36355844.680     -506412.5182        290.166          43.500  
G32  23091580.931    -3659668.235        2033.164          44.500  
C 8  37477316.270     1894463.3052      -1233.789          41.250  
C 5  39037242.223     -549466.8952        313.516          36.500  
C12  25226158.556     3015247.7032      -1890.322          32.750  
C 1  37548639.236     -574225.3472        333.174          38.250  
C 7  39431011.639    -2890074.4612       1783.750          37.750  
G12  23098001.425    -4458279.817        2620.420          35.000  
G21  25164647.376    -3928431.325        2596.094          35.750  
> 2020  9 30  8 31 33.0000000  0 28                     
G10  21675988.625    -4933323.079        2743.604          47.500  
G15  23560164.805     3421092.321       -2008.076          42.250  
G18  21642375.021     3573237.769       -2452.256          44.750  
G20  19880944.354    -2129256.791         833.750          43.000  
G23  20278972.077    -2468423.342        1111.816          45.750  
G24  21045448.181     2728386.982       -2014.990          47.750  
G25  23734878.671    -5814290.649        3455.000          38.000  
C 6  36718903.004      -21526.6212         48.447          46.000  
C11  25999896.709      -46491.0532       -356.768          35.750  
C13  36102191.019     1115206.8932       -809.561          45.500  
C16  36640596.181       -8432.7582         30.605          46.500  
C21  22642456.999    -2814469.7342       1568.623          49.750  
C19  26496119.145     2764512.4602      -1730.195          37.500  
C26  23726638.556    -6051247.9562       3389.521          45.000  
C 9  36662560.945     -146853.3802         83.555          42.750  
C22  23066989.822      593475.6692       -514.092          48.250  
C 4  38746946.613     -503767.7742        311.152          34.500  
C10  40533562.482    -1984976.6642       1433.086          37.250  
C 2  37072088.378     -553974.4942        316.133          41.500  
C 3  36355788.717     -506702.6212        290.215          43.500  
G32  23091193.676    -3661701.275        2033.115          44.500  
C 8  37477553.331     1895697.2172      -1233.828          41.250  
C 5  39037181.933     -549780.2922        313.604          36.250  
C12  25226521.294     3017138.2512      -1890.557          32.250  
C 1  37548575.456     -574558.4322        333.174          38.000  
C 7  39430668.917    -2891858.0972       1783.730          37.750  
G12  23097502.872    -4460899.996        2620.137          35.000  
G21  25164153.239    -3931027.095        2595.811          35.750  
> 2020  9 30  8 31 34.0000000  0 27                     
G10  21675466.480    -4936066.562        2743.428          47.500  
G15  23560547.017     3423100.345       -2008.037          42.250  
G18  21642841.815     3575690.271       -2452.578          44.750  
G20  19880785.731    -2130090.151         833.271          43.000  
G23  20278760.545    -2469534.871        1111.406          45.750  
G24  21045831.807     2730402.342       -2015.439          47.750  
G25  23734221.025    -5817745.557        3455.020          38.000  
C 6  36718893.214      -21575.0622         48.496          46.000  
C11  25999964.974      -46133.9132       -357.236          35.500  
C13  36102346.483     1116016.6062       -809.746          45.500  
C16  36640590.388       -8463.3552         30.645          46.500  
C21  22642155.721    -2816038.2652       1568.516          49.750  
C19  26496451.380     2766242.7142      -1730.166          37.500  
C26  23725987.715    -6054637.2492       3389.258          45.000  
C 9  36662544.664     -146936.9412         83.643          43.000  
C22  23067088.608      593989.9052       -514.277          48.250  
C10  40533287.275    -1986409.8282       1433.242          37.250  
C 2  37072028.000     -554290.6532        316.172          41.500  
C 3  36355733.120     -506992.8162        290.225          43.500  
G32  23090806.927    -3663734.291        2033.047          44.750  
C 8  37477790.166     1896931.2152      -1233.975          41.250  
C 5  39037121.730     -550093.7582        313.574          36.250  
C12  25226884.363     3019028.7972      -1890.615          32.500  
C 1  37548511.396     -574891.5822        333.154          38.250  
C 7  39430326.055    -2893641.8972       1783.779          37.750  
G12  23097004.511    -4463519.953        2620.010          34.500  
G21  25163659.136    -3933622.647        2595.518          36.000  
