     3.02           OBSERVATION DATA    M: Mixed            RINEX VERSION / TYPE
RTKCONV 2.4.3 b33                       20200930 083202 UTC PGM / RUN BY / DATE 
log: C:\Users\204\Desktop\r.txt                             COMMENT             
format: u-blox                                              COMMENT             
                                                            MARKER NAME         
                                                            MARKER NUMBER       
                                                            MARKER TYPE         
                                                            OBSERVER / AGENCY   
                                                            REC # / TYPE / VERS 
                                                            ANT # / TYPE        
 -2191140.4363  5198846.5633  2965393.3935                  APPROX POSITION XYZ 
        0.0000        0.0000        0.0000                  ANTENNA: DELTA H/E/N
G    4 C1C L1C D1C S1C                                      SYS / # / OBS TYPES 
C    4 C1I L1I D1I S1I                                      SYS / # / OBS TYPES 
  2020     9    30     8    30    2.0000000     GPS         TIME OF FIRST OBS   
  2020     9    30     8    31   34.0000000     GPS         TIME OF LAST OBS    
G                                                           SYS / PHASE SHIFT   
C                                                           SYS / PHASE SHIFT   
  0                                                         GLONASS SLOT / FRQ #
 C1C    0.000 C1P    0.000 C2C    0.000 C2P    0.000        GLONASS COD/PHS/BIS 
                                                            END OF HEADER       
> 2020  9 30  8 30  2.0000000  0 11                     
G10  21449689.333   112718874.3553       3820.365          47.000  
G12  22869140.859   120178140.0273       3704.132          45.000  
G15  23251442.201   122187148.6353       -947.803          41.000  
G18  21326253.543   112070219.1363      -1359.421          44.000  
G20  19621822.755   103113374.8413       1939.039          47.000  
G23  20024592.923   105229944.1153       2208.883          48.000  
G24  20736938.959   108973350.8373       -915.594          46.000  
G21  24935397.968   131036398.7852       3684.909          39.000  
G25  23520746.630   123602351.6522       4512.470          38.000  
G32  22852531.358   120090862.8892       3102.595          44.000  
G31  25065713.664   131721219.4492       5181.848          36.000  
> 2020  9 30  8 30  3.0000000  0 11                     
G10  21448962.287   112715054.7492       3819.026          47.000  
G12  22868436.184   120174436.7762       3702.627          45.000  
G15  23251622.636   122188097.3912       -949.469          41.000  
G18  21326512.329   112071579.2992      -1360.962          44.000  
G20  19621453.980   103111436.9072       1937.101          47.000  
G23  20024172.583   105227736.2882       2207.118          48.000  
G24  20737113.496   108974267.5452       -917.444          45.000  
G21  24934697.481   131032715.0472       3683.073          39.000  
G25  23519888.097   123597840.0512       4511.183          38.000  
G32  22851940.651   120087761.1472       3101.154          43.000  
G31  25064728.930   131716039.9672       5178.968          35.000  
> 2020  9 30  8 30  4.0000000  0 11                     
G10  21448235.765   112711236.7052       3816.538          47.000  
G12  22867731.719   120170735.1622       3700.031          45.000  
G15  23251803.491   122189047.4902       -951.328          41.000  
G18  21326771.675   112072941.2272      -1363.622          44.000  
G20  19621085.501   103109500.8502       1934.599          47.000  
G23  20023752.992   105225530.2432       2204.571          48.000  
G24  20737288.330   108975186.0662       -920.062          45.000  
G21  24933996.611   131029033.0072       3680.481          39.000  
G25  23519029.686   123593329.8032       4509.146          38.000  
G32  22851351.095   120084660.9012       3098.827          44.000  
G31  25063743.220   131710861.8412       5176.702          34.000  
> 2020  9 30  8 30  5.0000000  0 11                     
G10  21447509.557   112707420.5502       3815.494          47.000  
G12  22867027.742   120167035.4972       3699.221          44.000  
G15  23251984.659   122189999.3132       -952.294          41.000  
G18  21327031.229   112074305.2012      -1364.520          44.000  
G20  19620717.633   103107566.9832       1933.298          47.000  
G23  20023333.576   105223326.3052       2203.395          48.000  
G24  20737463.477   108976106.7372       -921.222          45.000  
G21  24933296.578   131025352.9582       3679.273          39.000  
G25  23518171.659   123588821.2392       4508.269          39.000  
G32  22850761.505   120081562.4472       3098.098          44.000  
G31  25062757.632   131705685.4892       5176.217          34.000  
> 2020  9 30  8 30  6.0000000  0 13                     
G10  21446783.645   112703605.5552       3814.592          47.000  
G12  22866323.661   120163337.0972       3698.115          45.000  
G15  23252166.089   122190952.1332       -953.121          41.000  
G18  21327291.045   112075670.5632      -1365.786          44.000  
G20  19620349.904   103105634.6282       1931.704          47.000  
G23  20022914.422   105221123.7812       2202.018          48.000  
G24  20737638.765   108977028.8552       -922.516          45.000  
G21  24932596.597   131021674.2442       3678.202          39.000  
G25  23517313.998   123584313.6362       4507.059          39.000  
G32  22850172.123   120078465.1262       3096.809          44.000  
C 1  37279391.712   194123576.1312       1378.049          44.000  
G31  25061770.822   131700510.2662       5174.911          29.000  
C 3  36085888.345   187908688.9252       1335.054          45.000  
> 2020  9 30  8 30  7.0000000  0 12                     
G10  21446057.995   112699792.2812       3812.646          47.000  
G12  22865620.278   120159640.4822       3695.878          45.000  
G15  23252347.519   122191906.4772       -955.067          41.000  
G18  21327551.019   112077037.8062      -1368.171          45.000  
G20  19619982.508   103103704.2702       1929.567          47.000  
G23  20022495.756   105218923.1742       2199.804          48.000  
G24  20737814.611   108977952.9432       -925.024          45.000  
G21  24931897.018   131017997.3542       3676.064          39.000  
G25  23516456.634   123579807.5022       4505.804          39.000  
G32  22849582.760   120075369.4192       3094.884          43.000  
C 1  37279127.254   194122199.160        1376.488          44.000  
C 3  36085632.194   187907354.4691       1333.285          45.000  
> 2020  9 30  8 30  8.0000000  0 12                     
G10  21445332.764   112695980.6472       3809.301          46.000  
G12  22864917.051   120155945.0032       3696.949          44.000  
G15  23252529.245   122192862.2962       -958.836          41.000  
G18  21327811.341   112078406.0002      -1364.670          44.000  
G20  19619615.372   103101775.6212       1927.882          45.000  
G23  20022077.248   105216724.2712       2197.410          46.000  
G24  20737990.858   108978878.9492       -929.205          44.000  
G21  24931197.805   131014322.4102       3671.567          39.000  
G25  23515599.462   123575301.9062       4508.887          42.000  
G32  22848994.024   120072274.9332       3094.543          43.000  
C 1  37278863.180   194120823.023        1377.565          44.000  
C 3  36085376.025   187906021.184        1335.984          45.000  
> 2020  9 30  8 30  9.0000000  0 13                     
G10  21444608.214   112692172.2292       3808.894          41.000  
G12  22864214.139   120152251.6012       3693.237          43.000  
G15  23252711.652   122193822.3612       -958.693          42.000  
G18  21328071.960   112079774.1502      -1369.768          46.000  
G20  19619248.796   103099850.0072       1925.874          44.000  
G23  20021659.367   105214528.6372       2196.246          45.000  
G24  20738167.838   108979809.1672       -929.205          45.000  
G21  24930497.790   131010650.2782       3671.912          25.000  
G25  23514741.853   123570796.2202       4504.891          38.000  
C 1  37278599.211   194119448.503        1374.033          44.000  
C 2  36801839.351   191636835.272        1358.387          40.000  
C 3  36085119.977   187904688.312        1331.841          45.000  
C 5  38766885.965   201869351.2162       1355.151          37.000  
> 2020  9 30  8 30 10.0000000  0 20                     
G10  21443883.698   112688363.7882       3807.649          43.000  
G12  22863511.576   120148559.8152       3690.646          44.000  
G15  23252893.745   122194781.1642       -959.181          43.000  
G18  21328333.155   112081146.1862      -1373.563          46.000  
G20  19618882.568   103097925.3582       1923.726          43.000  
G23  20021241.731   105212333.5432       2194.308          44.000  
G24  20738344.731   108980738.9442       -930.609          44.000  
G32  22847813.569   120066069.7643       3090.334          42.000  
G25  23513884.873   123566293.7672       4501.188          38.000  
C 6  36444077.413   189773874.654        1082.782          43.000  
C 1  37278335.433   194118075.492        1371.793          43.000  
C 2  36801579.012   191635478.848        1355.266          42.000  
C 3  36084864.681   187903358.120        1328.942          45.000  
C 5  38766625.870   201867997.3962       1352.570          41.000  
C 9  36388326.253   189483563.037        1121.420          39.000  
C13  35813850.410   186492116.893         243.536          46.000  
C16  36365493.638   189364667.496        1066.005          44.000  
C21  22391963.242   116600827.7611       2615.744          47.000  
C22  22783375.081   118639012.768         541.785          48.000  
C26  23505250.261   122398004.1731       4444.896          45.000  
> 2020  9 30  8 30 11.0000000  0 21                     
G10  21443159.427   112684556.9742       3806.038          43.000  
G12  22862809.274   120144869.9382       3689.049          44.000  
G15  23253076.048   122195741.2762       -961.110          42.000  
G18  21328594.751   112082520.5872      -1375.391          46.000  
G20  19618516.305   103096002.7252       1921.638          43.000  
G23  20020824.532   105210140.2892       2192.282          44.000  
G24  20738522.304   108981670.5042       -932.544          43.000  
G21  24929100.516   131003306.6853       3669.007          30.000  
G25  23513028.329   123561793.1922       4499.771          39.000  
C 6  36443869.773   189772792.710        1081.179          43.000  
C 1  37278072.022   194116704.155        1370.717          43.000  
C 2  36801318.986   191634124.380        1353.834          42.000  
C 3  36084609.541   187902029.792        1327.705          45.000  
C 5  38766366.751   201866645.5402       1351.123          41.000  
C 9  36388110.952   189482442.458        1119.847          40.000  
C13  35813803.591   186491874.067         242.090          46.000  
C16  36365289.017   189363602.474        1064.283          44.000  
C21  22391461.129   116598212.973        2613.825          47.000  
C22  22783271.199   118638471.873         539.997          48.000  
C26  23504397.190   122393560.060        4443.297          46.000  
G32  22847228.848   120062980.1932       3088.619          43.000  
> 2020  9 30  8 30 12.0000000  0 22                     
G10  21442435.417   112680751.6772       3804.573          43.000  
G12  22862107.636   120141181.6462       3687.450          44.000  
G15  23253258.821   122196702.6612       -962.065          42.000  
G18  21328856.819   112083896.7002      -1376.979          46.000  
G20  19618150.758   103094081.9162       1919.809          43.000  
G23  20020407.524   105207948.7812       2190.480          44.000  
G24  20738699.790   108982603.8092       -934.326          44.000  
G21  24928400.204   130999638.4432       3666.625          30.000  
G25  23512172.169   123557293.9452       4498.472          39.000  
C 6  36443662.394   189771711.990        1080.082          43.000  
C 1  37277809.100   194115334.136        1369.419          44.000  
C 2  36801058.821   191632771.257        1352.587          42.000  
C 3  36084354.628   187900702.804        1326.334          45.000  
C 5  38766107.267   201865294.4671       1350.061          41.000  
C 9  36387896.140   189481323.159        1118.878          40.000  
C13  35813757.225   186491632.707         240.735          46.000  
C16  36365084.675   189362538.706        1063.116          44.000  
C21  22390959.331   116595599.567        2612.681          47.000  
C22  22783167.528   118637932.468         538.700          48.000  
C26  23503544.031   122389117.490        4441.745          46.000  
G32  22846640.409   120059892.0322       3087.557          43.000  
C 4  38475834.813   200353768.3202       1347.297          39.000  
> 2020  9 30  8 30 13.0000000  0 22                     
G10  21441711.495   112676947.557        3803.160          43.000  
G12  22861406.015   120137494.598        3686.823          44.000  
G15  23253441.979   122197664.990        -962.489          42.000  
G18  21329119.217   112085273.7171      -1378.248          46.000  
G20  19617785.420   103092162.0941       1918.476          43.000  
G23  20019990.812   105205758.642        2189.301          45.000  
G24  20738877.730   108983538.520        -935.516          44.000  
G21  24927704.533   130995971.5062       3664.995          30.000  
G25  23511315.904   123552795.6542       4498.101          39.000  
C 6  36443455.138   189770632.210        1079.109          43.000  
C 1  37277546.247   194113965.106        1368.854          44.000  
C 2  36800799.284   191631419.147        1351.474          42.000  
C 3  36084099.820   187899376.824        1325.467          45.000  
C 5  38765848.148   201863944.965        1348.767          41.000  
C 9  36387681.468   189480204.879        1117.299          39.000  
C13  35813711.000   186491392.590         239.532          46.000  
C16  36364880.577   189361475.878        1062.094          44.000  
C21  22390457.462   116592987.238        2611.572          47.000  
C22  22783064.275   118637394.228         537.772          48.000  
C26  23502691.134   122384676.160        4440.565          45.000  
G32  22846052.057   120056805.0312       3085.812          42.000  
C 4  38475576.323   200352421.556        1346.520          39.000  
> 2020  9 30  8 30 14.0000000  0 22                     
G10  21440987.712   112673144.358        3802.970          43.000  
G12  22860704.516   120133808.505        3685.532          43.000  
G15  23253624.979   122198628.052        -963.747          44.000  
G18  21329381.250   112086652.343       -1378.845          45.000  
G20  19617420.170   103090244.045        1917.573          43.000  
G23  20019574.258   105203569.657        2188.677          45.000  
G24  20739055.757   108984474.404        -936.572          45.000  
G21  24927007.031   130992305.6022       3665.762          30.000  
G25  23510459.919   123548298.0302       4497.413          38.000  
C 6  36443248.179   189769553.116        1078.578          44.000  
C 1  37277283.272   194112596.795        1368.256          44.000  
C 2  36800539.537   191630067.808        1351.156          41.000  
C 3  36083845.291   187898051.601        1325.009          45.000  
C 5  38765589.100   201862596.171        1348.846          40.000  
C 9  36387467.022   189479087.315        1117.916          39.000  
C13  35813665.176   186491153.367         239.191          46.000  
C16  36364676.479   189360413.742        1062.085          45.000  
C21  22389955.960   116590375.745        2611.200          47.000  
C22  22782961.092   118636856.938         536.719          49.000  
C26  23501838.290   122380235.711        4440.146          44.000  
G32  22845466.166   120053718.8662       3085.947          42.000  
C 4  38475317.850   200351075.475        1345.784          39.000  
> 2020  9 30  8 30 15.0000000  0 23                     
G10  21440264.017   112669341.991        3802.285          43.000  
G12  22860003.140   120130123.442        3684.275          42.000  
G15  23253808.486   122199591.879        -964.156          43.000  
G18  21329643.649   112088031.977       -1380.184          45.000  
G20  19617055.530   103088327.112        1916.269          43.000  
G23  20019157.722   105201381.757        2187.139          45.000  
G24  20739233.732   108985411.452        -937.665          44.000  
G21  24926312.861   130988640.7122       3664.518          31.000  
G25  23509604.230   123543801.1122       4496.485          38.000  
C 6  36443040.992   189768474.595        1078.312          44.000  
C 1  37277020.682   194111229.181        1367.007          43.000  
C 2  36800280.052   191628717.032        1350.588          41.000  
C 3  36083590.954   187896726.984        1324.096          45.000  
C 5  38765330.470   201861248.038        1348.199          41.000  
C 9  36387252.733   189477970.354        1116.992          40.000  
C13  35813619.386   186490914.944         238.013          46.000  
C16  36364472.765   189359352.206        1061.490          45.000  
C21  22389454.703   116587765.002        2610.648          47.000  
C22  22782857.996   118636320.540         535.829          48.000  
C26  23500985.410   122375796.122        4438.766          44.000  
G32  22844879.874   120050633.4392       3085.310          44.000  
G31  25052919.234   131653989.4453       5162.893          30.000  
C 4  38475059.360   200349730.136        1344.576          37.000  
> 2020  9 30  8 30 16.0000000  0 24                     
G10  21439540.339   112665540.499        3801.080          44.000  
G12  22859302.112   120126439.239        3683.689          42.000  
G15  23253992.167   122200556.316        -964.873          43.000  
G18  21329906.135   112089412.655       -1381.428          45.000  
G20  19616690.908   103086411.308        1915.045          43.000  
G23  20018741.237   105199194.863        2186.428          44.000  
G24  20739412.161   108986349.558        -938.934          45.000  
G21  24925614.730   130984976.7722       3664.127          31.000  
G25  23508748.855   123539304.8272       4495.576          38.000  
C 6  36442833.945   189767396.671        1077.493          44.000  
C 1  37276758.003   194109862.168        1366.348          43.000  
C 2  36800020.760   191627367.001        1349.357          41.000  
C 3  36083336.757   187895403.005        1323.581          45.000  
C 5  38765071.579   201859900.606        1347.272          41.000  
C 9  36387038.288   189476854.082        1116.022          40.000  
C13  35813573.859   186490677.357         237.115          46.000  
C16  36364268.842   189358291.289        1060.354          45.000  
C21  22388953.480   116585155.009        2609.482          47.000  
C22  22782755.249   118635784.929         535.180          48.000  
C26  23500132.915   122371357.392        4438.237          44.000  
G32  22844292.360   120047548.8572       3084.115          44.000  
G31  25051936.821   131648826.4622       5162.519          31.000  
C 4  38474801.219   200348385.403        1344.021          38.000  
C 8  37182640.708   193619766.5641       -190.807          41.000  
> 2020  9 30  8 30 17.0000000  0 24                     
G10  21438817.289   112661740.289        3799.524          44.000  
G12  22858601.120   120122756.406        3681.957          42.000  
G15  23254175.917   122201521.871        -966.180          43.000  
G18  21330169.180   112090794.762       -1382.909          45.000  
G20  19616326.669   103084497.145        1913.162          43.000  
G23  20018325.573   105197009.548        2184.527          44.000  
G24  20739590.799   108987289.204        -940.558          45.000  
G21  24924915.831   130981314.3712       3660.719          30.000  
G25  23507893.550   123534809.5462       4494.534          38.000  
C 6  36442627.317   189766319.805        1076.356          44.000  
C 1  37276495.535   194108496.253        1365.137          43.000  
C 2  36799761.711   191626017.995        1348.459          41.000  
C 3  36083082.577   187894080.126        1322.189          45.000  
C 5  38764813.036   201858554.197        1346.118          41.000  
C 9  36386824.069   189475738.844        1114.661          40.000  
C13  35813528.436   186490440.994         235.706          46.000  
C16  36364065.216   189357231.419        1059.088          45.000  
C21  22388452.642   116582546.206        2608.241          47.000  
C22  22782652.991   118635250.664         533.405          48.000  
C26  23499280.838   122366919.907        4436.575          44.000  
G32  22843706.835   120044465.4182       3082.723          44.000  
G31  25050948.965   131643664.5842       5161.724          32.000  
C 4  38474543.113   200347041.721        1343.146          38.000  
C 8  37182677.336   193619957.816        -191.976          41.000  
> 2020  9 30  8 30 18.0000000  0 24                     
G10  21438093.978   112657940.649        3799.247          44.000  
G12  22857900.371   120119074.207        3681.772          42.000  
G15  23254359.738   122202487.793        -966.399          43.000  
G18  21330432.242   112092177.643       -1383.308          45.000  
G20  19615962.553   103082583.848        1912.849          43.000  
G23  20017909.682   105194824.997        2184.093          44.000  
G24  20739769.716   108988229.670        -940.936          45.000  
G21  24924218.852   130977652.5562       3661.605          30.000  
G25  23507038.210   123530314.6482       4494.523          38.000  
C 6  36442420.428   189765243.255        1076.572          44.000  
C 1  37276233.328   194107130.715        1365.105          43.000  
C 2  36799502.855   191624669.374        1348.393          41.000  
C 3  36082828.502   187892757.619        1322.335          45.000  
C 5  38764554.476   201857208.223        1345.850          40.000  
C 9  36386610.007   189474623.976        1114.603          40.000  
C13  35813483.344   186490205.217         235.297          47.000  
C16  36363861.816   189356171.875        1059.343          45.000  
C21  22387951.594   116579937.885        2607.976          48.000  
C22  22782550.453   118634716.946         533.346          48.000  
C26  23498428.552   122362483.034        4436.598          44.000  
G32  22843120.665   120041382.4882       3082.568          44.000  
G31  25049972.276   131638503.2542       5160.795          33.000  
C 4  38474285.059   200345698.418        1343.357          38.000  
C 8  37182714.173   193620149.611        -192.358          41.000  
> 2020  9 30  8 30 19.0000000  0 24                     
G10  21737164.115   114229565.634        3798.192          44.000  
G12  23156993.002   121690816.654        3680.637          42.000  
G15  23554336.031   123778873.436        -966.882          43.000  
G18  21630487.793   113668980.174       -1384.777          45.000  
G20  19915391.590   104656093.623        1911.301          43.000  
C 4  38773819.966   201905455.177        1342.151          38.000  
G24  21039741.210   110564590.305        -942.241          45.000  
G21  25223309.861   132549415.358        3660.195          30.000  
G25  23805976.041   125101244.868        4494.006          38.000  
C 6  36742006.499   191325266.378        1075.499          44.000  
C 1  37575763.768   195666865.216        1364.374          43.000  
C 2  37099036.575   193184420.753        1347.679          41.000  
C 3  36382367.388   189452535.105        1321.273          45.000  
C 5  39064089.069   203416962.195        1344.839          40.000  
C 9  36686188.505   191034608.850        1113.690          40.000  
C13  36113230.690   188051068.489         234.424          47.000  
C16  36663451.220   190916211.991        1058.583          45.000  
C21  22687243.977   118138430.888        2607.044          48.000  
C22  23082240.562   120195282.660         532.196          48.000  
C26  23797370.030   123919149.424        4435.517          44.000  
G23  20317286.979   106768063.683        2182.865          44.000  
G32  23142327.141   121613723.3632       3081.769          44.000  
G31  25348784.674   133208767.7832       5159.448          33.000  
C 8  37482543.500   195181439.999        -192.880          41.000  
> 2020  9 30  8 30 20.0000000  0 23                     
G10  21736441.327   114225767.672        3796.690          44.000  
G12  23156292.830   121687136.321        3679.172          42.000  
G15  23554519.956   123779840.713        -968.310          43.000  
G18  21630751.222   113670365.120       -1386.426          45.000  
G20  19915027.962   104654182.644        1909.756          43.000  
C 4  38773562.244   201904113.210        1340.582          38.000  
G24  21039920.441   110565532.988        -944.107          45.000  
G21  25222613.579   132545755.499        3659.233          29.000  
G25  23805120.928   125096751.245        4492.578          37.000  
C 6  36741800.063   191324191.045        1073.910          43.000  
C 1  37575501.805   195665501.006        1362.982          43.000  
C 2  37098777.806   193183073.476        1345.905          41.000  
C 3  36382113.871   189451213.917        1320.044          45.000  
C 5  39063830.579   203415617.515        1343.179          40.000  
C 9  36685974.827   191033495.266        1112.578          40.000  
C13  36113185.704   188050834.364         232.710          47.000  
C16  36663247.855   190915153.679        1057.028          45.000  
C21  22686743.592   118135824.049        2605.670          48.000  
G31  25347803.762   133203607.8372       5158.070          32.000  
G32  23141740.989   121610641.9482       3080.243          44.000  
G23  20316871.908   106765882.2873       2180.810          44.000  
C26  23796518.162   123914714.257        4433.923          44.000  
C 8  37482580.530   195181633.379        -194.669          41.000  
> 2020  9 30  8 30 21.0000000  0 24                     
G10  21735718.801   114221971.299        3795.562          44.000  
G12  23155592.745   121683457.697        3677.973          42.000  
G15  23554704.300   123780809.409        -969.145          43.000  
G18  21631015.069   113671751.865       -1387.513          45.000  
G20  19914664.526   104652273.601        1908.298          43.000  
C 4  38773305.028   201902772.677        1340.155          38.000  
G24  21040100.143   110566477.540        -945.460          45.000  
G21  25221920.265   132542097.383        3657.148          29.000  
G25  23804266.076   125092259.009        4492.017          37.000  
C 6  36741593.853   191323117.026        1073.467          43.000  
C 1  37575240.052   195664138.212        1362.480          43.000  
C 2  37098519.577   193181727.585        1345.284          41.000  
C 3  36381860.442   189449894.147        1319.301          45.000  
C 5  39063572.700   203414274.205        1342.680          40.000  
C 9  36685761.166   191032383.076        1111.593          40.000  
C13  36113141.171   188050601.810         231.965          47.000  
C16  36663044.769   190914096.704        1056.428          45.000  
C21  22686243.347   118133218.706        2604.678          48.000  
G31  25346821.542   133198449.4142       5157.619          32.000  
G32  23141154.958   121607562.0432       3079.237          44.000  
G23  20316456.645   106763699.6892       2179.930          44.000  
C22  23082036.744   120194220.325         529.789          48.000  
C26  23795667.028   123910280.698        4432.996          44.000  
C 8  37482617.856   195181828.326        -195.792          41.000  
> 2020  9 30  8 30 22.0000000  0 25                     
G10  21734996.816   114218176.634        3793.423          44.000  
G12  23154893.026   121679780.812        3675.640          42.000  
G15  23554888.819   123781779.630        -971.148          43.000  
G18  21631279.318   113673140.458       -1389.863          45.000  
G20  19914301.876   104650366.549        1905.757          43.000  
C 4  38773048.091   201901433.612        1337.805          38.000  
G24  21040280.195   110567424.033        -947.970          45.000  
G21  25221220.354   132538441.123        3655.039          28.000  
G25  23803411.661   125087768.260        4489.765          37.000  
C 6  36741387.644   191322044.470        1071.310          43.000  
C 1  37574978.735   195662776.910        1360.038          43.000  
C 2  37098261.279   193180383.175        1343.275          41.000  
C 3  36381607.204   189448575.854        1317.170          45.000  
C 5  39063315.030   203412932.401        1340.830          40.000  
C 9  36685547.907   191031272.349        1109.663          40.000  
C13  36113096.830   188050370.931         229.451          47.000  
C16  36662842.155   190913041.183        1054.572          45.000  
C21  22685743.259   118130614.968        2602.658          47.000  
G31  25345840.107   133193292.5272       5155.699          32.000  
G32  23140569.189   121604483.7582       3077.037          44.000  
G23  20316041.923   106761520.0333       2177.275          44.000  
C22  23081935.358   120193691.663         527.463          48.000  
C11  26017085.871   135477793.493         699.628          38.000  
C26  23794815.894   123905848.815        4430.798          44.000  
C 8  37482655.600   195182024.839        -197.620          41.000  
> 2020  9 30  8 30 23.0000000  0 25                     
G10  21734275.197   114214383.573        3792.316          44.000  
G12  23154193.656   121676105.615        3674.458          42.000  
G15  23555073.686   123782751.255        -972.138          43.000  
G18  21631543.881   113674530.854       -1391.146          45.000  
G20  19913939.487   104648461.433        1904.108          43.000  
C 4  38772791.066   201900095.946        1337.006          38.000  
G24  21040460.769   110568372.374        -949.052          45.000  
G21  25220525.068   132534786.613        3653.617          28.000  
G25  23802557.177   125083278.882        4488.580          37.000  
C 6  36741181.923   191320973.242        1070.527          43.000  
C 1  37574717.662   195661416.989        1359.328          43.000  
C 2  37098003.295   193179040.197        1342.269          41.000  
C 3  36381354.281   189447258.969        1316.335          45.000  
C 5  39063057.744   203411592.023        1340.115          40.000  
C 9  36685334.805   191030163.034        1108.753          40.000  
C13  36113052.681   188050141.596         228.831          47.000  
C16  36662639.628   190911987.038        1053.573          45.000  
C21  22685243.676   118128012.731        2601.618          47.000  
G31  25344859.754   133188137.1492       5154.032          32.000  
G32  23139983.734   121601407.0082       3076.165          44.000  
G23  20315627.568   106759343.1793       2176.184          44.000  
C22  23081834.094   120193164.603         526.303          48.000  
C11  26016951.662   135477094.459         697.839          38.000  
C26  23793965.073   123901418.532        4429.456          44.000  
C 8  37482693.502   195182222.918        -198.903          41.000  
> 2020  9 30  8 30 24.0000000  0 25                     
G10  21733553.735   114210592.056        3791.243          45.000  
G12  23153494.426   121672431.995        3673.455          42.000  
G15  23555258.816   123783724.219        -973.068          43.000  
G18  21631808.914   113675922.963       -1392.359          45.000  
G20  19913577.360   104646558.117        1903.099          43.000  
C 4  38772534.339   201898759.607        1336.096          38.000  
G24  21040641.658   110569322.497        -950.531          45.000  
G21  25219828.786   132531133.791        3651.880          28.000  
G25  23801702.936   125078790.776        4488.202          37.000  
C 6  36740976.168   191319903.296        1069.973          43.000  
C 1  37574456.746   195660058.385        1358.610          43.000  
C 2  37097745.433   193177698.544        1341.653          41.000  
C 3  36381101.689   189445943.410        1315.488          45.000  
C 5  39062800.598   203410252.991        1339.347          40.000  
C 9  36685122.174   191029055.037        1108.041          41.000  
C13  36113009.003   188049913.801         227.696          47.000  
C16  36662437.449   190910934.185        1052.716          45.000  
C21  22684744.443   118125411.921        2600.628          48.000  
G31  25343879.034   133182983.2212       5153.745          33.000  
G32  23139398.594   121598331.7362       3075.059          44.000  
G23  20315213.788   106757168.0752       2174.910          44.000  
C22  23081733.267   120192639.053         525.357          49.000  
C11  26016817.975   135476397.170         697.365          38.000  
C26  23793114.305   123896989.788        4428.540          44.000  
C 8  37482731.840   195182422.421        -199.713          41.000  
> 2020  9 30  8 30 25.0000000  0 25                     
G10  21732832.518   114206802.309        3789.420          45.000  
G12  23152795.614   121668760.138        3671.395          43.000  
G15  23555444.312   123784698.743        -974.910          42.000  
G18  21632074.105   113677316.951       -1394.766          45.000  
G20  19913215.774   104644656.906        1900.515          43.000  
C 4  38772277.943   201897424.750        1334.363          38.000  
G24  21040822.687   110570274.630        -952.510          45.000  
G21  25219137.095   132527482.804        3650.510          28.000  
G25  23800849.167   125074304.155        4485.943          37.000  
C 6  36740770.761   191318834.893        1068.219          43.000  
C 1  37574196.023   195658701.299        1356.684          43.000  
C 2  37097487.816   193176358.446        1339.377          41.000  
C 3  36380849.603   189444629.372        1313.589          46.000  
C 5  39062543.434   203408915.505        1336.987          40.000  
C 9  36684909.630   191027948.598        1106.264          41.000  
C13  36112965.517   188049687.718         225.591          47.000  
C16  36662235.516   190909882.845        1051.150          45.000  
C21  22684245.140   118122812.789        2598.818          48.000  
G31  25342898.995   133177830.8502       5151.191          35.000  
G32  23138814.116   121595258.1122       3073.386          45.000  
G23  20314800.218   106754994.9712       2172.605          44.000  
C22  23081632.771   120192115.262         523.352          49.000  
C11  26016684.865   135475701.858         695.158          39.000  
C26  23792263.834   123892562.689        4426.355          44.000  
C 8  37482770.563   195182623.555        -201.843          42.000  
> 2020  9 30  8 30 26.0000000  0 25                     
G10  21732111.736   114203013.445        3788.183          45.000  
G12  23152096.995   121665089.280        3670.495          43.000  
G15  23555630.052   123785673.949        -975.562          41.000  
G18  21632339.680   113678712.070       -1395.796          45.000  
G20  19912854.154   104642756.927        1899.245          44.000  
C 4  38772021.599   201896090.612        1333.527          38.000  
G24  21041004.099   110571227.916        -953.897          45.000  
G21  25218445.386   132523832.876        3648.659          29.000  
G25  23799995.642   125069818.239        4485.449          38.000  
C 6  36740565.704   191317767.158        1067.010          42.000  
C 1  37573935.700   195657344.949        1355.883          44.000  
C 2  37097230.617   193175019.074        1338.721          42.000  
C 3  36380597.482   189443316.098        1312.838          46.000  
C 5  39062286.322   203407578.753        1335.676          40.000  
C 9  36684697.157   191026842.896        1104.802          41.000  
C13  36112922.153   188049462.557         224.436          47.000  
C16  36662033.948   190908832.184        1050.131          45.000  
C21  22683746.064   118120214.451        2597.736          47.000  
G31  25341918.781   133172679.2702       5150.650          35.000  
G32  23138229.377   121592185.3182       3072.023          44.000  
G23  20314386.683   106752823.0312       2171.184          44.000  
C22  23081532.363   120191592.392         522.402          49.000  
C11  26016552.087   135475007.672         693.513          39.000  
C26  23791413.694   123888136.584        4425.324          44.000  
C 8  37482809.285   195182825.589        -202.548          42.000  
> 2020  9 30  8 30 27.0000000  0 25                     
G10  21731391.217   114199225.600        3786.724          44.000  
G12  23151398.899   121661419.636        3669.104          43.000  
G15  23555815.914   123786650.047        -976.721          42.000  
G18  21632605.517   113680108.444       -1397.125          45.000  
G20  19912492.829   104640858.289        1897.731          44.000  
C 4  38771765.639   201894757.417        1332.697          37.000  
G24  21041185.826   110572182.479        -955.632          45.000  
G21  25217754.793   132520184.032        3647.721          30.000  
G25  23799142.326   125065333.230        4484.961          38.000  
C 6  36740360.926   191316700.147        1066.139          42.000  
C 1  37573675.430   195655989.496        1354.969          43.000  
C 2  37096973.855   193173680.537        1337.759          42.000  
C 3  36380345.431   189442003.676        1311.837          46.000  
C 5  39062029.472   203406242.768        1335.501          40.000  
C 9  36684484.962   191025737.933        1104.408          41.000  
C13  36112879.033   188049238.410         223.339          47.000  
C16  36661832.503   190907782.288        1049.254          45.000  
C21  22683247.337   118117617.028        2596.411          46.000  
G31  25340938.951   133167528.6622       5149.719          36.000  
G32  23137644.463   121589113.4462       3070.814          44.000  
G23  20313973.723   106750652.2932       2169.790          44.000  
C22  23081432.164   120191070.601         520.979          49.000  
C11  26016419.482   135474314.678         692.090          39.000  
C26  23790563.869   123883711.540        4424.347          45.000  
C 8  37482848.024   195183028.611        -203.232          41.000  
> 2020  9 30  8 30 28.0000000  0 25                     
G10  21730670.750   114195438.755        3786.702          44.000  
G12  23150700.890   121657751.042        3668.263          43.000  
G15  23556001.811   123787626.944        -977.174          42.000  
G18  21632871.563   113681506.018       -1398.017          45.000  
G20  19912131.854   104638960.953        1896.994          44.000  
C 4  38771509.889   201893424.963        1332.440          37.000  
G24  21041367.762   110573138.273        -956.332          46.000  
G21  25217063.450   132516536.391        3647.210          31.000  
G25  23798288.836   125060849.040        4483.990          38.000  
C 6  36740155.920   191315633.906        1066.074          41.000  
C 1  37573415.335   195654634.839        1354.554          43.000  
C 2  37096717.267   193172342.824        1337.792          43.000  
C 3  36380093.659   189440692.057        1311.500          46.000  
C 5  39061773.443   203404907.690        1334.814          40.000  
C 9  36684272.977   191024633.840        1103.912          41.000  
C13  36112835.931   188049015.259         222.948          47.000  
C16  36661631.005   190906733.164        1049.180          44.000  
C21  22682748.609   118115020.524        2596.367          45.000  
G31  25339958.790   133162378.9312       5149.776          35.000  
G32  23137059.409   121586042.5392       3070.656          43.000  
G23  20313561.008   106748482.7872       2169.334          44.000  
C22  23081332.279   120190549.783         520.602          49.000  
C11  26016286.791   135473622.982         691.558          39.000  
C26  23789714.183   123879287.528        4423.755          45.000  
C 8  37482887.357   195183232.614        -204.056          41.000  
> 2020  9 30  8 30 29.0000000  0 25                     
G10  21729950.056   114191652.711        3785.563          43.000  
G12  23150003.091   121654083.322        3667.383          43.000  
G15  23556187.796   123788604.450        -978.035          41.000  
G18  21633137.731   113682904.513       -1398.392          45.000  
G20  19911770.792   104637064.722        1895.813          44.000  
C 4  38771254.173   201892093.121        1331.830          37.000  
G24  21041549.872   110574095.104        -957.458          46.000  
G21  25216368.670   132512889.589        3647.010          31.000  
G25  23797435.450   125056365.399        4483.490          38.000  
C 6  36739951.090   191314568.193        1065.225          41.000  
C 1  37573155.257   195653280.761        1353.896          43.000  
C 2  37096460.539   193171005.682        1337.337          43.000  
C 3  36379842.062   189439381.005        1311.200          46.000  
C 5  39061517.483   203403573.149        1334.565          40.000  
C 9  36684060.869   191023530.260        1103.517          41.000  
C13  36112793.126   188048792.849         222.330          47.000  
C16  36661429.595   190905684.588        1048.254          44.000  
C21  22682249.917   118112424.711        2595.447          45.000  
G31  25338978.559   133157229.8292       5149.276          35.000  
G32  23136474.687   121582972.3172       3070.093          43.000  
G23  20313148.171   106746314.2902       2167.999          44.000  
C22  23081232.219   120190029.783         519.593          49.000  
C11  26016154.169   135472932.259         690.717          38.000  
C26  23788864.724   123874864.263        4423.547          45.000  
C 8  37482926.602   195183437.285        -204.379          41.000  
> 2020  9 30  8 30 30.0000000  0 25                     
G10  21729229.606   114187867.601        3784.381          43.000  
G12  23149305.361   121650416.663        3666.421          43.000  
G15  23556373.867   123789582.740        -978.474          41.000  
G18  21633404.109   113684304.214       -1400.138          45.000  
G20  19911410.026   104635169.733        1894.378          44.000  
C 4  38770998.510   201890762.085        1330.780          38.000  
G24  21041731.983   110575053.110        -958.720          46.000  
G21  25215671.429   132509243.985        3645.718          30.000  
G25  23796582.449   125051882.551        4482.825          39.000  
C 6  36739746.277   191313503.127        1064.975          41.000  
C 1  37572895.231   195651927.486        1353.011          43.000  
C 2  37096203.933   193169669.347        1336.157          43.000  
C 3  36379590.395   189438070.765        1309.919          46.000  
C 5  39061261.506   203402239.437        1333.127          40.000  
C 9  36683848.832   191022427.463        1102.106          40.000  
C13  36112750.530   188048571.389         221.080          47.000  
C16  36661228.568   190904636.704        1047.575          44.000  
C21  22681751.452   118109829.708        2594.594          45.000  
G31  25337998.939   133152081.6852       5148.535          34.000  
G32  23135890.123   121579902.9942       3068.951          43.000  
G23  20312735.962   106744146.9412       2166.728          44.000  
C22  23081132.491   120189510.737         518.628          49.000  
C11  26016021.792   135472242.733         689.037          38.000  
C26  23788015.596   123870442.052        4421.954          44.000  
C 8  37482966.267   195183642.931        -205.911          41.000  
> 2020  9 30  8 30 31.0000000  0 25                     
G10  21728509.645   114184083.212        3783.444          44.000  
G12  23148607.841   121646750.824        3664.659          43.000  
G15  23556559.922   123790561.656        -979.568          41.000  
G18  21633670.591   113685704.714       -1401.499          45.000  
G20  19911049.644   104633275.776        1892.912          44.000  
C 4  38770743.109   201889431.561        1329.803          37.000  
G24  21041914.407   110576012.120        -960.075          46.000  
G21  25214982.826   132505599.207        3643.927          30.000  
G25  23795729.221   125047400.144        4481.854          38.000  
C 6  36739541.620   191312438.594        1063.796          41.000  
C 1  37572635.467   195650574.694        1351.965          43.000  
C 2  37095947.398   193168333.457        1335.072          43.000  
C 3  36379338.920   189436760.975        1308.754          46.000  
C 5  39061005.459   203400906.166        1332.170          40.000  
C 9  36683637.283   191021325.130        1101.437          41.000  
C13  36112708.091   188048350.550         220.012          47.000  
C16  36661027.420   190903589.321        1046.583          44.000  
C21  22681253.230   118107235.376        2593.524          45.000  
G31  25337019.179   133146934.037        5146.988          35.000  
G32  23135305.924   121576833.7771       3067.582          43.000  
G23  20312323.666   106741980.5562       2165.317          45.000  
C22  23081032.833   120188992.460         517.350          49.000  
C11  26015889.694   135471554.144         687.645          38.000  
C26  23787166.591   123866020.438        4420.642          44.000  
C 8  37483005.791   195183849.104        -207.031          41.000  
> 2020  9 30  8 30 32.0000000  0 25                     
G10  21727789.841   114180300.378        3782.477          44.000  
G12  23147910.565   121643086.535        3664.050          43.000  
G15  23556746.569   123791541.862        -980.473          41.000  
G18  21633937.352   113687106.989       -1402.685          45.000  
G20  19910689.349   104631383.702        1891.510          44.000  
C 4  38770487.620   201888102.359        1329.016          37.000  
G24  21042097.233   110576972.924        -961.184          46.000  
G21  25214285.969   132501956.097        3642.590          30.000  
G25  23794876.446   125042919.081        4480.731          38.000  
C 6  36739337.453   191311375.369        1062.911          41.000  
C 1  37572375.895   195649223.262        1351.074          43.000  
C 2  37095691.403   193166998.952        1334.164          43.000  
C 3  36379087.707   189435452.551        1308.181          46.000  
C 5  39060749.813   203399574.268        1331.605          41.000  
C 9  36683425.681   191020224.166        1100.597          41.000  
C13  36112666.054   188048131.305         218.896          47.000  
C16  36660826.707   190902543.241        1045.768          44.000  
C21  22680755.097   118104642.490        2592.480          45.000  
G31  25336039.995   133141787.827        5146.254          35.000  
G32  23134722.145   121573766.569        3066.719          43.000  
G23  20311911.945   106739815.9522       2163.920          45.000  
C22  23080933.593   120188475.715         516.259          49.000  
C11  26015758.206   135470867.319         686.448          39.000  
C26  23786317.725   123861600.419        4419.641          44.000  
C 8  37483045.578   195184056.804        -207.765          41.000  
> 2020  9 30  8 30 33.0000000  0 23                     
G10  21727070.159   114176518.417        3781.437          43.000  
G12  23147213.377   121639423.261        3662.705          43.000  
G15  23556933.339   123792522.780        -981.358          41.000  
G18  21634204.550   113688510.334       -1403.981          45.000  
G20  19910329.700   104629492.817        1890.285          44.000  
C22  23080834.773   120187959.858         515.314          49.000  
G24  21042280.356   110577934.872        -962.631          46.000  
G21  25213595.639   132498314.028        3640.678          31.000  
G25  23794024.038   125038438.696        4480.188          38.000  
C 6  36739133.181   191310312.745        1062.243          41.000  
C11  26015626.719   135470181.571         685.321          38.000  
C26  23785468.981   123857181.293        4418.628          44.000  
C 8  37483085.556   195184265.384        -209.189          41.000  
C 5  39060493.783   203398243.070        1330.865          41.000  
C 9  36683214.063   191019123.861        1099.869          41.000  
C13  36112623.946   188047912.911         217.638          47.000  
C16  36660625.838   190901497.789        1045.018          44.000  
C21  22680257.277   118102050.369        2591.639          44.000  
G31  25335060.793   133136642.421        5145.494          34.000  
G32  23134138.627   121570700.099        3065.859          43.000  
G23  20311500.172   106737652.4232       2162.762          45.000  
C 2  37095435.339   193165665.136        1333.432          43.000  
C 4  38770232.585   201886773.857        1328.131          37.000  
> 2020  9 30  8 30 34.0000000  0 26                     
G10  21726350.565   114172737.171        3780.896          43.000  
G12  23146516.293   121635760.793        3662.028          43.000  
G15  23557120.074   123793504.220        -981.536          41.000  
G18  21634471.818   113689914.600       -1404.740          45.000  
G20  19909970.139   104627602.967        1889.385          44.000  
C22  23080735.411   120187444.736         514.817          49.000  
G24  21042463.740   110578897.760        -963.266          46.000  
G21  25212901.888   132494672.761        3640.544          31.000  
G25  23793171.647   125033958.874        4479.358          38.000  
C 6  36738929.310   191309250.585        1062.041          41.000  
C11  26015495.214   135469496.798         684.533          38.000  
C26  23784620.604   123852762.920        4418.018          44.000  
C 8  37483125.866   195184474.586        -209.547          41.000  
C 5  39060238.138   203396912.407        1330.462          41.000  
C 9  36683002.810   191018024.072        1099.543          41.000  
C13  36112582.223   188047695.221         217.330          47.000  
C16  36660425.282   190900452.826        1044.813          44.000  
C21  22679759.841   118099458.859        2591.443          44.000  
G31  25334081.487   133131497.679        5144.092          34.000  
G32  23133554.952   121567634.302        3065.514          43.000  
G23  20311088.487   106735489.8332       2162.441          45.000  
C 1  37571857.048   195646522.335        1350.065          43.000  
C 3  36378585.542   189432837.651        1306.975          47.000  
C 2  37095179.449   193164331.875        1333.047          43.000  
C 4  38769977.428   201885445.906        1327.692          37.000  
C 7  39470375.352   205532601.267        2797.686          38.000  
> 2020  9 30  8 30 35.0000000  0 26                     
G10  21725631.441   114168956.816        3778.936          43.000  
G12  23145819.471   121632099.327        3660.321          43.000  
G15  23557307.087   123794486.431        -983.809          41.000  
G18  21634739.155   113691319.943       -1406.420          46.000  
G20  19909610.821   104625714.333        1887.052          44.000  
C22  23080636.905   120186930.561         512.705          49.000  
G24  21042647.125   110579861.821        -965.741          46.000  
G21  25212211.592   132491032.481        3639.225          30.000  
G25  23792319.343   125029479.737        4478.406          38.000  
C 6  36738725.439   191308189.092        1059.989          40.000  
C11  26015363.936   135468813.147         681.656          38.000  
C26  23783772.209   123848345.449        4416.821          45.000  
C 8  37483166.159   195184684.648        -210.858          41.000  
C 5  39059983.016   203395582.423        1328.812          40.000  
C 9  36682791.663   191016924.968        1097.760          41.000  
C13  36112540.674   188047478.406         215.890          47.000  
C16  36660224.570   190899408.530        1042.991          44.000  
C21  22679262.213   118096868.167        2589.122          44.000  
G31  25333102.565   133126353.637        5142.810          33.000  
G32  23132971.958   121564569.293        3063.277          42.000  
G23  20310677.185   106733328.4052       2159.741          44.000  
C 1  37571598.104   195645172.895        1348.411          43.000  
C 3  36378334.625   189431531.189        1305.449          47.000  
C 2  37094923.594   193162999.289        1331.615          43.000  
C 4  38769722.550   201884118.680        1326.068          37.000  
C 7  39469838.321   205529804.090        2796.391          39.000  
> 2020  9 30  8 30 36.0000000  0 26                     
G10  21724912.248   114165177.405        3779.131          32.000  
G12  23145122.841   121628439.432        3658.813          42.000  
G15  23557493.822   123795469.641        -984.027          40.000  
G18  21635006.911   113692726.845       -1407.574          47.000  
G20  19909251.923   104623827.331        1885.977          44.000  
C22  23080538.608   120186417.731         511.929          50.000  
G24  21042830.631   110580827.424        -966.195          46.000  
G21  25211516.148   132487393.537        3638.998          28.000  
G25  23791467.232   125025001.838        4476.874          40.000  
C 6  36738521.952   191307128.433        1060.188          40.000  
C11  26015233.356   135468130.623         682.377          27.000  
C26  23782924.321   123843929.373        4415.137          46.000  
C 8  37483206.766   195184896.093        -212.291          43.000  
C 1  37571339.282   195643824.716        1347.244          44.000  
C 9  36682580.934   191015826.892        1097.649          40.000  
C13  36112499.003   188047262.919         214.810          44.000  
C16  36660023.840   190898365.124        1042.708          38.000  
C21  22678764.986   118094278.338        2589.253          40.000  
C 3  36378083.865   189430225.939        1304.526          46.000  
G32  23132389.399   121561505.249        3063.460          36.000  
G23  20310266.250   106731168.4322       2159.003          44.000  
G31  25332124.131   133121210.765        5142.631          34.000  
C 2  37094667.704   193161667.745        1330.960          41.000  
C 4  38769468.021   201882792.751        1325.049          38.000  
C 5  39059727.387   203394253.353        1328.549          34.000  
C 7  39469301.605   205527008.132        2795.080          37.000  
> 2020  9 30  8 30 37.0000000  0 26                     
G10  21724194.677   114161398.741        3778.417          23.000  
G12  23144426.211   121624779.575        3659.527          43.000  
G15  23557681.063   123796452.975        -983.051          41.000  
G18  21635274.632   113694134.129       -1407.933          47.000  
G20  19908892.919   104621940.981        1885.975          43.000  
C22  23080439.770   120185905.108         512.340          50.000  
G24  21043014.748   110581793.618        -966.661          47.000  
G21  25210824.684   132483755.307        3637.787          27.000  
G25  23790614.998   125020523.702        4477.875          40.000  
C 6  36738318.604   191306068.160        1060.415          35.000  
C11  26015104.731   135467449.092         680.618          26.000  
C26  23782076.205   123839513.467        4415.320          46.000  
C 8  37483247.442   195185107.587        -212.070          44.000  
C 1  37571080.478   195642476.392        1348.010          45.000  
C 9  36682370.135   191014729.104        1097.158          38.000  
C13  36112457.681   188047047.685         214.712          44.000  
C16  36659823.477   190897322.081        1042.688          37.000  
C21  22678267.865   118091689.181        2589.293          34.000  
C 3  36377833.036   189428920.690        1304.595          46.000  
G32  23131806.789   121558441.823        3062.616          34.000  
G23  20309855.612   106729009.094        2158.969          43.000  
G31  25331145.837   133116068.061        5141.082          34.000  
C 2  37094411.936   193160336.458        1330.550          41.000  
C 4  38769213.231   201881466.604        1326.019          41.000  
C 5  39059471.707   203392918.2413       1327.200          33.000  
C 7  39468764.557   205524211.941        2795.773          39.000  
> 2020  9 30  8 30 38.0000000  0 26                     
G10  21723477.124   114157621.210        3776.453          37.000  
G12  23143729.912   121621120.913        3656.836          43.000  
G15  23557868.426   123797437.231        -985.639          42.000  
G18  21635542.685   113695542.700       -1410.337          46.000  
G20  19908534.300   104620055.858        1883.198          43.000  
C22  23080341.612   120185393.527         509.812          50.000  
G24  21043198.517   110582761.068        -969.329          45.000  
G21  25210132.992   132480142.2123       3635.046          26.000  
G25  23789763.113   125016046.610        4475.244          40.000  
C 6  36738115.205   191305008.545        1058.170          41.000  
C11  26014971.725   135466769.079         678.248          27.000  
C26  23781228.508   123835098.731        4412.982          47.000  
C 8  37483288.206   195185320.092        -214.250          43.000  
C 1  37570821.848   195641128.908        1345.652          44.000  
C 9  36682159.249   191013632.017        1095.704          41.000  
C13  36112416.847   188046833.474         212.474          46.000  
C16  36659623.515   190896279.653        1041.020          41.000  
C21  22677770.987   118089100.860        2587.186          43.000  
C 3  36377582.503   189427616.249        1302.655          46.000  
G32  23131224.946   121555379.332        3060.599          30.000  
G23  20309444.903   106726850.915        2156.311          44.000  
G31  25330167.630   133110926.604        5139.771          35.000  
C 2  37094156.412   193159006.054        1328.882          43.000  
C 4  38768958.510   201880141.347        1323.315          39.000  
C 5  39059216.777   203391590.4642       1326.501          36.000  
C 7  39468227.684   205521416.607        2793.708          36.000  
> 2020  9 30  8 30 39.0000000  0 25                     
G10  21722753.656   114153845.554        3775.252          44.000  
G12  23143034.120   121617464.217        3656.787          47.000  
G15  23558056.243   123798423.162        -985.528          43.000  
G18  21635811.296   113696953.472       -1411.047          45.000  
G20  19908176.221   104618172.869        1882.613          45.000  
C22  23080243.647   120184883.660         509.940          50.000  
G24  21043383.192   110583730.514        -969.329          46.000  
G21  25209442.522                3       3637.159          24.000  
G25  23788911.543   125011571.267        4475.500          42.000  
C 6  36737912.590   191303950.580        1057.879          44.000  
C11  26014847.410   135466137.2393        677.882          32.000  
C26  23780381.335   123830686.091        4412.396          45.000  
C 8  37483329.406   195185534.506        -214.749          42.000  
C 1  37570563.515   195639782.969        1346.113          45.000  
C 9  36681949.009   191012536.719        1094.978          39.000  
C13  36112376.031   188046621.194         211.801          45.000  
C16  36659423.657   190895238.931        1040.628          45.000  
C21  22677274.249   118086514.431        2586.268          47.000  
C 3  36377332.250   189426313.519        1302.577          45.000  
C 2  37093901.395   193157677.560        1328.215          40.000  
G23  20309034.352   106724694.774        2155.757          47.000  
G31  25329189.825   133105787.438        5137.968          36.000  
C 4  38768704.260   201878817.658        1323.981          42.000  
C 5  39058962.283   203390265.9193       1326.297          32.000  
C 7  39467691.247   205518623.106        2793.588          41.000  
> 2020  9 30  8 30 40.0000000  0 27                     
G10  21722035.998   114150069.948        3775.482          46.000  
G12  23142338.414   121613807.032        3657.368          43.000  
G15  23558243.833   123799407.743        -984.691          42.000  
G18  21636079.855   113698365.070       -1411.653          45.000  
G20  19907817.986   104616290.247        1882.448          46.000  
C22  23080145.385   120184373.177         510.635          49.000  
G24  21043567.885   110584699.597        -969.362          46.000  
G21  25208741.791   132472831.5572       3634.650          35.000  
G25  23788059.763   125007095.766        4475.604          40.000  
C 6  36737709.487   191302892.255        1058.277          46.000  
C11  26014712.607   135465460.3902        677.601          28.000  
C26  23779534.110   123826274.106        4411.871          45.000  
C 8  37483370.867   195185749.373        -214.790          43.000  
C 1  37570304.956   195638436.678        1346.207          44.000  
C 9  36681738.874   191011441.697        1094.824          42.000  
C13  36112335.669   188046409.530         211.672          46.000  
C16  36659223.957   190894198.003        1040.957          47.000  
C21  22676777.459   118083927.762        2586.626          49.000  
C 3  36377082.275   189425011.107        1302.488          46.000  
C 2  37093646.238   193156349.685        1327.805          40.000  
G23  20308624.132   106722538.777        2155.728          48.000  
G32  23130056.672   121549258.860        3058.415          39.000  
G31  25328212.194   133100648.722        5139.047          35.000  
C 4  38768450.080   201877493.288        1324.487          41.000  
C 5  39058707.823   203388941.0433       1326.326          31.000  
C 7  39467154.740   205515829.476        2793.889          38.000  
C12  25225637.947   131356515.3651       -874.936          35.000  
> 2020  9 30  8 30 41.0000000  0 27                     
G10  21721318.201   114146295.449        3773.147          47.000  
G12  23141642.692   121610151.220        3654.975          41.000  
G15  23558431.684   123800393.943        -987.133          42.000  
G18  21636348.501   113699777.280       -1413.014          45.000  
G20  19907459.838   104614409.125        1879.830          47.000  
C22  23080047.768   120183864.327         507.856          49.000  
G24  21043752.736   110585670.583        -972.325          46.000  
G21  25208055.508   132469198.1602       3631.796          34.000  
G25  23787208.140   125002620.732        4474.420          39.000  
C 6  36737506.611   191301834.932        1056.304          46.000  
C11  26014581.468   135464784.2272        675.460          33.000  
C26  23778686.971   123821862.417        4411.267          45.000  
C 8  37483412.102   195185964.729        -216.038          42.000  
C 1  37570046.588   195637091.358        1344.737          44.000  
C 9  36681528.860   191010347.295        1093.225          43.000  
C13  36112295.376   188046198.448         210.187          46.000  
C16  36659024.257   190893158.031        1038.870          47.000  
C21  22676281.070   118081342.238        2584.292          49.000  
C 3  36376832.144   189423709.141        1301.414          46.000  
C 2  37093391.430   193155021.900        1327.123          41.000  
G23  20308214.174   106720384.285        2153.246          48.000  
G32  23129474.341   121546199.518        3058.165          40.000  
G31  25327234.755   133095509.962        5138.028          37.000  
C 4  38768195.918   201876170.060        1322.345          41.000  
C 5  39058453.626   203387616.0682       1323.219          32.000  
C 7  39466618.268   205513036.261        2792.958          38.000  
C12  25225806.044   131357390.351        -875.873          36.000  
> 2020  9 30  8 30 42.0000000  0 27                     
G10  21720601.084   114142522.575        3772.275          46.000  
G12  23140947.126   121606495.940        3655.326          43.000  
G15  23558619.466   123801380.827        -985.956          40.000  
G18  21636617.531   113701190.553       -1414.277          45.000  
G20  19907102.335   104612529.451        1878.927          47.000  
C22  23079949.994   120183356.285         508.293          49.000  
G24  21043938.109   110586642.938        -972.590          45.000  
G21  25207363.241   132465566.7872       3631.148          34.000  
G25  23786356.813   124998146.014        4474.573          39.000  
C 6  36737303.892   191300778.741        1055.808          45.000  
C11  26014453.576   135464109.4712        674.516          27.000  
C26  23777839.903   123817451.600        4409.833          45.000  
C 8  37483453.547   195186180.738        -216.800          43.000  
C 1  37569788.237   195635746.387        1345.082          44.000  
C 9  36681319.126   191009254.188        1092.291          41.000  
C13  36112254.700   188045988.378         209.041          46.000  
C16  36658824.504   190892119.223        1038.471          46.000  
C21  22675784.681   118078758.111        2583.843          49.000  
C 3  36376582.274   189422407.855        1300.466          46.000  
C 2  37093136.552   193153695.173        1325.714          39.000  
G23  20307804.530   106718231.225        2152.648          47.000  
G32  23128896.023   121543141.874        3056.477          39.000  
G31  25326257.141   133090372.183        5136.453          33.000  
C 4  38767942.052   201874847.170        1323.450          41.000  
C 5  39058199.551   203386294.5073       1322.762          31.000  
C 7  39466082.040   205510243.361        2792.848          39.000  
C12  25225974.457   131358266.580        -878.119          35.000  
> 2020  9 30  8 30 43.0000000  0 27                     
G10  21719883.427   114138749.134        3773.646          42.000  
G12  23140251.578   121602840.612        3655.957          39.000  
G15  23558807.021   123802366.681        -985.394          38.000  
G18  21636886.631   113702604.383       -1413.364          46.000  
G20  19906744.536   104610649.785        1879.774          45.000  
C22  23079852.500   120182847.802         508.781          47.000  
G24  21044122.924   110587614.813        -971.901          45.000  
G21  25206674.900   132461934.6632       3631.756          34.000  
G25  23785505.120   124993671.341        4475.378          39.000  
C 6  36737100.736   191299721.783        1057.091          44.000  
G32  23128315.489   121540083.855        3058.145          37.000  
C26  23776993.009   123813041.231        4411.060          45.000  
C 8  37483495.357   195186397.098        -215.902          44.000  
C 1  37569529.887   195634401.227        1345.808          44.000  
C 9  36681108.956   191008160.620        1093.849          42.000  
C13  36112214.512   188045778.473         210.372          46.000  
C16  36658625.013   190891079.712        1039.807          45.000  
C21  22675288.449   118076173.281        2584.993          48.000  
C 3  36376332.422   189421106.624        1301.960          46.000  
C 2  37092881.744   193152368.460        1327.241          42.000  
G23  20307395.113   106716077.963        2153.448          47.000  
C11  26014323.694                3        674.845          27.000  
G31  25325279.580   133085234.756        5138.588          37.000  
C 4  38767687.855   201873523.849        1323.804          39.000  
C 5  39057945.441   203384970.5792       1324.142          34.000  
C 7  39465545.742   205507450.493        2793.804          40.000  
C12  25226142.938   131359142.967        -876.004          38.000  
> 2020  9 30  8 30 44.0000000  0 27                     
G10  21719164.286   114134975.649        3773.474          44.000  
G12  23139555.907   121599185.022        3655.087          39.000  
G15  23558994.698   123803352.347        -985.554          37.000  
G18  21637155.556   113704017.930       -1414.361          46.000  
G20  19906386.702   104608770.231        1879.083          46.000  
C22  23079754.761   120182339.148         508.584          48.000  
G24  21044307.932   110588586.866        -971.872          45.000  
G21  25205982.004   132458302.8152       3631.854          34.000  
G25  23784653.463   124989196.025        4475.079          36.000  
C 6  36736897.616   191298664.462        1057.281          45.000  
G32  23127731.465   121537025.747        3058.058          35.000  
C26  23776145.871   123808630.396        4410.010          45.000  
C 8  37483536.906   195186612.901        -216.782          43.000  
C 1  37569271.274   195633055.526        1345.217          42.000  
C 9  36680898.803   191007066.672        1093.725          43.000  
C13  36112174.272   188045568.167         209.828          46.000  
C16  36658425.470   190890039.864        1039.942          45.000  
C21  22674792.043   118073588.330        2584.875          48.000  
C 3  36376082.186   189419804.790        1301.172          45.000  
C 2  37092626.918   193151041.206        1326.798          42.000  
G23  20306985.330   106713924.761        2152.897          47.000  
C11  26014195.801                3        674.633          27.000  
G31  25324302.088   133080096.704        5137.360          34.000  
C 4  38767433.780   201872200.104        1323.529          38.000  
C 5  39057691.244   203383646.3792       1323.054          34.000  
C 7  39465009.113   205504656.949        2793.405          39.000  
C12  25226311.141   131360018.908        -876.256          37.000  
> 2020  9 30  8 30 45.0000000  0 27                     
G10  21718446.750   114131202.328        3773.471          44.000  
G12  23138860.359   121595529.915        3654.542          40.000  
G15  23559182.218   123804338.157        -985.599          36.000  
G18  21637424.709   113705431.934       -1414.738          45.000  
G20  19906029.199   104606891.272        1878.636          46.000  
C22  23079657.110   120181830.824         508.532          49.000  
G24  21044492.921   110589559.460        -972.337          46.000  
G21  25205291.638   132454671.1682       3631.290          33.000  
G25  23783802.032   124984720.831        4474.707          39.000  
C 6  36736694.460   191297607.135        1057.652          44.000  
G32  23127148.366   121533967.535        3058.372          31.000  
C26  23775298.628   123804219.879        4409.650          45.000  
C 8  37483578.385   195186828.961        -216.821          42.000  
C 1  37569013.011   195631709.978        1345.344          44.000  
C 9  36680688.667   191005972.704        1093.984          43.000  
C13  36112133.979   188045358.138         209.458          46.000  
C16  36658225.822   190888999.994        1040.093          44.000  
C21  22674295.410   118071003.493        2585.021          46.000  
C 3  36375832.194   189418503.107        1301.187          45.000  
C 2  37092372.005   193149714.004        1326.705          42.000  
G23  20306575.895   106711772.031        2152.675          47.000  
C11  26014070.858                2        674.602          28.000  
G31  25323324.353   133074958.733        5137.377          35.000  
C 4  38767179.652   201870876.507        1323.657          38.000  
C 5  39057437.116   203382322.1942       1322.832          36.000  
C 7  39464472.693   205501863.501        2793.032          39.000  
C12  25226479.309   131360894.918        -876.784          37.000  
> 2020  9 30  8 30 46.0000000  0 27                     
G10  21717728.395   114127428.790        3773.681          44.000  
G12  23138164.881   121591875.200        3654.658          40.000  
G15  23559369.756   123805324.210        -986.930          36.000  
G18  21637693.826   113706845.932       -1413.780          46.000  
G20  19905671.661   104605012.569        1878.602          46.000  
C22  23079559.773   120181322.801         508.163          47.000  
G24  21044678.033   110590532.544        -973.535          46.000  
G21  25204600.714   132451039.6182       3630.867          33.000  
G25  23782950.286   124980245.535        4475.342          38.000  
C 6  36736491.130   191296549.533        1057.787          44.000  
G32  23126563.191   121530908.837        3059.245          29.000  
C26  23774451.420   123799809.146        4410.962          45.000  
C 8  37483620.004   195187044.861        -215.548          42.000  
C 1  37568754.818   195630364.486        1345.448          43.000  
C 9  36680478.566   191004878.288        1094.572          43.000  
C13  36112093.512   188045147.849         210.583          45.000  
C16  36658026.209   190887959.775        1040.352          45.000  
C21  22673798.986   118068418.463        2585.073          47.000  
C 3  36375582.132   189417201.048        1302.468          46.000  
C 2  37092116.866   193148386.276        1328.017          42.000  
G23  20306166.304   106709619.530        2152.395          47.000  
C11  26013943.366                2        672.348          28.000  
G31  25322346.739   133069820.366        5139.150          35.000  
C 4  38766925.437   201869553.077        1323.285          39.000  
C 5  39057182.500   203380997.3182       1325.388          36.000  
C 7  39463936.221   205499069.910        2794.030          39.000  
C12  25226647.389   131361770.399        -874.921          37.000  
> 2020  9 30  8 30 47.0000000  0 27                     
G10  21717010.283   114123655.280        3773.611          44.000  
G12  23137469.612   121588221.459        3653.186          39.000  
G15  23559557.660   123806311.021        -987.052          36.000  
G18  21637963.153   113708260.264       -1414.858          46.000  
G20  19905314.403   104603134.557        1877.570          47.000  
C22  23079462.435   120180815.607         506.899          48.000  
G24  21044863.180   110591506.458        -974.294          45.000  
G21  25203908.464   132447407.8572       3631.460          33.000  
G25  23782098.594   124975770.619        4474.158          36.000  
C 6  36736288.289   191295491.962        1057.593          46.000  
G32  23125984.454   121527849.826        3058.810          34.000  
C26  23773604.246   123795398.586        4409.894          45.000  
C 8  37483661.047   195187261.001        -216.751          41.000  
C 1  37568496.380   195629019.546        1344.395          43.000  
C 9  36680268.571   191003783.579        1094.643          44.000  
C13  36112053.289   188044937.687         209.890          46.000  
C16  36657826.823   190886919.511        1040.252          46.000  
C21  22673302.702   118065833.515        2584.990          49.000  
C 3  36375332.280   189415899.134        1301.417          46.000  
C 2  37091861.796   193147058.265        1327.708          42.000  
G23  20305756.712   106707467.610        2151.724          48.000  
C11  26013811.669                3        673.950          27.000  
G31  25321369.073   133064681.782        5138.214          34.000  
C 4  38766671.362   201868230.311        1322.449          39.000  
C 5  39056928.111   203379671.9162       1325.509          38.000  
C 7  39463399.889   205496276.659        2792.269          37.000  
C12  25226815.732   131362645.519        -875.266          38.000  
> 2020  9 30  8 30 48.0000000  0 27                     
G10  21716292.416   114119882.662        3771.540          44.000  
G12  23136774.552   121584568.507        3652.086          40.000  
G15  23559745.581   123807298.378        -987.742          35.000  
G18  21638232.689   113709675.502       -1416.135          47.000  
G20  19904957.215   104601257.632        1876.160          47.000  
C22  23079365.185   120180309.173         505.723          48.000  
G24  21045048.781   110592481.405        -975.884          45.000  
G21  25203218.430   132443777.1702       3629.146          34.000  
G25  23781246.936   124971296.157        4473.773          38.000  
C 6  36736085.413   191294434.957        1056.171          45.000  
G32  23125402.001   121524791.547        3057.355          35.000  
C26  23772757.422   123790988.774        4409.101          46.000  
C 8  37483702.806   195187477.802        -217.482          43.000  
C 1  37568238.274   195627675.109        1343.871          44.000  
C 9  36680058.470   191002689.527        1093.522          43.000  
C13  36112013.136   188044728.280         208.703          46.000  
C16  36657626.913   190885879.843        1038.847          46.000  
C21  22672806.365   118063249.313        2583.306          49.000  
C 3  36375082.393   189414597.733        1300.850          47.000  
C 2  37091606.988   193145730.866        1326.572          42.000  
G23  20305347.191   106705316.726        2149.909          47.000  
C11  26013683.759   135460076.8842        672.047          28.000  
G31  25320391.023   133059543.828        5136.632          36.000  
C 4  38766417.270   201866908.076        1321.765          40.000  
C 5  39056674.140   203378347.2032       1323.549          38.000  
C 7  39462863.661   205493483.783        2792.430          39.000  
C12  25226983.603   131363521.344        -876.855          38.000  
> 2020  9 30  8 30 49.0000000  0 27                     
G10  21715574.409   114116109.029        3771.482          48.000  
G12  23136079.143   121580915.467        3653.705          42.000  
G15  23559933.275   123808285.452        -986.555          41.000  
G18  21638501.684   113711090.158       -1416.265          44.000  
G20  19904599.677   104599379.382        1875.915          46.000  
C22  23079267.726   120179801.753         506.772          48.000  
G24  21045234.311   110593455.413        -975.260          45.000  
G21  25202527.122   132440146.3841       3629.033          39.000  
G25  23780395.627   124966821.625        4475.031          38.000  
C 6  36735882.327   191293376.292        1056.753          46.000  
G32  23124820.961   121521732.708        3056.606          43.000  
C26  23771910.790   123786578.613        4409.234          44.000  
C 8  37483744.442   195187693.770        -217.277          41.000  
C 1  37567979.993   195626329.649        1345.240          43.000  
C 9  36679848.090   191001593.972        1092.966          45.000  
C13  36111972.530   188044517.588         208.689          45.000  
C16  36657426.899   190884838.554        1039.192          48.000  
C21  22672310.064   118060663.787        2583.508          50.000  
C 3  36374832.314   189413294.948        1301.158          44.000  
C 2  37091351.708   193144402.398        1326.334          40.000  
G23  20304937.774   106703164.477        2150.076          47.000  
C11  26013546.461   135459404.0922        671.068          40.000  
G31  25319413.305   133054406.585        5136.870          35.000  
C 4  38766163.352   201865585.305        1323.175          39.000  
C 5  39056419.594   203377025.2283       1323.149          38.000  
C 7  39462327.434   205490690.730        2793.560          37.000  
C12  25227151.788   131364397.202        -876.958          40.000  
> 2020  9 30  8 30 50.0000000  0 27                     
G10  21714856.874   114112337.903        3770.072          48.000  
G12  23135384.223   121577263.029        3652.038          42.000  
G15  23560121.075   123809272.844        -987.657          41.000  
G18  21638770.941   113712507.005       -1418.217          44.000  
G20  19904242.942   104597504.146        1874.187          46.000  
C22  23079170.144   120179295.879         505.528          49.000  
G24  21045419.807   110594431.613        -976.754          45.000  
G21  25201835.972   132436517.720        3627.914          38.000  
G25  23779544.056   124962347.504        4473.511          38.000  
C 6  36735679.189   191292319.968        1055.475          45.000  
G32  23124239.188   121518676.167        3054.902          42.000  
C26  23771064.158   123782170.071        4406.952          44.000  
C 8  37483786.235   195187911.506        -218.850          42.000  
C 1  37567721.782   195624985.355        1343.842          43.000  
C 9  36679637.989   191000501.069        1091.745          45.000  
C13  36111932.551   188044309.447         206.669          45.000  
C16  36657227.251   190883799.692        1038.103          47.000  
C21  22671813.902   118058080.706        2582.192          50.000  
C 3  36374582.601   189411994.270        1299.547          44.000  
C 2  37091096.918   193143076.161        1325.043          41.000  
G23  20304528.618   106701015.076        2148.450          47.000  
C11  26013416.736   135458733.5252        669.747          38.000  
G31  25318435.622   133049269.933        5135.073          34.000  
C 4  38765909.416   201864263.042        1321.918          40.000  
C 5  39056165.205   203375701.9632       1322.068          38.000  
C 7  39461790.717   205487898.179        2791.691          38.000  
C12  25227320.636   131365274.627        -879.324          37.000  
> 2020  9 30  8 30 51.0000000  0 27                     
G10  21714139.478   114108567.423        3769.841          47.000  
G12  23134689.548   121573611.427        3651.481          42.000  
G15  23560308.891   123810260.750        -988.152          38.000  
G18  21639040.965   113713924.808       -1418.395          45.000  
G20  19903886.260   104595629.922        1873.708          46.000  
C22  23079073.400   120178790.722         505.003          48.000  
G24  21045605.879   110595408.729        -977.239          46.000  
G21  25201145.048   132432889.834        3627.401          38.000  
G25  23778692.800   124957873.896        4473.651          39.000  
C 6  36735476.348   191291264.068        1055.634          45.000  
G32  23123657.188   121515620.219        3055.367          42.000  
C26  23770217.805   123777762.279        4407.184          46.000  
C 8  37483828.133   195188129.982        -218.992          42.000  
C 1  37567463.606   195623641.665        1343.582          43.000  
C 9  36679428.343   190999408.661        1091.851          45.000  
C13  36111892.451   188044102.032         206.588          46.000  
C16  36657027.725   190882761.309        1037.885          47.000  
C21  22671317.879   118055498.201        2582.093          50.000  
C 3  36374332.784   189410694.160        1299.659          45.000  
C 2  37090842.267   193141750.475        1325.049          41.000  
G23  20304119.952   106698866.611        2147.852          47.000  
C11  26013285.702   135458063.8802        669.120          38.000  
G31  25317458.532   133044133.998        5135.266          36.000  
C 4  38765655.568   201862941.351        1321.405          40.000  
C 5  39055910.937   203374379.2852       1322.364          39.000  
C 7  39461254.437   205485106.165        2791.775          38.000  
C12  25227489.240   131366152.600        -879.012          40.000  
> 2020  9 30  8 30 52.0000000  0 27                     
G10  21713422.030   114104797.539        3769.524          47.000  
G12  23133994.785   121569960.577        3650.594          42.000  
G15  23560497.040   123811248.912        -988.594          38.000  
G18  21639310.676   113715343.608       -1418.713          45.000  
G20  19903529.996   104593756.661        1873.044          46.000  
C22  23078976.464   120178286.147         504.288          48.000  
G24  21045792.125   110596386.657        -978.430          45.000  
G21  25200454.735   132429262.569        3627.104          38.000  
G25  23777841.718   124953400.876        4473.334          38.000  
C 6  36735273.716   191290208.536        1055.416          45.000  
G32  23123076.742   121512564.892        3055.394          42.000  
C26  23769371.591   123773355.341        4407.135          46.000  
C 8  37483870.188   195188349.176        -219.299          42.000  
C 1  37567205.762   195622298.454        1343.200          44.000  
C 9  36679218.748   190998316.686        1092.107          45.000  
C13  36111852.804   188043895.366         206.771          46.000  
C16  36656828.478   190881723.257        1037.830          47.000  
C21  22670822.136   118052916.179        2581.819          49.000  
C 3  36374083.263   189409394.653        1299.587          45.000  
C 2  37090587.721   193140425.387        1325.505          42.000  
G23  20303710.954   106696718.985        2147.220          47.000  
C11  26013157.810   135457395.0322        668.786          39.000  
G31  25316481.738   133038998.721        5135.744          37.000  
C 4  38765401.859   201861620.125        1320.935          39.000  
C 5  39055656.984   203373057.1262       1323.024          38.000  
C 7  39460718.489   205482314.695        2791.747          38.000  
C12  25227658.193   131367031.247        -878.480          39.000  
> 2020  9 30  8 30 53.0000000  0 27                     
G10  21712704.494   114101027.786        3770.090          46.000  
G12  23133300.091   121566309.619        3650.663          42.000  
G15  23560684.856   123812236.982        -987.816          36.000  
G18  21639580.701   113716762.364       -1419.482          45.000  
G20  19903173.401   104591883.704        1872.675          46.000  
C22  23078879.441   120177781.571         505.051          47.000  
G24  21045978.354   110597364.855        -977.779          45.000  
G21  25199765.154   132425635.704        3627.260          39.000  
G25  23776990.287   124948927.372        4473.059          39.000  
C 6  36735070.630   191289152.808        1056.038          45.000  
G32  23122495.545   121509509.542        3055.251          43.000  
C26  23768525.343   123768948.191        4406.256          46.000  
C 8  37483912.278   195188568.057        -219.494          42.000  
C 1  37566947.935   195620954.890        1343.488          44.000  
C 9  36679009.014   190997224.559        1092.190          45.000  
C13  36111813.035   188043688.555         206.071          46.000  
C16  36656628.970   190880685.062        1038.440          47.000  
C21  22670326.044   118050334.185        2582.251          49.000  
C 3  36373833.568   189408094.760        1299.233          45.000  
C 2  37090333.331   193139100.029        1324.744          42.000  
G23  20303302.217   106694571.578        2147.478          46.000  
C11  26013030.074   135456726.5832        668.214          39.000  
G31  25315504.491   133033863.211        5134.573          36.000  
C 4  38765147.958   201860298.532        1321.930          39.000  
C 5  39055402.892   203371734.7862       1322.076          38.000  
C 7  39460182.226   205479522.729        2791.924          38.000  
C12  25227827.111   131367909.727        -878.805          40.000  
> 2020  9 30  8 30 54.0000000  0 27                     
G10  21711986.906   114097257.709        3770.026          47.000  
G12  23132605.259   121562658.368        3651.670          42.000  
G15  23560872.603   123813224.208        -986.802          36.000  
G18  21639850.690   113718181.355       -1419.261          45.000  
G20  19902817.172   104590010.707        1872.613          46.000  
C22  23078782.453   120177276.479         504.980          48.000  
G24  21046164.687   110598342.763        -978.260          45.000  
G21  25199074.789   132422008.741        3627.098          40.000  
G25  23776138.926   124944453.585        4474.048          38.000  
C 6  36734868.033   191288096.462        1056.245          45.000  
G32  23121914.104   121506454.173        3055.066          42.000  
C26  23767678.973   123764541.155        4407.104          45.000  
C 8  37483954.350   195188786.912        -218.972          42.000  
C 1  37566689.829   195619610.782        1344.346          43.000  
C 9  36678799.419   190996132.075        1092.404          46.000  
C13  36111773.300   188043481.708         206.714          46.000  
C16  36656429.444   190879646.284        1038.877          47.000  
C21  22669829.986   118047751.728        2582.363          50.000  
C 3  36373583.716   189406794.602        1300.200          45.000  
C 2  37090078.767   193137774.517        1325.618          42.000  
G23  20302893.550   106692424.023        2147.225          47.000  
C11  26012902.391   135456058.3792        668.434          39.000  
G31  25314527.244   133028727.830        5135.261          37.000  
C 4  38764894.145   201858976.383        1322.192          39.000  
C 5  39055149.061   203370412.3662       1322.843          40.000  
C 7  39459646.068   205476730.485        2792.320          37.000  
C12  25227995.855   131368788.313        -878.808          39.000  
> 2020  9 30  8 30 55.0000000  0 27                     
G10  21711269.319   114093487.232        3771.242          47.000  
G12  23131910.478   121559007.534        3651.609          41.000  
G15  23561060.821   123814211.682        -987.128          37.000  
G18  21640120.837   113719600.088       -1417.076          44.000  
G20  19902460.612   104588137.862        1873.797          46.000  
C22  23078685.604   120176771.659         505.424          48.000  
G24  21046350.759   110599321.019        -977.800          46.000  
G21  25198384.231   132418381.272        3628.026          38.000  
G25  23775287.529   124939979.546        4474.994          37.000  
C 6  36734664.948   191287039.668        1057.833          46.000  
G32  23121332.244   121503397.834        3057.570          43.000  
C26  23766832.550   123760133.697        4409.234          44.000  
C 8  37483996.353   195189005.426        -216.987          42.000  
C 1  37566431.688   195618266.695        1345.217          42.000  
C 9  36678589.336   190995038.851        1094.412          45.000  
C13  36111733.793   188043274.398         209.036          46.000  
C16  36656229.692   190878606.989        1040.386          47.000  
C21  22669334.261   118045168.884        2583.669          50.000  
C 3  36373334.003   189405493.968        1302.363          45.000  
C 2  37089824.326   193136448.214        1327.919          42.000  
G23  20302484.709   106690276.553        2148.200          47.000  
C11  26012773.765   135455389.5082        669.926          41.000  
G31  25313549.945   133023591.570        5138.778          37.000  
C 4  38764640.349   201857654.336        1323.047          39.000  
C 5  39054894.829   203369088.4541       1324.851          38.000  
C 7  39459109.840   205473937.924        2793.777          37.000  
C12  25228164.162   131369665.952        -876.148          40.000  
> 2020  9 30  8 30 56.0000000  0 27                     
G10  21710551.853   114089716.873        3770.818          46.000  
G12  23131215.715   121555356.103        3650.740          42.000  
G15  23561248.568   123815198.465        -986.925          37.000  
G18  21640390.775   113721018.772       -1419.302          45.000  
G20  19902104.244   104586265.210        1872.477          46.000  
C22  23078588.616   120176266.472         504.921          48.000  
G24  21046536.673   110600299.283        -978.248          45.000  
G21  25197694.337   132414754.156        3627.689          38.000  
G25  23774435.906   124935504.700        4474.158          39.000  
C 6  36734462.054   191285982.616        1057.233          45.000  
G32  23120750.610   121500341.670        3056.494          42.000  
C26  23765985.987   123755725.948        4407.373          45.000  
C 8  37484038.216   195189223.560        -218.621          42.000  
C 1  37566173.459   195616921.908        1344.259          43.000  
C 9  36678379.375   190993945.528        1093.688          45.000  
C13  36111693.902   188043066.954         207.299          46.000  
C16  36656030.096   190877567.510        1039.871          47.000  
C21  22668838.046   118042586.011        2583.313          49.000  
C 3  36373084.116   189404192.901        1300.906          46.000  
C 2  37089569.675   193135121.681        1326.629          42.000  
G23  20302076.322   106688129.209        2147.348          47.000  
C11  26012645.314   135454721.1252        668.491          39.000  
G31  25312572.610   133018455.058        5136.304          37.000  
C 4  38764386.274   201856331.476        1322.052          41.000  
C 5  39054640.631   203367764.960        1323.512          38.000  
C 7  39458573.665   205471144.557        2792.694          38.000  
C12  25228332.801   131370543.484        -877.516          39.000  
> 2020  9 30  8 30 57.0000000  0 27                     
G10  21709834.666   114085946.760        3769.263          47.000  
G12  23130520.917   121551705.273        3650.340          42.000  
G15  23561436.612   123816185.473        -987.384          36.000  
G18  21640660.660   113722438.014       -1420.112          44.000  
G20  19901747.858   104584393.196        1871.100          46.000  
C22  23078491.558   120175761.683         504.180          48.000  
G24  21046722.989   110601278.189        -979.777          45.000  
G21  25197004.355   132411127.373        3626.110          38.000  
G25  23773584.563   124931030.132        4474.390          40.000  
C 6  36734259.021   191284925.578        1056.166          45.000  
G32  23120169.134   121497285.643        3055.296          43.000  
C26  23765139.425   123751318.633        4406.616          45.000  
C 8  37484080.411   195189442.044        -219.109          42.000  
C 1  37565915.022   195615577.364        1343.943          43.000  
C 9  36678169.117   190992852.288        1092.535          45.000  
C13  36111653.749   188042859.843         206.407          46.000  
C16  36655830.727   190876528.055        1038.693          47.000  
C21  22668342.111   118040003.297        2581.961          49.000  
C 3  36372834.404   189402892.042        1300.275          46.000  
C 2  37089314.832   193133795.293        1325.677          42.000  
G23  20301667.830   106685982.388        2146.003          47.000  
C11  26012516.968   135454052.7031        667.083          40.000  
G31  25311595.224   133013318.813        5136.110          37.000  
C 4  38764132.216   201855008.905        1322.168          41.000  
C 5  39054386.574   203366441.585        1322.496          39.000  
C 7  39458037.071   205468351.470        2792.512          39.000  
C12  25228501.370   131371421.259        -878.220          40.000  
> 2020  9 30  8 30 58.0000000  0 27                     
G10  21709117.358   114082176.377        3769.861          48.000  
G12  23129826.189   121548054.627        3650.958          40.000  
G15  23561625.388   123817171.722        -986.366          32.000  
G18  21640930.876   113723858.140       -1420.510          44.000  
G20  19901391.647   104582521.408        1871.443          46.000  
C22  23078394.726   120175256.602         504.952          48.000  
G24  21046909.113   110602256.870        -979.064          44.000  
G21  25196314.077   132407500.519        3626.734          38.000  
G25  23772733.358   124926555.989        4474.316          38.000  
C 6  36734055.883   191283868.040        1057.385          46.000  
G32  23119587.536   121494229.820        3055.202          44.000  
C26  23764293.212   123746912.122        4406.274          45.000  
C 8  37484122.466   195189661.108        -219.042          42.000  
C 1  37565656.811   195614232.826        1344.762          42.000  
C 9  36677959.069   190991758.878        1093.209          46.000  
C13  36111614.259   188042653.210         206.470          46.000  
C16  36655630.887   190875488.139        1039.560          47.000  
C21  22667845.932   118037420.183        2582.770          50.000  
C 3  36372584.708   189401591.488        1300.493          45.000  
C 2  37089059.989   193132469.326        1325.842          42.000  
G23  20301259.442   106683835.590        2146.483          47.000  
C11  26012388.953   135453385.263         667.068          40.000  
G31  25310617.942   133008183.352        5135.776          37.000  
C 4  38763878.350   201853686.207        1322.723          37.000  
C 5  39054132.586   203365118.641        1322.875          39.000  
C 7  39457500.808   205465558.750        2792.905          39.000  
C12  25228670.131   131372299.670        -878.508          40.000  
> 2020  9 30  8 30 59.0000000  0 27                     
G10  21708399.962   114078406.645        3769.833          48.000  
G12  23129131.671   121544404.053        3650.515          39.000  
G15  23561812.612   123818158.313        -987.360          32.000  
G18  21641201.110   113725278.572       -1420.428          44.000  
G20  19901035.714   104580650.318        1871.051          46.000  
C22  23078297.738   120174751.765         504.828          47.000  
G24  21047095.482   110603236.169        -979.246          45.000  
G21  25195624.322   132403874.551        3626.263          40.000  
G25  23771881.823   124922081.570        4474.579          36.000  
C 6  36733852.658   191282810.773        1057.357          46.000  
G32  23119006.217   121491174.540        3055.207          44.000  
C26  23763446.946   123742505.750        4406.354          44.000  
C 8  37484164.172   195189880.197        -218.973          41.000  
C 1  37565398.338   195612888.120        1344.976          42.000  
C 9  36677749.230   190990665.814        1093.082          46.000  
C13  36111574.822   188042446.809         206.270          46.000  
C16  36655431.396   190874448.536        1039.848          48.000  
C21  22667349.961   118034837.592        2582.703          49.000  
C 3  36372334.752   189400290.896        1300.717          44.000  
C 2  37088805.477   193131143.490        1325.986          42.000  
G23  20300851.160   106681689.449        2146.044          47.000  
C11  26012260.938   135452718.645         666.707          40.000  
G31  25309640.939   133003048.005        5136.121          39.000  
C 4  38763624.380   201852363.339        1322.943          36.000  
C 5  39053878.546   203363795.930        1322.802          39.000  
C 7  39456964.441   205462765.763        2792.682          38.000  
C12  25228838.788   131373178.351        -878.725          40.000  
> 2020  9 30  8 31  0.0000000  0 26                     
G10  21707682.671   114074637.261        3768.092          49.000  
G12  23128437.274   121540753.713        3648.340          37.000  
C11  26012132.924   135452052.690         664.730          40.000  
G18  21641471.658   113726699.373       -1421.763          45.000  
G20  19900679.870   104578779.776        1869.240          46.000  
C22  23078200.785   120174247.186         503.618          46.000  
G24  21047281.833   110604215.985        -981.300          45.000  
G21  25194934.411   132400249.199        3623.233          38.000  
G25  23771030.514   124917607.058        4474.146          36.000  
C 6  36733649.903   191281753.550        1056.398          46.000  
G32  23118424.810   121488119.512        3054.296          45.000  
C26  23762600.977   123738099.554        4405.584          46.000  
C 8  37484206.244   195190099.397        -220.028          41.000  
C 1  37565140.005   195611543.397        1344.032          41.000  
C 9  36677539.304   190989572.855        1091.906          46.000  
C13  36111535.175   188042240.593         205.079          46.000  
C16  36655231.469   190873409.005        1038.373          47.000  
C21  22666854.236   118032255.212        2581.200          50.000  
C 3  36372085.213   189398990.299        1299.861          45.000  
C 2  37088551.018   193129817.706        1324.986          42.000  
G23  20300442.702   106679543.811        2144.322          46.000  
G31  25308663.290   132997912.815        5135.186          36.000  
C 4  38763370.287   201851040.462        1322.205          32.000  
C 5  39053624.540   203362473.379        1321.438          38.000  
C 7  39456427.916   205459972.642        2792.661          38.000  
C12  25229007.653   131374057.177        -879.083          40.000  
> 2020  9 30  8 31  1.0000000  0 26                     
G10  21706965.676   114070868.629        3768.480          48.000  
G12  23127742.616   121537104.222        3648.837          35.000  
C11  26012005.188   135451387.640         665.336          40.000  
G18  21641742.294   113728121.256       -1422.097          45.000  
G20  19900324.060   104576910.366        1868.915          46.000  
C22  23078104.337   120173743.296         503.519          48.000  
G24  21047468.358   110605196.750        -981.037          45.000  
G21  25194244.656   132396624.555        3623.653          38.000  
G25  23770179.065   124913133.139        4474.194          35.000  
C 6  36733447.184   191280696.851        1056.855          46.000  
G32  23117843.631   121485065.177        3054.319          45.000  
C26  23761754.903   123733694.241        4404.864          45.000  
C 8  37484248.352   195190319.421        -220.082          42.000  
C 1  37564882.004   195610199.266        1344.052          44.000  
C 9  36677329.553   190988480.517        1092.021          46.000  
C13  36111495.598   188042035.285         205.341          46.000  
C16  36655031.891   190872370.002        1039.042          47.000  
C21  22666358.545   118029673.473        2581.657          50.000  
C 3  36371835.728   189397690.406        1299.695          45.000  
C 2  37088296.489   193128492.646        1324.998          42.000  
G23  20300034.751   106677399.165        2144.264          46.000  
G31  25307686.183   132992778.335        5133.337          35.000  
C 4  38763116.352   201849718.1403       1321.906          33.000  
C 5  39053370.570   203361151.364        1322.864          40.000  
C 7  39455891.340   205457180.124        2792.394          39.000  
C12  25229176.816   131374936.771        -878.801          40.000  
> 2020  9 30  8 31  2.0000000  0 26                     
G10  21706248.524   114067100.431        3768.558          48.000  
G12  23127048.167   121533455.301        3648.796          34.000  
C11  26011877.452   135450723.127         664.805          39.000  
G18  21642012.842   113729543.208       -1422.101          45.000  
G20  19899968.354   104575041.578        1868.798          46.000  
C22  23078007.454   120173240.035         503.102          48.000  
G24  21047655.058   110606178.483        -981.708          44.000  
G21  25193555.128   132393000.577        3623.805          38.000  
G25  23769327.774   124908659.134        4473.590          34.000  
C 6  36733244.064   191279640.340        1057.153          46.000  
G32  23117262.172   121482010.962        3054.853          45.000  
C26  23760908.986   123729288.820        4405.194          46.000  
C 8  37484290.494   195190539.336        -219.851          42.000  
C 1  37564623.671   195608855.259        1343.572          44.000  
C 9  36677119.714   190987388.159        1092.928          45.000  
C13  36111456.282   188041829.889         205.396          46.000  
C16  36654832.226   190871331.170        1039.310          46.000  
C21  22665862.749   118027092.124        2581.785          50.000  
C 3  36371586.033   189396390.308        1300.162          45.000  
C 2  37088042.013   193127167.257        1325.655          42.000  
G23  20299626.538   106675255.132        2144.291          46.000  
G31  25306709.093   132987643.629        5133.864          35.000  
C 4  38762862.556   201848397.1182       1322.577          31.000  
C 5  39053116.931   203359829.264        1322.799          39.000  
C 7  39455355.304   205454387.519        2792.229          39.000  
C12  25229345.751   131375816.171        -879.441          40.000  
> 2020  9 30  8 31  3.0000000  0 27                     
G10  21705531.512   114063333.468        3765.969          49.000  
G12  23126354.050   121529808.650        3646.511          33.000  
C11  26011750.013   135450059.682         662.004          39.000  
G18  21642283.652   113730967.202       -1424.968          44.000  
G20  19899613.243   104573174.851        1865.558          46.000  
C22  23077911.094   120172738.698         500.867          48.000  
G24  21047842.508   110607162.147        -984.512          46.000  
G21  25192865.600   132389377.607        3622.318          38.000  
G25  23768476.500   124904187.048        4471.838          34.000  
C 6  36733041.676   191278585.102        1054.391          47.000  
G32  23116681.289   121478957.659        3052.369          45.000  
C26  23760063.366   123724885.258        4403.052          44.000  
C 8  37484333.230   195190761.153        -222.813          41.000  
C 1  37564365.914   195607513.174        1341.475          42.000  
C 9  36676910.294   190986296.980        1090.275          46.000  
C13  36111417.002   188041626.282         202.564          45.000  
C16  36654632.997   190870293.552        1036.645          47.000  
C21  22665367.495   118024512.046        2578.991          51.000  
C 3  36371336.494   189395091.936        1297.605          44.000  
G15  23562561.174                3       -990.472          27.000  
G23  20299218.884   106673113.019        2140.845          47.000  
G31  25305732.334   132982510.125        5133.979          38.000  
C 2  37087787.833   193125843.285        1323.390          41.000  
C 4  38762609.231   201847078.0992       1319.244          29.000  
C 5  39052863.309   203358508.130        1320.214          38.000  
C 7  39454819.303   205451596.689        2790.072          37.000  
C12  25229514.617   131376696.773        -881.394          37.000  
> 2020  9 30  8 31  4.0000000  0 26                     
G10  21704814.762   114059566.787        3764.828          49.000  
G12  23125660.072   121526163.002        3645.755          32.000  
C11  26011622.906   135449397.218         661.904          39.000  
G18  21642554.951   113732392.141       -1425.054          43.000  
G20  19899258.096   104571308.647        1864.365          46.000  
C22  23077814.908   120172237.850         499.237          47.000  
G24  21048029.540   110608146.330        -986.499          46.000  
G21  25192176.369   132385755.427        3620.741          41.000  
G25  23767625.610   124899715.835        4471.387          34.000  
C 6  36732838.922   191277529.826        1053.521          46.000  
G32  23116100.319   121475904.991        3051.812          43.000  
C26  23759217.729   123720482.682        4403.259          43.000  
C 8  37484376.087   195190983.695        -222.515          40.000  
C 1  37564108.488   195606171.598        1340.932          40.000  
C 9  36676700.699   190985205.888        1089.761          46.000  
C13  36111378.123   188041423.143         202.785          45.000  
C16  36654433.890   190869255.907        1035.897          48.000  
C21  22664871.751   118021932.092        2577.910          51.000  
C 3  36371087.201   189393793.939        1297.721          44.000  
C 2  37087533.548   193124519.766        1323.541          41.000  
G23  20298811.543   106670971.264        2140.008          48.000  
G31  25304755.611   132977378.034        5132.605          36.000  
C 4  38762355.836                3       1320.773          27.000  
C 5  39052609.653   203357187.656        1320.080          38.000  
C 7  39454283.791   205448806.749        2789.747          39.000  
C12  25229683.727   131377578.198        -881.184          38.000  
> 2020  9 30  8 31  5.0000000  0 25                     
G10  21704098.134   114055800.519        3765.980          50.000  
G12  23124966.775   121522517.534        3644.433          30.000  
C11  26011495.746   135448735.365         661.683          39.000  
G18  21642826.371   113733817.750       -1426.703          42.000  
G20  19898903.036   104569443.255        1864.779          47.000  
C22  23077718.879   120171737.189         500.091          44.000  
G24  21048217.007   110609130.926        -984.965          49.000  
G21  25191486.928   132382133.525        3622.257          40.000  
G25  23766774.825   124895244.565        4470.599          35.000  
C 6  36732636.482   191276474.708        1054.892          47.000  
G32  23115519.367   121472852.627        3052.293          45.000  
C26  23758372.388   123716080.496        4401.129          41.000  
C 8  37484419.137   195191206.591        -223.863          38.000  
C 1  37563850.905   195604830.059        1340.504          38.000  
C 9  36676491.419   190984115.183        1090.162          46.000  
C13  36111339.156   188041220.634         201.545          43.000  
C16  36654234.748   190868218.477        1037.163          48.000  
C21  22664376.532   118019352.482        2579.297          51.000  
C 3  36370837.959   189392496.329        1296.382          41.000  
C 2  37087279.508   193123196.690        1322.474          39.000  
G23  20298403.993   106668830.239        2140.578          49.000  
G31  25303779.079   132972245.976        5130.202          36.000  
C 5  39052355.979   203355867.455        1319.532          39.000  
C 7  39453747.772   205446016.714        2788.926          35.000  
C12  25229852.942   131378460.060        -882.831          36.000  
> 2020  9 30  8 31  6.0000000  0 24                     
G10  21703381.122   114052033.557        3766.085          49.000  
C 7  39453211.719   205443226.712        2789.639          38.000  
C11  26011368.499   135448072.971         661.823          41.000  
G18  21643097.827   113735243.602       -1426.262          44.000  
G20  19898548.273   104567577.805        1864.392          47.000  
C22  23077622.607   120171236.405         499.692          41.000  
G24  21048404.458   110610115.387        -985.531          45.000  
G21  25190797.627   132378510.833        3622.177          41.000  
G25  23765924.039   124890773.347        4470.935          39.000  
C 6  36732433.623   191275418.812        1055.231          47.000  
G32  23114938.292   121469799.567        3052.359          45.000  
C26  23757527.012   123711678.437        4401.581          42.000  
C 8  37484461.611   195191429.586        -223.719          39.000  
C 1  37563593.183   195603488.550        1340.856          36.000  
C 9  36676281.702   190983023.674        1090.754          46.000  
C13  36111300.330   188041017.957         201.607          45.000  
C16  36654035.554   190867180.258        1037.435          48.000  
C21  22663880.701   118016772.104        2579.529          51.000  
C 3  36370588.665   189391198.510        1296.993          43.000  
C 2  37087025.259   193121873.185        1322.964          41.000  
G23  20297996.548   106666688.998        2140.280          48.000  
G31  25302802.530   132967113.824        5132.449          38.000  
C 5  39052102.375   203354546.747        1320.574          39.000  
C12  25230022.506   131379341.459        -881.487          38.000  
> 2020  9 30  8 31  7.0000000  0 23                     
G10  21702664.494   114048266.910        3766.165          49.000  
C 7  39452676.137   205440436.655        2789.634          35.000  
C11  26011241.566   135447411.199         661.038          42.000  
G18  21643369.143   113736669.862       -1426.747          44.000  
G20  19898193.440   104565712.956        1864.678          48.000  
C22  23077526.648   120170735.910         500.611          39.000  
G24  21048591.855   110611100.372        -985.093          43.000  
G21  25190108.326   132374888.745        3621.419          39.000  
G25  23765073.010   124886302.154        4471.076          34.000  
C 6  36732231.009   191274362.979        1055.852          47.000  
G32  23114357.322   121466746.748        3052.649          46.000  
C26  23756681.584   123707276.632        4401.874          43.000  
C 8  37484504.329   195191652.745        -223.474          41.000  
C12  25230191.773   131380223.126        -882.452          38.000  
C 9  36676072.020   190981932.279        1091.105          46.000  
C13  36111261.329   188040815.498         202.488          46.000  
C16  36653836.307   190866142.117        1038.086          48.000  
C21  22663385.132   118014191.976        2580.035          51.000  
C 3  36370339.511   189389900.720        1297.744          43.000  
C 2  37086770.991   193120549.769        1323.366          42.000  
G23  20297589.278   106664548.246        2140.516          49.000  
G31  25301826.033   132961981.627        5133.517          41.000  
C 5  39051848.789   203353226.115        1319.521          39.000  
> 2020  9 30  8 31  8.0000000  0 25                     
G10  21701948.198   114044501.293        3765.619          50.000  
C 7  39452140.537   205437647.067        2788.372          31.000  
C11  26011114.843   135446750.665         660.821          41.000  
G18  21643640.947   113738097.005       -1427.057          44.000  
G20  19897838.730   104563849.321        1863.462          47.000  
C22  23077430.829   120170236.316         499.320          34.000  
G24  21048779.498   110612086.525        -986.052          37.000  
G21  25189419.182   132371267.811        3620.949          42.000  
G25  23764221.491   124881831.422        4470.526          27.000  
C 6  36732028.342   191273307.834        1055.132          46.000  
G32  23113776.596   121463694.922        3051.912          47.000  
C26  23755836.417   123702875.497        4401.397          42.000  
C 8  37484547.256   195191876.471        -223.523          40.000  
C12  25230361.354   131381105.472        -881.651          39.000  
C 9  36675862.617   190980841.690        1090.889          46.000  
C13  36111222.572   188040613.835         201.946          46.000  
C16  36653637.008   190865104.715        1037.517          48.000  
C21  22662889.965   118011612.760        2579.204          51.000  
C 3  36370090.322   189388603.455        1297.599          44.000  
G12  23122885.191   121511581.3033       3643.660          25.000  
G23  20297181.920   106662408.669        2139.416          48.000  
C 1  37563077.721   195600802.0963       1341.077          30.000  
G31  25300849.781   132956850.341        5131.675          38.000  
C 2  37086517.143   193119227.066        1322.877          41.000  
C 5  39051595.272   203351906.200        1320.043          39.000  
> 2020  9 30  8 31  9.0000000  0 24                     
G10  21701231.412   114040736.545        3764.683          48.000  
C 7  39451602.739   205434858.315        2787.619          29.000  
C11  26010988.364   135446091.391         659.753          43.000  
G18  21643912.420   113739525.345       -1428.443          47.000  
G20  19897484.194   104561986.802        1862.005          44.000  
C 2  37086263.173   193117905.130        1322.235          43.000  
G24  21048967.751   110613074.006        -988.659          31.000  
G21  25188730.753   132367648.008        3619.835          41.000  
G25  23763374.266   124877361.601        4469.879          27.000  
C 6  36731825.640   191272253.289        1054.137          44.000  
G32  23113196.202   121460644.044        3051.051          45.000  
C26  23754991.321   123698475.413        4399.774          44.000  
C 8  37484590.219   195192101.174        -224.750          40.000  
C12  25230530.988   131381988.838        -882.830          40.000  
C 9  36675653.215   190979751.800        1090.200          47.000  
C13  36111184.024   188040413.111         200.581          47.000  
C16  36653437.587   190864067.893        1036.620          46.000  
C21  22662394.885   118009034.263        2578.318          46.000  
C 3  36369841.150   189387307.035        1296.628          44.000  
G12  23122189.712                3       3644.611          24.000  
G23  20296775.068   106660270.075        2138.050          46.000  
C 1  37562819.179                3       1371.250          28.000  
G31  25299873.406   132951719.899        5131.475          40.000  
C 5  39051342.104   203350587.216        1319.347          39.000  
> 2020  9 30  8 31 10.0000000  0 22                     
G10  21700514.732   114036972.429        3764.110          40.000  
C22  23077241.598                3        498.275          22.000  
C11  26010861.780   135445432.703         658.228          40.000  
G18  21644184.400   113740954.212       -1428.252          41.000  
G20  19897129.344   104560125.098        1860.574          37.000  
C 2  37086009.446   193116583.321        1321.529          39.000  
G24  21049156.562                3       -989.239          23.000  
G21  25188042.150   132364028.719        3619.021          43.000  
G25  23762524.650                3       4476.112          10.000  
C 6  36731623.497   191271199.049        1052.858          38.000  
G32  23112615.511   121457593.319        3050.444          46.000  
C26  23754146.451   123694075.644        4399.090          35.000  
C 8  37484633.740   195192326.121        -224.976          33.000  
C12  25230700.813   131382872.174        -882.945          40.000  
C 9  36675444.074   190978662.228        1088.992          44.000  
C13  36111145.651   188040212.876         199.830          37.000  
C16  36653238.864   190863031.464        1035.211          41.000  
C21  22661900.363   118006456.397        2577.000          49.000  
C 3  36369593.061   189386010.704        1295.958          43.000  
C 5  39051088.797   203349268.202        1319.373          40.000  
G23  20296368.583   106658132.292        2136.027          38.000  
G31  25298896.997   132946589.395        5131.493          39.000  
> 2020  9 30  8 31 11.0000000  0 22                     
G10  21699798.994   114033210.906        3761.885          44.000  
C22  23077146.128                3        496.533          31.000  
C11  26010735.597                3        656.154          32.000  
G18  21644456.675   113742384.437       -1430.857          45.000  
G20  19896777.198                3       1859.115          26.000  
C 2  37085756.104   193115262.577        1320.680          46.000  
C 7  39450533.268                3       2795.435          20.000  
G21  25187352.605                3       3619.661          29.000  
G25  23761675.679                3       4467.474          15.000  
C 6  36731421.964   191270147.490        1052.243          33.000  
G32  23112035.274   121454543.234        3050.356          30.000  
C26  23753301.494   123689676.428        4398.712          46.000  
C 8  37484678.569                3       -227.118          34.000  
C12  25230870.359   131383755.268        -882.588          38.000  
C 9  36675235.457   190977574.892        1087.496          44.000  
C13  36111107.313   188040014.317         199.204          44.000  
C16  36653041.083   190861997.545        1035.406          38.000  
C21  22661406.347   118003881.133        2576.275          45.000  
C 3  36369345.093   189384716.206        1294.983          43.000  
C 5  39050835.332   203347949.382        1318.027          40.000  
G23  20295964.209   106655998.057        2133.833          30.000  
G31  25297920.518   132941457.925        5131.354          35.000  
> 2020  9 30  8 31 12.0000000  0 23                     
G10  21699082.872   114029448.979        3762.275          42.000  
C22  23077048.808   120168248.2462        495.198          34.000  
C11  26010610.218                2        657.049          25.000  
G18  21644728.899   113743815.365       -1431.262          46.000  
G20  19896422.941                2       1858.949          27.000  
C 2  37085502.413   193113942.219        1320.844          38.000  
G12  23120114.951   121497024.1052       3640.652          34.000  
G21  25186668.801                3       3610.625          26.000  
G25  23760822.712                3       4468.061          18.000  
C 6  36731219.751                3       1054.607          26.000  
G32  23111455.438   121451494.190        3048.615          36.000  
C26  23752456.886   123685278.084        4398.468          50.000  
C 8  37484723.329   195192790.6342       -227.104          39.000  
G24  21049534.062                2       -988.983          27.000  
C 9  36675026.822   190976487.328        1088.792          35.000  
C13  36111069.237   188039816.148         197.909          37.000  
C16  36652842.953   190860963.586        1033.440          34.000  
C21  22660911.581   118001305.467        2575.976          47.000  
C 3  36369096.619   189383422.016        1294.817          43.000  
C 5  39050582.269   203346628.7043       1319.146          35.000  
G23  20295556.362                3       2133.920          29.000  
G31  25296942.869                2       5129.621          27.000  
C12  25231041.197                3       -879.461          20.000  
> 2020  9 30  8 31 13.0000000  0 22                     
G10  21698366.820   114025687.745        3761.238          39.000  
C22  23076953.635   120167753.6562        494.460          34.000  
C11  26010483.546   135443417.8462        653.048          24.000  
G18  21645001.052   113745247.262       -1430.774          52.000  
G20  19896070.185                3       1857.539          27.000  
C 2  37085249.036   193112622.307        1320.309          41.000  
C12  25231210.412                2       -883.564          33.000  
G21  25185975.224                3       3615.482          26.000  
G25  23759970.740                3       4463.714          19.000  
C 6  36731016.229                2       1048.467          31.000  
G32  23110875.375   121448444.940        3050.698          38.000  
C26  23751612.435   123680880.484        4399.115          51.000  
C 8  37484766.449   195193017.9012       -223.899          32.000  
G24  21049723.694                2       -993.480          27.000  
C 9  36674817.681   190975400.034        1086.594          34.000  
C13  36111031.265   188039618.840         197.521          46.000  
C16  36652643.567   190859929.963        1033.767          38.000  
C21  22660417.409                3       2574.321          30.000  
C 3  36368848.338   189382128.286        1295.818          41.000  
C 5  39050329.608   203345313.3433       1319.593          34.000  
G23  20295154.571                3       2139.964          24.000  
G31  25295969.479                3       5130.178          38.000  
> 2020  9 30  8 31 14.0000000  0 23                     
G10  21697652.303   114021926.416        3761.347          35.000  
C22  23076859.282   120167258.4492        496.067          36.000  
G12  23118726.053                3       3639.020          31.000  
G18  21645273.433   113746678.616       -1431.207          45.000  
C 4  38759834.227                3       1325.648          30.000  
C 2  37084995.362   193111301.802        1320.603          35.000  
C 7  39448927.865   205420919.1832       2787.803          33.000  
C 1  37561536.884                3       1335.797          37.000  
G25  23759120.601                3       4468.537          21.000  
C 6  36730815.116                3       1053.052          26.000  
G32  23110297.424                3       3050.194          32.000  
C26  23750767.618   123676482.339        4397.650          43.000  
C 8  37484805.171   195193243.6452       -226.058          28.000  
G24  21049916.065                3       -996.317          26.000  
C 9  36674606.498   190974312.551        1087.497          35.000  
C13  36110993.206   188039419.777         199.520          27.000  
C16  36652447.043   190858895.788        1037.223          26.000  
C21  22659925.190   117996176.2482       2575.923          36.000  
C 3  36368599.602   189380841.1543       1294.993          29.000  
G15  23564641.414                3       -993.207          30.000  
G23  20294747.213                2       2132.730          31.000  
G31  25294989.527   132926087.5302       5126.600          28.000  
C12  25231378.772                2       -881.989          23.000  
> 2020  9 30  8 31 15.0000000  0 23                     
G10  21696936.931   114018165.804        3761.731          31.000  
C22  23076766.255   120166777.2453        494.840          43.000  
G12  23118035.618   121486084.7542       3639.602          38.000  
G18  21645545.935   113748110.290       -1432.004          36.000  
C12  25231553.466                3       -884.741          30.000  
C 2  37084741.723   193109981.1373       1321.569          35.000  
C 7  39448392.649   205418131.5663       2788.889          28.000  
C 1  37561279.214                3       1338.889          40.000  
G25  23758270.444                2       4469.666          29.000  
C 5  39049827.896                3       1317.453          31.000  
G32  23109719.839   121442397.2372       3049.938          27.000  
C26  23749923.027   123672084.442        4397.955          41.000  
C 8  37484856.038   195193469.6212       -225.274          26.000  
G24  21050100.444   110619023.9942       -992.996          36.000  
C 9  36674400.115   190973224.734        1087.715          35.000  
C13  36110956.543   188039221.525         198.505          32.000  
C16  36652249.419   190857860.906        1036.988          26.000  
C21  22659429.674                3       2575.655          24.000  
C 3  36368351.006   189379547.1733       1294.493          30.000  
G15  23564829.807   123834016.0962       -991.995          27.000  
G23  20294337.325   106647482.7022       2134.040          34.000  
C 6  36730613.984                3       1055.396          24.000  
G31  25294016.206   132920957.9912       5129.337          27.000  
> 2020  9 30  8 31 16.0000000  0 25                     
G10  21696220.513   114014404.459        3761.946          35.000  
C22  23076673.786   120166282.3982        494.910          42.000  
G12  23117345.445   121482445.2602       3639.592          39.000  
G18  21645820.253   113749542.238       -1432.354          28.000  
C12  25231723.344   131388204.3572       -883.499          31.000  
C 2  37084488.398                3       1312.173          29.000  
C 7  39447860.976   205415343.4872       2787.876          29.000  
C 1  37561022.085                3       1337.835          37.000  
G25  23757416.447                2       4468.036          26.000  
C 5  39049572.984                3       1318.826          33.000  
G32  23109137.141   121439347.5302       3048.987          31.000  
C26  23749078.489   123667686.586        4396.710          30.000  
C 4  38759326.007                3       1315.425          30.000  
G24  21050269.572   110620017.3812       -995.474          28.000  
C 9  36674191.724   190972136.358        1089.020          30.000  
C13  36110921.800   188039023.346         197.416          27.000  
C16  36652043.210                3       1033.959          23.000  
G20  19895014.552                3       1857.886          19.000  
C 3  36368102.201                3       1293.016          28.000  
G15  23565016.280   123835009.3102       -993.287          30.000  
G23  20293928.623   106645349.7022       2127.928          30.000  
C 6  36730414.912                3       1053.844          23.000  
C21  22658930.109                3       2579.210          23.000  
G31  25293040.966   132915828.3392       5129.901          26.000  
C 8  37484895.476                3       -234.863          24.000  
> 2020  9 30  8 31 17.0000000  0 22                     
G10  21695501.319   114010643.484        3759.522          30.000  
C22  23076574.895   120165788.3472        493.937          37.000  
G12  23116650.019   121478814.8013       3638.188          34.000  
G18  21646087.555   113750974.847       -1434.016          29.000  
C12  25231888.998   131389088.4382       -883.489          31.000  
C 2  37084235.021                3       1320.026          28.000  
C 7  39447322.619   205412555.8122       2787.340          28.000  
C 1  37560764.136   195588755.4732       1336.923          28.000  
G25  23756565.557                3       4467.241          24.000  
C 5  39049321.980                2       1320.398          30.000  
C21  22658434.715                2       2573.827          26.000  
C26  23748233.951   123663289.195        4396.405          30.000  
C 4  38759065.545   201828625.3862       1314.691          34.000  
G24  21050472.989                3      -1001.755          26.000  
C 9  36673986.038   190971048.447        1086.833          28.000  
C13  36110876.377   188038825.454         197.031          27.000  
C16  36651850.943                3       1034.624          23.000  
G20  19894664.954                3       1858.698          21.000  
C 6  36730214.148                3       1057.410          19.000  
G15  23565209.820   123836002.9682       -993.666          39.000  
G31  25292067.889                3       5130.028          24.000  
C 8  37484940.584                3       -234.863          20.000  
> 2020  9 30  8 31 18.0000000  0 22                     
G10  21694793.695                3       3757.651          20.000  
C22  23076491.326   120165294.4732        492.302          26.000  
G12  23115954.732   121475177.1522       3637.248          29.000  
G18  21646366.148                3      -1434.293          23.000  
C12  25232061.790                3       -890.646          22.000  
G32  23107972.968                3       3048.446          22.000  
C 7  39446784.071   205409768.7342       2785.801          27.000  
C 1  37560509.206                3       1336.592          27.000  
G25  23755717.093                3       4467.243          21.000  
C 5  39049081.568                3       1237.514          28.000  
C21  22657940.717                3       2571.496          25.000  
C26  23747389.029   123658892.652        4395.172          29.000  
C 4  38758814.803                3       1314.890          27.000  
G24  21050669.775                2       -993.667          27.000  
C 9  36673776.217                3       1090.785          14.000  
C13  36110841.930                3        200.271          17.000  
C16  36651652.814                3       1033.697          20.000  
G20  19894316.892                3       1859.520          22.000  
C 6  36730008.985                3       1057.410          17.000  
G15  23565398.544                3       -997.177          25.000  
G31  25291100.519                3       5130.425          21.000  
C 8  37484984.611                3       -234.863          16.000  
> 2020  9 30  8 31 19.0000000  0 18                     
G10  21694082.111                3       3760.628          19.000  
C22  23076399.364                3        492.524          23.000  
G12  23115257.683                3       3642.418          19.000  
G18  21646645.316                3      -1438.458          21.000  
C12  25232242.069                3       -890.646          19.000  
G32  23107395.104                3       3046.073          20.000  
C 7  39446251.281                3       2785.650          22.000  
C 8  37485030.139                3       -234.863          13.000  
G25  23754866.325                3       4471.691          18.000  
C21  22657447.207                3       2571.496          21.000  
C26  23746539.866                3       4418.295          17.000  
G24  21050860.017                3       -996.780          25.000  
C 9  36673563.132                3       1090.785          14.000  
C13  36110801.480                3        200.271          16.000  
C16  36651454.544                3       1033.697          17.000  
G20  19893961.728                3       1856.335          21.000  
C 6  36729808.744                3       1057.410          10.000  
G31  25290127.181                3       5130.425          18.000  
> 2020  9 30  8 31 20.0000000  0 17                     
G10  21693361.504                3       3757.456          21.000  
C22  23076307.349                3        489.355          22.000  
G12  23114561.646                3       3641.365          19.000  
G18  21646918.203                3      -1434.443          21.000  
C12  25232409.416                3       -890.646          16.000  
G32  23106822.195                3       3042.262          17.000  
C 7  39445719.555                3       2785.650          19.000  
C 8  37485073.642                3       -221.549          12.000  
G25  23754014.283                3       4471.691          16.000  
C21  22656952.075                3       2571.496          19.000  
C26  23745693.757                3       4389.223          17.000  
G24  21051049.562                3       -991.821          24.000  
C 9  36673354.306                3       1090.785          14.000  
C13  36110767.103                3        199.737          17.000  
C16  36651254.600                3       1033.697          12.000  
G20  19893606.947                3       1855.500          18.000  
G31  25289146.060                3       5130.425          14.000  
> 2020  9 30  8 31 21.0000000  0 18                     
G10  21692649.430                3       3754.499          22.000  
C22  23076206.574                2        489.574          28.000  
G12  23113878.837                3       3629.585          18.000  
G18  21647189.187                3      -1441.289          21.000  
C12  25232580.673                3       -885.992          16.000  
G32  23106240.999                3       3051.061          18.000  
C 7  39445184.601                3       2785.650          12.000  
C 8  37485116.500                3       -221.549          12.000  
G25  23753163.847                3       4471.691          14.000  
C21  22656457.448                3       2575.513          16.000  
C26  23744851.401                3       4393.345          18.000  
G24  21051236.035                3       -996.986          20.000  
C 9  36673145.741                3       1090.785          14.000  
C13  36110731.540                3        199.737          15.000  
C16  36651058.058                3       1033.697          11.000  
G20  19893252.184                3       1855.500          15.000  
G23  20291895.394                3       2131.125          17.000  
G31  25288170.418                3       5130.425          13.000  
> 2020  9 30  8 31 22.0000000  0 18                     
G10  21691931.546                3       3746.380          23.000  
C22  23076110.004   120163373.4662        488.004          29.000  
G12  23113191.193                3       3629.585          15.000  
G18  21647455.181                3      -1440.648          23.000  
C12  25232749.469                3       -885.992          16.000  
G32  23105660.535                3       3043.298          18.000  
C 7  39444657.046                3       2785.650          13.000  
C 8  37485159.445                3       -221.549          12.000  
G25  23752311.648                3       4471.691          11.000  
C21  22655963.188                3       2575.513          14.000  
C26  23744007.124                3       4392.764          19.000  
G24  21051425.195                3       -996.986          18.000  
C 9  36672934.837                3       1090.785          14.000  
C13  36110695.680                3        191.980          18.000  
C16  36650859.614                3       1033.697          13.000  
G20  19892899.550                3       1855.500          11.000  
G23  20291487.320                3       2131.125          15.000  
G31  25287192.612                3       5130.425          11.000  
> 2020  9 30  8 31 23.0000000  0 16                     
G10  21691215.982                3       3762.668          22.000  
C22  23076015.267   120162885.9432        487.356          29.000  
G12  23112500.619                3       3629.585          13.000  
G18  21647730.685                3      -1440.861          25.000  
C12  25232917.759                3       -885.992          15.000  
G32  23105081.030                3       3048.984          19.000  
C 7  39444123.035                3       2785.650          11.000  
C 8  37485202.163                3       -221.549          14.000  
C21  22655468.946                3       2575.513          13.000  
C26  23743165.867                3       4392.764          17.000  
G24  21051616.938                3       -996.986          12.000  
C 9  36672727.267                3       1088.846          13.000  
C13  36110658.982                3        199.227          19.000  
C16  36650658.273                3       1033.697          13.000  
G23  20291080.294                3       2119.919          13.000  
G31  25286216.534                3       5130.425          10.000  
> 2020  9 30  8 31 24.0000000  0 14                     
G10  21690500.750                3       3757.508          21.000  
C22  23075922.222   120162398.5492        487.116          29.000  
G12  23111810.288                3       3629.585          11.000  
G18  21648005.788                3      -1440.760          26.000  
C12  25233088.247                3       -885.992          13.000  
G32  23104502.276                3       3046.492          19.000  
C 8  37485244.009                3       -234.017          13.000  
C21  22654974.389                3       2575.513          11.000  
C26  23742321.398                3       4392.764          13.000  
G24  21051805.226                3       -996.986          12.000  
C 9  36672516.765                3       1088.846          11.000  
C13  36110620.365                3        191.827          20.000  
C16  36650461.068                3       1033.697          13.000  
G23  20290677.718                3       2119.919          12.000  
> 2020  9 30  8 31 25.0000000  0 11                     
G10  21689784.680                3       3743.447          20.000  
C22  23075828.654   120161911.2002        487.194          29.000  
G12  23111120.428                3       3629.585          10.000  
G18  21648279.582                3      -1439.992          26.000  
C12  25233257.497                3       -885.992          12.000  
G32  23103922.109                3       3039.074          20.000  
C 8  37485288.140                3       -234.017          15.000  
G24  21051996.463                3       -996.986          11.000  
C13  36110583.998                3        203.903          21.000  
C16  36650262.415                3       1033.697          13.000  
G23  20290274.809                3       2119.919          12.000  
> 2020  9 30  8 31 26.0000000  0 11                     
G10  21689071.717                3       3755.348          20.000  
C22  23075736.674   120161424.2132        486.489          29.000  
G12  23110430.098                3       3629.585          10.000  
G18  21648551.090                3      -1441.432          26.000  
C12  25233428.579                3       -885.992          13.000  
G32  23103343.529                3       3050.260          19.000  
C 8  37485333.424                3       -234.017          14.000  
G24  21052185.763                3       -996.986          10.000  
C13  36110546.951                3        184.738          20.000  
C16  36650066.205                3       1035.695          13.000  
G23  20289874.362                3       2119.919          14.000  
> 2020  9 30  8 31 27.0000000  0 11                     
G10  21688356.537                3       3756.477          19.000  
C22  23075642.548   120160937.9292        485.444          29.000  
G12  23109739.488                3       3629.585          11.000  
G18  21648824.622                3      -1442.058          26.000  
C12  25233597.811                3       -891.824          12.000  
G32  23102763.362                3       3047.315          20.000  
C 8  37485379.073                3       -231.191          13.000  
C26  23739788.674                3       4392.764          11.000  
C 9  36671892.606                3       1088.846          11.000  
C13  36110511.213                3        188.140          20.000  
C16  36649866.784                3       1035.695          12.000  
> 2020  9 30  8 31 28.0000000  0 12                     
G10  21687642.596                3       3748.611          20.000  
C22  23075549.817   120160452.9852        484.204          29.000  
G12  23109047.377                3       3629.585          11.000  
G18  21649099.410                3      -1443.729          26.000  
C12  25233772.104                3       -891.824          12.000  
G32  23102183.404                3       3041.161          19.000  
C 8  37485422.455                3       -231.191          13.000  
G24  21052565.619                3       -996.986          11.000  
C 9  36671683.884                3       1088.846          12.000  
C13  36110476.034                3        190.060          20.000  
C16  36649667.485                3       1035.695          10.000  
G23  20289065.928                3       2124.522          15.000  
> 2020  9 30  8 31 29.0000000  0 12                     
G10  21686928.603                3       3744.051          20.000  
C22  23075456.686   120159969.0182        483.632          29.000  
G18  21649373.675                3      -1444.316          26.000  
C12  25233942.680                3       -891.824          11.000  
G32  23101603.638                3       3040.913          19.000  
C 8  37485467.563                3       -231.191          13.000  
C26  23738103.140                3       4392.764          10.000  
G24  21052754.204                3      -1001.771          13.000  
C 9  36671474.725                3       1088.846          12.000  
C13  36110440.976                3        192.810          20.000  
C16  36649469.006                3       1035.695          12.000  
G23  20288661.188                3       2124.522          15.000  
> 2020  9 30  8 31 30.0000000  0 12                     
G10  21686214.942                3       3754.103          20.000  
C22  23075361.006   120159485.8062        482.664          28.000  
G18  21649654.764                3      -1473.103          23.000  
C12  25234113.884                3       -891.824          12.000  
G32  23101026.612                3       3040.551          21.000  
C 8  37485511.206                3       -231.191          12.000  
C26  23737260.416                3       4383.976          14.000  
G24  21052945.859                3      -1001.771          12.000  
C 9  36671267.696                3       1088.846          12.000  
C13  36110403.825                3        185.123          19.000  
C16  36649271.731                3       1035.695          14.000  
G23  20288257.337                3       2120.971          15.000  
> 2020  9 30  8 31 31.0000000  0 11                     
G10  21685498.226                3       3765.167          19.000  
C22  23075271.172   120159003.5732        481.176          29.000  
G18  21649931.524                3      -1444.587          20.000  
G32  23100448.364                3       3045.111          22.000  
C 8  37485557.781                3       -231.191          10.000  
C26  23736421.863                3       4383.903          21.000  
G24  21053138.440                3      -1006.277          15.000  
C 9  36671060.649                3       1083.984          13.000  
C13  36110368.698                3        186.846          18.000  
C16  36649076.254                3       1029.913          14.000  
G23  20287855.162                3       2118.879          17.000  
> 2020  9 30  8 31 32.0000000  0 12                     
G10  21684783.151                3       3751.907          17.000  
C22  23075180.187   120158522.1232        480.993          28.000  
G18  21650207.639                3      -1446.520          16.000  
C12  25234452.296                3       -891.824          10.000  
G32  23099869.889                3       3040.060          21.000  
C21  22651024.044                3       2564.934          11.000  
C26  23735581.426                2       4385.443          22.000  
G24  21053330.916                3      -1005.299          17.000  
C 9  36670856.394                3       1069.252          15.000  
C13  36110333.169                3        186.846          16.000  
C16  36648878.595                3       1029.913          13.000  
G23  20287453.737                3       2118.879          16.000  
> 2020  9 30  8 31 33.0000000  0 11                     
G10  21684069.193                3       3751.907          16.000  
C22  23075082.186                3        471.705          18.000  
G18  21650483.789                3      -1449.326          20.000  
G32  23099292.584                3       3032.995          21.000  
C21  22650534.216                3       2564.934          11.000  
C26  23734739.296                3       4390.668          19.000  
G24  21053523.182                3      -1005.299          17.000  
C 9  36670651.407                3       1069.252          13.000  
C13  36110295.930                3        186.846          14.000  
C16  36648680.954                3       1029.913          11.000  
G23  20287051.458                3       2121.119          17.000  
> 2020  9 30  8 31 34.0000000  0 12                     
G10  21683356.736                3       3751.823          15.000  
C22  23074991.812                3        471.705          17.000  
G12  23104909.931                3       3621.684          12.000  
G18  21650759.205                3      -1447.833          21.000  
G32  23098716.238                3       3044.817          19.000  
C21  22650044.266                3       2564.934          13.000  
C26  23733897.742                3       4384.108          19.000  
G24  21053713.756                3      -1005.299          14.000  
C 9  36670447.082                3       1069.252          12.000  
C13  36110258.691                3        186.846          12.000  
C16  36648481.481                3       1029.913          11.000  
G23  20286650.975                3       2116.956          17.000  
